12 21 09.256462944 Ï$GPGGA,202109.000,3437.7906,N,11733.2919,W,2,09,1.22,887.0,M,-31.2,M,0000,0000*58
12 21 09.361921197
12 21 09.464131474 $GPGSA,A,3,10,27,11,22,01,14,03,08,32,,,,2.24,1.22,1.88*0C
12 21 09.580321651
12 21 09.703005782 $GPRMC,202109.000,A,3437.7906,N,11733.2919,W,0.00,251.58,091217,,,D*79
12 21 09.808638034
12 21 09.911260307 $GPVTG,251.58,T,,M,0.00,N,0.01,K,D*32
12 21 10.016522562
12 21 10.119549833 $GPGSA,A,3,10,27,11,22,01,14,03,08,32,,,,2.24,1.22,1.88*0C
12 21 10.230857044 ,11733.2919,W,2,09,1.22,887.0,M,-31.2,M,0000,0000*58
12 21 10.337335290 ëãB¡è∏R˝Z≈Q¡oÉ$GPRMC,202109.000,A,3437.7906,N,11733.2919,W,0.00,251.58,091217,,,D*79
12 21 10.444863529 W∫$GPVTG,251.58,T,,M,0.00,N,0.01,K,D*32
12 21 10.551659773 $GPGSA,A,3,10,27,11,22,01,14,03,08,32,,,,2.24,1.22,1.88*0C
12 21 10.658332017  $GPRMC,202109.000,A,3437.7906,N,11733.2919,W,0.00,251.58,091217,,,D*79
12 21 10.765348260 W∫$GPVTG,251.58,T,,M,0.00,N,0.01,K,D*32
12 21 10.871581507 2919,W,0.00,251.58,091217,,,D*79
12 21 10.978007754 W∫$GPGSA,A,3,10,27,11,22,01,14,03,08,32,,,,2.24,1.22,1.88*0C
12 21 11.084648999 1217,,,D*79
12 21 11.189581256 W∫$GPRMC,202109.000,A,3437.7906,N,11733.2919,W,0.00,251.58,091217,,,D*79
12 21 11.296319500 W∫$GPVTG,251.58,T,,M,0.00,N,0.01,K,D*32
12 21 11.402356749 2919,W,0.00,251.58,091217,,,D*79
12 21 11.508529997 W∫$GPGSA,A,3,10,27,11,22,01,14,03,08,32,,,,2.24,1.22,1.88*0C
12 21 11.614622246 1217,,,D*79
12 21 11.725304462 W∫$GPGGA,202110.000,3437.7906,N,11733.2919,W,2,08,1.25,887.0,M,-31.2,M,0000,0000*56
12 21 11.853817552
12 21 12.027266324 $GPGSA,A,3,10,27,11,22,01,14,03,08,,,,,2.26,1.25,1.88*08
12 21 12.132983575
12 21 12.235935846 $GPRMC,202110.000,A,3437.7906,N,11733.2919,W,0.00,0.00,091217,,,D*7A
12 21 12.341550098
12 21 12.444305371 $GPVTG,0.00,T,,M,0.00,N,0.00,K,D*38
12 21 12.549341627
12 21 12.652189899 $GPRMC,202109.000,A,3437.7906,N,11733.2919,W,0.00,251.58,091217,,,D*79
12 21 12.758909143 $GPVTG,251.58,T,,M,0.00,N,0.01,K,D*32
12 21 12.865453389 2919,W,0.00,251.58,091217,,,D*79
12 21 12.971277639 $GPGSA,A,3,10,27,11,22,01,14,03,08,32,,,,2.24,1.22,1.88*0C
12 21 13.077628886  $GPGGA,202110.000,3437.7906,N,11733.2919,W,2,08,1.25,887.0,M,-31.2,M,0000,0000*56
12 21 13.188806099 $GPGSA,A,3,10,27,11,22,01,14,03,08,,,,,2.26,1.25,1.88*08
12 21 13.294837348 0,M,-31.2,M,0000,0000*56
12 21 13.401078596 $GPRMC,202110.000,A,3437.7906,N,11733.2919,W,0.00,0.00,091217,,,D*7A
12 21 13.507491842 0000,0000*56
12 21 13.614013088 $GPVTG,0.00,T,,M,0.00,N,0.00,K,D*38
12 21 13.720194336 3.2919,W,0.00,0.00,091217,,,D*7A
12 21 13.826356584 0000,0000*56
12 21 13.936487805 $GPRMC,202109.000,A,3437.7906,N,11733.2919,W,0.00,251.58,091217,,,D*79
12 21 14.042468054 00,0000*56
12 21 14.148214305 $GPVTG,251.58,T,,M,0.00,N,0.01,K,D*32
12 21 14.254230555 $GPGSA,A,3,10,27,11,22,01,14,03,08,32,,,,2.24,1.22,1.88*0C
12 21 14.360880799  $GPGGA,202110.000,3437.7906,N,11733.2919,W,2,08,1.25,887.0,M,-31.2,M,0000,0000*56
12 21 14.467763043 $GPGSA,A,3,10,27,11,22,01,14,03,08,,,,,2.26,1.25,1.88*08
12 21 14.575361281 0,M,-31.2,M,0000,0000*56
12 21 14.685576500 $GPRMC,202110.000,A,3437.7906,N,11733.2919,W,0.00,0.00,091217,,,D*7A
12 21 14.791798748 0000,0000*56
12 21 14.898039996 $GPVTG,0.00,T,,M,0.00,N,0.00,K,D*38
12 21 15.004015245 3.2919,W,0.00,0.00,091217,,,D*7A
12 21 15.109939495 0000,0000*56
12 21 15.215521748 $GPGGA,202111.000,3437.7906,N,11733.2919,W,2,09,1.16,887.0,M,-31.2,M,0000,0000*56
12 21 15.664349570
12 21 15.768421833 $GPGSA,A,3,10,27,11,22,01,14,03,08,31,,,,2.07,1.16,1.71*0F
12 21 15.876022071
12 21 15.981184326 $GPRMC,202111.000,A,3437.7906,N,11733.2919,W,0.01,74.28,091217,,,D*43
12 21 16.087316575
12 21 16.194339817 $GPVTG,74.28,T,,M,0.01,N,0.02,K,D*02
12 21 16.299501072
12 21 16.403333337 $GPRMC,202109.000,A,3437.7906,N,11733.2919,W,0.00,251.58,091217,,,D*79
12 21 16.509888582 $GPVTG,251.58,T,,M,0.00,N,0.01,K,D*32
12 21 16.617371821 $GPGSA,A,3,10,27,11,22,01,14,03,08,32,,,,2.24,1.22,1.88*0C
12 21 16.724079066  $GPGGA,202110.000,3437.7906,N,11733.2919,W,2,08,1.25,887.0,M,-31.2,M,0000,0000*56
12 21 16.832727296 $GPGSA,A,3,10,27,11,22,01,14,03,08,,,,,2.26,1.25,1.88*08
12 21 16.939618539 0,M,-31.2,M,0000,0000*56
12 21 17.047052779 $GPRMC,202110.000,A,3437.7906,N,11733.2919,W,0.00,0.00,091217,,,D*7A
12 21 17.153676024 0000,0000*56
12 21 17.260095270 $GPVTG,0.00,T,,M,0.00,N,0.00,K,D*38
12 21 17.365976520 3.2919,W,0.00,0.00,091217,,,D*7A
12 21 17.471449773 0000,0000*56
12 21 17.578513015 $GPGGA,202111.000,3437.7906,N,11733.2919,W,2,09,1.16,887.0,M,-31.2,M,0000,0000*56
12 21 18.034578786 $GPGSA,A,3,10,27,11,22,01,14,03,08,31,,,,2.07,1.16,1.71*0F
12 21 18.141991025  $GPRMC,202111.000,A,3437.7906,N,11733.2919,W,0.01,74.28,091217,,,D*43
12 21 18.249091267 00∫$GPVTG,74.28,T,,M,0.01,N,0.02,K,D*02
12 21 18.356060509 .2919,W,0.01,74.28,091217,,,D*43
12 21 18.462655755 00∫$GPRMC,202109.000,A,3437.7906,N,11733.2919,W,0.00,251.58,091217,,,D*79
12 21 18.570103994 0∫$GPVTG,251.58,T,,M,0.00,N,0.01,K,D*32
12 21 18.676424241 2919,W,0.00,251.58,091217,,,D*79
12 21 18.782936487 0∫$GPGGA,202112.000,3437.7906,N,11733.2919,W,2,10,1.11,887.0,M,-31.2,M,0000,0000*5A
12 21 18.889211734
12 21 18.995413982 $GPGSA,A,3,10,27,32,11,22,01,14,03,08,31,,,2.04,1.11,1.71*0A
12 21 19.101052234
12 21 19.208797471 $GPGSV,4,1,13,14,74,359,23,32,56,034,17,31,49,157,32,48,46,205,31*73
12 21 19.314400723
12 21 19.417882991 $GPGSV,4,2,13,10,38,089,28,11,36,290,34,01,33,313,33,22,25,303,32*73
12 21 19.524428236
12 21 19.628450500 $GPGSV,4,3,13,08,15,241,34,18,12,104,23,03,06,296,34,27,06,208,35*7E
12 21 19.734020752
12 21 19.838912009 $GPGSV,4,4,13,25,05,086,23*46
12 21 19.944163264
12 21 20.047675531 $GPRMC,202112.000,A,3437.7906,N,11733.2919,W,0.02,27.60,091217,,,D*49
12 21 20.153125784
12 21 20.256856050 $GPVTG,27.60,T,,M,0.02,N,0.03,K,D*0A
12 21 20.361665308
12 21 20.464969576 $GPGSA,A,3,10,27,11,22,01,14,03,08,32,,,,2.24,1.22,1.88*0C
12 21 20.572534815 ˇˇˇ$GPGGA,202110.000,3437.7906,N,11733.2919,W,2,08,1.25,887.0,M,-31.2,M,0000,0000*56
12 21 20.684751020 $GPGSA,A,3,10,27,11,22,01,14,03,08,,,,,2.26,1.25,1.88*08
12 21 20.791832262 ú$GPRMC,202110.000,A,3437.7906,N,11733.2919,W,0.00,0.00,091217,,,D*7A
12 21 20.899397500 000∫$GPVTG,0.00,T,,M,0.00,N,0.00,K,D*38
12 21 21.006393742 $GPGGA,202111.000,3437.7906,N,11733.2919,W,2,09,1.16,887.0,M,-31.2,M,0000,0000*56
12 21 21.113654983 $GPGSA,A,3,10,27,11,22,01,14,03,08,31,,,,2.07,1.16,1.71*0F
12 21 21.221013223  $GPRMC,202111.000,A,3437.7906,N,11733.2919,W,0.01,74.28,091217,,,D*43
12 21 21.328351463 00∫$GPVTG,74.28,T,,M,0.01,N,0.02,K,D*02
12 21 21.435217706 $GPRMC,202109.000,A,3437.7906,N,11733.2919,W,0.00,251.58,091217,,,D*79
12 21 21.542347947 0∫$GPVTG,251.58,T,,M,0.00,N,0.01,K,D*32
12 21 21.649914186 2919,W,0.00,251.58,091217,,,D*79
12 21 21.756818429 0∫$GPGGA,202112.000,3437.7906,N,11733.2919,W,2,10,1.11,887.0,M,-31.2,M,0000,0000*5A
12 21 21.864102669 $GPGSA,A,3,10,27,32,11,22,01,14,03,08,31,,,2.04,1.11,1.71*0A
12 21 21.971018912 -31.2,M,0000,0000*5A
12 21 22.080715135 $GPGGA,202113.000,3437.7906,N,11733.2919,W,2,10,1.11,887.0,M,-31.2,M,0000,0000*5B
12 21 22.532611935
12 21 22.637335194 $GPGSA,A,3,10,27,32,11,22,01,14,03,08,31,,,2.04,1.11,1.71*0A
12 21 22.742570448
12 21 22.845838717 $GPRMC,202113.000,A,3437.7906,N,11733.2919,W,0.01,63.99,091217,,,D*4D
12 21 22.951745967
12 21 23.054550239 $GPVTG,63.99,T,,M,0.01,N,0.02,K,D*0E
12 21 23.159949493
12 21 23.262617766 $GPGSV,4,1,13,14,74,359,23,32,56,034,17,31,49,157,32,48,46,205,31*73
12 21 23.369614008 $GPGSV,4,2,13,10,38,089,28,11,36,290,34,01,33,313,33,22,25,303,32*73
12 21 23.476669250 $GPGSV,4,3,13,08,15,241,34,18,12,104,23,03,06,296,34,27,06,208,35*7E
12 21 23.583527494 $GPGSV,4,4,13,25,05,086,23*46
12 21 23.694190710 12,104,23,03,06,296,34,27,06,208,35*7E
12 21 23.800624956 $GPRMC,202112.000,A,3437.7906,N,11733.2919,W,0.02,27.60,091217,,,D*49
12 21 23.907595199 $GPVTG,27.60,T,,M,0.02,N,0.03,K,D*0A
12 21 24.018524413 $GPGSA,A,3,10,27,11,22,01,14,03,08,32,,,,2.24,1.22,1.88*0C
12 21 24.124998659  $GPGGA,202110.000,3437.7906,N,11733.2919,W,2,08,1.25,887.0,M,-31.2,M,0000,0000*56
12 21 24.231973902 $GPGSA,A,3,10,27,11,22,01,14,03,08,,,,,2.26,1.25,1.88*08
12 21 24.338847145 ú$GPRMC,202110.000,A,3437.7906,N,11733.2919,W,0.00,0.00,091217,,,D*7A
12 21 24.445761388 000∫$GPVTG,0.00,T,,M,0.00,N,0.00,K,D*38
12 21 24.552350633 3.2919,W,0.00,0.00,091217,,,D*7A
12 21 24.658438882 000∫$GPGGA,202111.000,3437.7906,N,11733.2919,W,2,09,1.16,887.0,M,-31.2,M,0000,0000*56
12 21 24.765202126 $GPGSA,A,3,10,27,11,22,01,14,03,08,31,,,,2.07,1.16,1.71*0F
12 21 24.871312375 M,-31.2,M,0000,0000*56
12 21 24.977654622 $GPRMC,202111.000,A,3437.7906,N,11733.2919,W,0.01,74.28,091217,,,D*43
12 21 25.083782870 000,0000*56
12 21 25.193528093 $GPVTG,74.28,T,,M,0.01,N,0.02,K,D*02
12 21 25.299830340 .2919,W,0.01,74.28,091217,,,D*43
12 21 25.406553585 000,0000*56
12 21 25.512601834 $GPGGA,202114.000,3437.7906,N,11733.2919,W,2,10,1.11,887.0,M,-31.2,M,0000,0000*5C
