14 17 14.391220000 $GPGGA,000010.800,,,,,0,00,,,M,,M,,*71
14 17 16.565220127  ÿÿÿ$GPGGA,000011.800,,,,,0,00,,,M,,M,,*70
14 17 17.104044311  ÿÿÿ$GPGGA,000012.800,,,,,0,00,,,M,,M,,*73
14 17 17.861803946  ÿÿÿ$GPGGA,000013.800,,,,,0,00,,,M,,M,,*72
14 17 18.339027567  ÿÿÿ$GPGSA,A,1,,,,,,,,,,,,,,,*1E^^E^Z^A^X^O^_^L ÿÿÿ$GPGSA,A,1,,,,,,,,,,,,^^E^T^^Z^A^X^O^_^L ÿÿÿ$GPGSA,A,1,,,,,,,,,,,,,,,*1E
14 17 18.629071513 $GPGSA,A,1,,,,,,,,,,,,,,,*1E
14 17 18.886492691 ^E^Z^A^X^O^_^L ÿÿÿ$GPGSA,A,1,,,,,,,,,,,,^^E^T^^Z^A^X^O^_^L ÿÿÿ$GPGSA,A,1,,,,,,,,,,,,,,,*1E
14 17 19.320525617 $GPGSA,A,1,,,,,,,,,,,,,,,*1E^^E^Z^A^X^O^_^L ÿÿÿ$GPGSA,A,1,,,,,,,,,,,,,,,*1E
14 17 19.825807040  ÿÿÿ$GPGSA,A,1,,,,,,,,,,,,,,,*1E
14 17 20.375150150  ÿÿÿ$GPGSA,A,1,,,,,,,,,,,,,,,*1E^^E^Z^A^X^O^_^L ÿÿÿ$GPGSA,A,1,,,,,,,,,,,,^^E^T^^H^Z^A^X^O^_^L ÿÿÿ$GPGSA,A,1,,,,,,,,,,,,,,,*1E
14 17 20.843875831 h¼$GPGSA,A,1,,,,,,,,,,,,,,,*1E
14 17 21.431856668  ÿÿÿ$GPGSA,A,1,,,,,,,,,,,,,,,*1E
14 17 21.884893460  ÿÿÿ$GPGSA,A,1,,,,,,,,,,,,,,,*1E
14 17 22.419819673  ÿÿÿ$GPGSA,A,1,,,,,,,,,,,,,,,*1E
14 17 22.709922618  ÿÿÿ$GPGGA,000016.799,,,,,0,00,,,M,,M,,*78
14 17 22.965851806
14 17 23.287166531 $GPGSA,A,1,,,,,,,,,,,,,,,*1E
14 17 23.684883715
14 17 23.985630586 $GPGSV,1,1,01,23,,,32*78
14 17 24.210628993
14 17 24.388459733 $GPRMC,000016.799,V,,,,,0.00,0.00,060180,,,N*42
14 17 24.592642288
14 17 24.848637475  ÿÿÿ$GPGSA,A,1,,,,,,,,,,,,,,,*1E
14 17 25.140892406
14 17 25.474169046  ÿÿÿ$GPGSA,A,1,,,,,,,,,,,,,,,*1E
14 17 25.807665685 _^L ÿÿÿ$GPGSA,A,1,,,,,,,,,,,,,,,*1E
14 17 26.169206125 $GPGSA,A,1,,,,,,,,,,,,,,,*1E
14 17 26.511226703 _^L ÿÿÿ$GPGSA,A,1,,,,,,,,,,,,,,,*1E
14 17 26.739338088 $GPGSA,A,1,,,,,,,,,,,,,,,*1E^^E^Z^A^X^O^_^L ÿÿÿ$GPGSA,A,1,,,,,,,,,,,,,,,*1E
14 17 27.014308141 $GPGSA,A,1,,,,,,,,,,,,,,,*1E
14 17 27.236595567 ^E^Z^A^X^O^_^L ÿÿÿ$GPGSA,A,1,,,,,,,,,,,,,,,*1E
14 17 27.550103347 $GPGSA,A,1,,,,,,,,,,,,,,,*1E
14 17 27.905351832 ^E^Z^A^X^O^_^L ÿÿÿ$GPGSA,A,1,,,,,,,,,,,,^^E^T^^H^Z^A^X^O^_^L ÿÿÿ$GPGSA,A,ë”$GPGSA,A,1,,,,,,,,,,,,,,,*1E^^E^Z^A^X^O^_^L ÿÿÿ$GPGSA,A,1,,,,,,,,,,,,,,,*1E
14 17 28.407109279 ^H^Z^A^X^O^_^L ÿÿÿ$GPGSA,A,ë”$GPGSA,A,1,,,,,,,,,,,,,,,*1E
14 17 28.906971740 ^E^Z^A^X^O^_^L ÿÿÿ$GPGSA,A,1,,,,,,,,,,,,,,,*1E
14 17 29.401991235 ^H^Z^A^X^O^_^L ÿÿÿ$GPGSA,A,ë”$GPGSA,A,1,,,,,,,,,,,,,,,*1E
14 17 29.663182385  ÿÿÿ$GPGSA,A,1,,,,,,,,,,,,,,,*1E
14 17 29.931431486  ÿÿÿ$GPGSA,A,1,,,,,,,,,,,,,,,*1E
14 17 30.182122711  ÿÿÿ$GPGSA,A,1,,,,,,,,,,,,,,,*1E
14 17 30.489546534 	
14 17 30.880271767  ÿÿÿ$GPRMC,000017.799,V,,,,,0.00,0.00,060180,,,N*43
14 17 31.241685208  ÿÿÿ$GPGSA,A,1,,,,,,,,,,,,,,,*1E
14 17 31.667389194 E^^R^C^Z^X^O^_^L ÿÿÿ$GPGSA,A,1,,,,,,,,,,,,,,,*1E
14 17 32.046182512 $GPGSA,A,1,,,,,,,,,,,,,,,*1E
14 17 32.321705561 E^^R^C^Z^X^O^_^L ÿÿÿ$GPGSA,A,1,,,,,,,,,,,,,,,*1E
14 17 32.822858013  ÿÿÿ$GPVTG,0.00,T,,M,0.00,N,0.00,K,N*32
14 17 33.204779309  ÿÿÿ$GPGSA,A,1,,,,,,,,,,,,,,,*1E
14 17 33.593792554  ÿÿÿ$GPGSA,A,1,,,,,,,,,,,,,,,*1E
14 17 34.034850431  ÿÿÿ$GPGGA,000014.799,,,,,0,00,,,M,,M,,*7A^Z^A^X^O^_^L ÿÿÿ$GPGSA,A,1,,,,,,,,,,,,,,,*1E
14 17 34.419438708 $GPGGA,000016.799,,,,,0,00,,,M,,M,,*78
14 17 35.830225719
16 33 01.670856290
16 33 01.986956052
16 33 02.313734738
16 33 02.567917938  ÿÿÿ$GPGSV,1,1,02,26,,,31,23,,,30*7F
16 33 02.836033039 ,^^C^O^_^L ÿÿÿ$GPGSA,A,1,,,,,,,,,,,,,,,*1E
16 33 03.057965468
16 33 03.270932960
16 33 03.478064493
16 33 03.683184040
16 33 03.949378156
16 33 04.254398996
16 33 04.517421133
16 33 04.737854572
16 33 04.983097836
16 33 05.203589274
16 33 05.413549788
16 33 05.619048333
16 33 05.824487878
16 33 06.074250109
16 33 06.309473444
16 33 06.541102803
16 33 06.766885205
16 33 06.966352792
16 33 07.222092981
16 33 07.426976531
16 33 07.667932824  ÿÿÿ$GPRMC,003303.090,V,,,,,0.00,0.00,060180,,,N*48
16 33 07.876471348 GPGSA,A,1,,,,,,,,,,,,,,,*1E
16 33 08.098770774 $GPVTG,0.00,T,,M,0.00,N,0.00,K,N*32
16 33 08.358761933
16 33 08.562941487
16 33 08.768064034  ÿÿÿ$GPGGA,003305.090,,,,,0,00,,,M,,M,,*74
16 33 08.980288531 0,,,N*4^C^O^_^L ÿÿÿ$GPVTG,0.00,T,,M,0.00,N,0.00,K,N*32
16 33 09.252979601 $GPGSA,A,1,,,,,,,,,,,,,,,*1E
16 33 09.512905760 M,,M,,*74
16 33 09.762991989
16 33 09.963013573
16 33 10.168026121
16 33 10.378034634
16 33 10.623360897
16 33 10.826365459  ÿÿÿ$GPGSA,A,1,,,,,,,,,,,,,,,*1E
16 33 11.063334781 ÿÿÿ$GPGGA,003306.301,,,,,0,00,,,M,,M,,*7C
16 33 11.277791263 $GPRMC,003306.301,V,,,,,0.00,0.00,060180,,,N*46
16 33 11.564788231 1,,,,,0,00,,,M,,M,,*7C
16 33 11.792554618 $GPVTG,0.00,T,,M,0.00,N,0.00,K,N*32
16 33 12.003172126 0180,,,N*46
16 33 12.219759593 1,,,,,0,00,,,M,,M,,*7C
16 33 12.425847133 $GPGGA,003308.301,,,,,0,00,,,M,,M,,*72
16 33 13.391240297
16 33 13.610288746  ÿÿÿ$GPVTG,0.00,T,,M,0.00,N,0.00,K,N*32
16 33 13.928394494
16 33 14.128440077
16 33 14.344548547
16 33 14.552201077
16 33 14.762968584
16 33 15.041055615
16 33 15.254661102
16 33 15.394186114
16 33 15.497454383
16 33 15.603285634
16 33 15.711530867
16 33 15.941319240
16 33 16.210920331
16 33 16.511634202
16 33 16.713266774
16 33 16.936531193
16 33 17.163858583
16 33 17.381190044
16 33 17.551480838
16 33 17.655570101  ÿÿÿ$GPRMC,003303.090,V,,,,,0.00,0.00,060180,,,N*48^C^O^_^L ÿÿÿ$GPVTG,0.00,T,,M,0.00,N,0.00,K,N*32
16 33 17.763276339 $GPGGA,003307.301,,,,,0,00,,,M,,M,,*7D
16 33 18.275792710 0,,,N*48^C^O^_^L ÿÿÿ$GPVTG,0.00,T,,M,0.00,N,0.00,K,N*32
16 33 18.383136949 $GPGSA,A,1,,,,,,,,,,,,,,,*1E
16 33 18.489916193 M,,M,,*7D
16 33 18.596495439 0,,,N*48^C^O^_^L ÿÿÿ$GPVTG,0.00,T,,M,0.00,N,0.00,K,N*32
16 33 18.703971678 $GPRMC,003307.301,V,,,,,0.00,0.00,060180,,,N*47^C^O^_^L ÿÿÿ$GPVTG,0.00,T,,M,0.00,N,0.00,K,N*32
16 33 18.811984913 $GPVTG,0.00,T,,M,0.00,N,0.00,K,N*32
16 33 18.919008155 0180,,,N*47^C^O^_^L ÿÿÿ$GPVTG,0.00,T,,M,0.00,N,0.00,K,N*32
16 33 19.024928405
16 33 19.127550678
16 33 19.261139732
16 33 19.363700006
16 33 19.466206280
16 33 19.572232529
16 33 19.674853803
16 33 19.778815067  ÿÿÿ$GPGGA,003306.301,,,,,0,00,,,M,,M,,*7C
16 33 20.171500286
16 33 20.301404366
16 33 20.406919619
16 33 20.510399886
16 33 20.613020160
16 33 20.715375435
16 33 20.818317706
16 33 20.929185921
16 33 21.035501168
16 33 21.138714437
16 33 21.242481702  ÿÿÿ$GPGGA,003315.308,,,,,0,00,,,M,,M,,*77
16 33 21.370770794
16 33 21.475521052 $GPGSA,A,1,,,,,,,,,,,,,,,*1E
16 33 21.581141304
16 33 21.685027569 $GPRMC,003315.308,V,,,,,0.00,0.00,060180,,,N*4D
16 33 21.790960819
16 33 21.894678084 $GPVTG,0.00,T,,M,0.00,N,0.00,K,N*32
16 33 22.000057338
16 33 22.103678604 $GPVTG,0.00,T,,M,0.00,N,0.00,K,N*32
16 33 22.209975851 0180,,,N*^C^O^_^L ÿÿÿ$GPGSA,A,1,,,,,,,,,,,,,,,*1E
16 33 22.316394098 $GPGSA,A,1,,,,,,,,,,,,,,,*1E
16 33 22.444907188 K,N*32
16 33 22.581136223  ÿÿÿ$GPGSA,A,1,,,,,,,,,,,,,,,*1E
16 33 22.688978460  ÿÿÿ$GPRMC,003322.088,V,,,,,0.00,0.00,060180,,,N*42
16 33 22.797032694  ÿÿÿ$GPVTG,0.00,T,,M,0.00,N,0.00,K,N*32
16 33 22.905095929 0180,,,N*42
16 33 23.011491176  ÿÿÿ$GPGSA,A,1,,,,,,,,,,,,,,,*1E^C	^T^_^X^K^G^R
16 33 23.119312412 *42
16 33 23.226353654  ÿÿÿ$GPGGA,003322.088,,,,,0,00,,,M,,M,,*78
16 33 23.333575895 ^G^R
16 33 23.460387997 *42
16 33 23.567194241  ÿÿÿ$GPGSA,A,1,,,,,,,,,,,,,,,*1E
16 33 23.722631140  ÿÿÿ$GPGGA,003322.088,,,,,0,00,,,M,,M,,*78
16 33 23.857563185  ÿÿÿ$GPRMC,003322.088,V,,,,,0.00,0.00,060180,,,N*42
16 33 23.965092423  ÿÿÿ$GPVTG,0.00,T,,M,0.00,N,0.00,K,N*32
16 33 24.076734633 0180,,,N*42
16 33 24.183198879  ÿÿÿ$GPGGA,003323.088,,,,,0,00,,,M,,M,,*79
16 33 24.290850117 0,,,N*42
16 33 24.397447362  ÿÿÿ$GPGSA,A,1,,,,,,,,,,,,,,,*1E
16 33 24.527528441 M,,M,,*79
16 33 24.633841688 0,,,N*42
16 33 24.740573932  ÿÿÿ$GPGSV,1,1,03,26,,,25,23,,,24,16,,,28*73
16 33 24.847960172 ,,N*42
16 33 24.993884138  ÿÿÿ$GPGGA,003322.088,,,,,0,00,,,M,,M,,*78
16 33 25.101593376  ÿÿÿ$GPRMC,003322.088,V,,,,,0.00,0.00,060180,,,N*42
16 33 25.209542611  ÿÿÿ$GPGGA,003324.308,,,,,0,00,,,M,,M,,*75
16 33 25.356679570  ÿÿÿ$GPVTG,0.00,T,,M,0.00,N,0.00,K,N*32
16 33 25.494764592  ÿÿÿ$GPGGA,003323.088,,,,,0,00,,,M,,M,,*79
16 33 25.623979677  ÿÿÿ$GPGSA,A,1,,,,,,,,,,,,,,,*1E
16 33 25.752259768  ÿÿÿ$GPGGA,003324.088,,,,,0,00,,,M,,M,,*7E
16 33 25.887382812  ÿÿÿ$GPRMC,003324.088,V,,,,,0.00,0.00,060180,,,N*44
16 33 25.995499046  ÿÿÿ$GPGGA,003324.308,,,,,0,00,,,M,,M,,*75
16 33 26.104060277 ^B^E^^F^^^O^L ÿÿÿ$GPRMC,003322.088,V,,,,,0.00,0.00,060180,,,N*42
16 33 26.211407517 "$GPGSA,A,1,,,,,,,,,,,,,,,*1E
16 33 26.319068755 M,,M,,*75
16 33 26.425620000 ^B^E^^F^^^O^L ÿÿÿ$GPRMC,003322.088,V,,,,,0.00,0.00,060180,,,N*42
16 33 26.533094239 "$GPRMC,003324.308,V,,,,,0.00,0.00,060180,,,N*4F
16 33 26.661917327 ^^O^L ÿÿÿ$GPRMC,003322.088,V,,,,,0.00,0.00,060180,,,N*42
16 33 26.769359566 "$GPVTG,0.00,T,,M,0.00,N,0.00,K,N*32
16 33 26.876542807 0180,,,N*4F
16 33 26.986905026 ^^O^L ÿÿÿ$GPRMC,003322.088,V,,,,,0.00,0.00,060180,,,N*42
16 33 27.096296251 "$GPGGA,003325.308,,,,,0,00,,,M,,M,,*74
16 33 27.202940496
16 33 27.306959760 $GPGSA,A,1,,,,,,,,,,,,,,,*1E
16 33 27.414734996
16 33 27.519066258 $GPRMC,003325.308,V,,,,,0.00,0.00,060180,,,N*4E
16 33 27.640248399
16 33 27.750871616 $GPVTG,0.00,T,,M,0.00,N,0.00,K,N*32
16 33 27.857006865
16 33 27.960273133 $GPGSA,A,1,,,,,,,,,,,,,,,*1E
16 33 28.068404368 ^N^B^E^^F^^^O^L ÿÿÿ$GPVTG,0.00,T,,M,0.00,N,0.00,K,N*3^^N^B^E^^F^^^O^L ÿÿÿ$GPGGA,003322.088,,,,,0,00,,,M,,M,,*^^N^B^E^^F^^^O^L ÿÿÿ$GPGGA,003323.088,,,,,0,00,,,M,,M,,*79^^N^B^E^^F^^^O^L ÿÿÿ$GPGGA,003322.088,,,,,0,@§$GPRMC,003324.088,V,,,,,0.00,0.00,060180,,,N*44
16 33 28.179401582 ^^^O^L ÿÿÿ$GPGGA,003324.088,,,,,0,00,,,M,,M,,*7E^^N^B^E^^F^^^O^L ÿÿÿ$GPGSA,A,1,,,,,,,,,,,,,,,*1E
16 33 28.288446810 B^E^^F^^^O^L ÿÿÿ$GPGGA,003323.088,,,,,0,00,,,M,,M,,*79^^N^B^E^^F^^^O^L ÿÿÿ$GPGGA,003322.088,,,,,0,@§$GPGGA,003324.308,,,,,0,00,,,M,,M,,*75
16 33 28.397593037 0,,,N*44
16 33 28.507862256 ^^^O^L ÿÿÿ$GPGGA,003324.088,,,,,0,00,,,M,,M,,*7E^^N^B^E^^F^^^O^L ÿÿÿ$GPGSA,A,1,,,,,,,,,,,,,,,*1E
16 33 28.616113489 B^E^^F^^^O^L ÿÿÿ$GPGGA,003323.088,,,,,0,00,,,M,,M,,*79^^N^B^E^^F^^^O^L ÿÿÿ$GPGGA,003322.088,,,,,0,@§$GPRMC,003322.088,V,,,,,0.00,0.00,060180,,,N*42
16 33 28.747578558 ^^^O^L ÿÿÿ$GPGGA,003324.088,,,,,0,00,,,M,,M,,*7E^^N^B^E^^F^^^O^L ÿÿÿ$GPGSA,A,1,,,,,,,,,,,,,,,*1E
16 33 28.856311788 B^E^^F^^^O^L ÿÿÿ$GPGGA,003323.088,,,,,0,00,,,M,,M,,*79^^N^B^E^^F^^^O^L ÿÿÿ$GPGGA,003322.088,,,,,0,@§$GPGSA,A,1,,,,,,,,,,,,,,,*1E
16 33 28.964458023 0.00,060180,,,N*42
16 33 29.070968268 ^^^O^L ÿÿÿ$GPGGA,003324.088,,,,,0,00,,,M,,M,,*7E^^N^B^E^^F^^^O^L ÿÿÿ$GPGSA,A,1,,,,,,,,,,,,,,,*1E
16 33 29.179923497 B^E^^F^^^O^L ÿÿÿ$GPGGA,003323.088,,,,,0,00,,,M,,M,,*79^^N^B^E^^F^^^O^L ÿÿÿ$GPGGA,003322.088,,,,,0,@§$GPRMC,003322.088,V,,,,,0.00,0.00,060180,,,N*42
16 33 29.289273723 ^^^O^L ÿÿÿ$GPGGA,003324.088,,,,,0,00,,,M,,M,,*7E^^N^B^E^^F^^^O^L ÿÿÿ$GPGSA,A,1,,,,,,,,,,,,,,,*1E
16 33 29.398423950 B^E^^F^^^O^L ÿÿÿ$GPGGA,003323.088,,,,,0,00,,,M,,M,,*79^^N^B^E^^F^^^O^L ÿÿÿ$GPGGA,003322.088,,,,,0,@§$GPRMC,003324.308,V,,,,,0.00,0.00,060180,,,N*4F
16 33 29.507790175 ^^^O^L ÿÿÿ$GPGGA,003324.088,,,,,0,00,,,M,,M,,*7E^^N^B^E^^F^^^O^L ÿÿÿ$GPGSA,A,1,,,,,,,,,,,,,,,*1E
16 33 29.616545405 B^E^^F^^^O^L ÿÿÿ$GPGGA,003323.088,,,,,0,00,,,M,,M,,*79^^N^B^E^^F^^^O^L ÿÿÿ$GPGGA,003322.088,,,,,0,@§$GPRMC,003322.088,V,,,,,0.00,0.00,060180,,,N*42
16 33 29.736872553 ^^^O^L ÿÿÿ$GPGGA,003324.088,,,,,0,00,,,M,,M,,*7E^^N^B^E^^F^^^O^L ÿÿÿ$GPGSA,A,1,,,,,,,,,,,,,,,*1E
16 33 29.856570706 B^E^^F^^^O^L ÿÿÿ$GPGGA,003323.088,,,,,0,00,,,M,,M,,*79^^N^B^E^^F^^^O^L ÿÿÿ$GPGGA,003322.088,,,,,0,@§$GPVTG,0.00,T,,M,0.00,N,0.00,K,N*32
16 33 29.968795911 0180,,,N*42
16 33 30.079236129 ^^^O^L ÿÿÿ$GPGGA,003324.088,,,,,0,00,,,M,,M,,*7E^^N^B^E^^F^^^O^L ÿÿÿ$GPGSA,A,1,,,,,,,,,,,,,,,*1E
16 33 30.187361363 B^E^^F^^^O^L ÿÿÿ$GPGGA,003323.088,,,,,0,00,,,M,,M,,*79^^N^B^E^^F^^^O^L ÿÿÿ$GPGGA,003322.088,,,,,0,@§$GPGGA,003326.308,,,,,0,00,,,M,,M,,*77
16 33 30.294769603
16 33 30.400876851 $GPGSA,A,1,,,,,,,,,,,,,,,*1E
16 33 30.524302977
16 33 30.627875244 $GPRMC,003326.308,V,,,,,0.00,0.00,060180,,,N*4D
16 33 30.733146499
16 33 30.859248606 $GPVTG,0.00,T,,M,0.00,N,0.00,K,N*32
16 33 30.965396854
16 33 31.068583123 $GPRMC,003322.088,V,,,,,0.00,0.00,060180,,,N*42
16 33 31.175068369  ÿÿÿ$GPGGA,003325.308,,,,,0,00,,,M,,M,,*74
16 33 31.282373609 0,,,N*42
16 33 31.389330852  ÿÿÿ$GPGSA,A,1,,,,,,,,,,,,,,,*1E
16 33 31.499904069 M,,M,,*74
16 33 31.606850312 0,,,N*42
16 33 31.713596556  ÿÿÿ$GPRMC,003325.308,V,,,,,0.00,0.00,060180,,,N*4E
16 33 31.831765719  ÿÿÿ$GPVTG,0.00,T,,M,0.00,N,0.00,K,N*32
16 33 31.950844876 0180,,,N*4E
16 33 32.057101124  ÿÿÿ$GPGSA,A,1,,,,,,,,,,,,,,,*1E
16 33 32.164865360 K,N*32
16 33 32.271419606 0180,,,N*4E
16 33 32.378339849  ÿÿÿ$GPGGA,003324.088,,,,,0,00,,,M,,M,,*7E^^N^B^E^^H^F^^^O^L ÿÿÿ$GPGSA,A,1,,,,,,,,,,,,,,,*1E
16 33 32.488038072 ,,*^^N^B^E^^H^F^^^O^L ÿÿÿ$GPGGA,003323.088,,,,,0,00,,,M,,M,,*79^^N^B^E^^H^F^^^O^L ÿÿÿ$GPGGA,003322.088,,,,,0,@§$GPRMC,003324.088,V,,,,,0.00,0.00,060180,,,N*@§$GPGGA,003323.088,,,,,0,00,,,M,,M,,*79^^N^B^E^^H^F^^^O^L ÿÿÿ$GPGGA,003322.088,,,,,0,@§$GPGGA,003324.308,,,,,0,00,,,M,,M,,*75
16 33 32.598873287 323.088,,,,,0,00,,,M,,M,,*79^^N^B^E^^H^F^^^O^L ÿÿÿ$GPGGA,003322.088,,,,,0,@§$GPRMC,003324.088,V,,,,,0.00,0.00,060180,,,N*@§$GPGGA,003324.088,,,,,0,00,,,M,,M,,*7E^^N^B^E^^H^F^^^O^L ÿÿÿ$GPGSA,A,1,,,,,,,,,,,,,,,*1E
16 33 32.707690517 GGA,003324.308,,,,,0,00,,,M,,M,,*75
16 33 32.815264755 323.088,,,,,0,00,,,M,,M,,*79^^N^B^E^^H^F^^^O^L ÿÿÿ$GPGGA,003322.088,,,,,0,@§$GPRMC,003324.088,V,,,,,0.00,0.00,060180,,,N*@§$GPGGA,003327.308,,,,,0,00,,,M,,M,,*76
16 33 32.945853830
16 33 33.052989072 $GPGSA,A,1,,,,,,,,,,,,,,,*1E
16 33 33.159048321
16 33 33.262514588 $GPGSV,1,1,03,26,,,31,23,,,32,16,,,31*79
16 33 33.368427838
16 33 33.472080104 $GPRMC,003327.308,V,,,,,0.00,0.00,060180,,,N*4C
16 33 33.578120353
16 33 33.681985618 $GPVTG,0.00,T,,M,0.00,N,0.00,K,N*32
16 33 33.787500871
16 33 33.891243136 $GPGGA,003323.088,,,,,0,00,,,M,,M,,*79^^N^B^E^^H^F^^^O^L ÿÿÿ$GPGGA,003322.088,,,,,0,@§$GPRMC,003322.088,V,,,,,0.00,0.00,060180,,,N*42
16 33 34.021607213 $GPGGA,003324.088,,,,,0,00,,,M,,M,,*7E^^N^B^E^^H^F^^^O^L ÿÿÿ$GPGSA,A,1,,,,,,,,,,,,,,,*1E
16 33 34.129628448 RMC,003322.088ù-$GPGGA,003323.088,,,,,0,00,,,M,,M,,*79^^N^B^E^^H^F^^^O^L ÿÿÿ$GPGGA,003322.088,,,,,0,@§$GPGSA,A,1,,,,,,,,,,,,,,,*1E
16 33 34.237872681 t¼$GPGGA,003324.088,,,,,0,00,,,M,,M,,*7E^^N^B^E^^H^F^^^O^L ÿÿÿ$GPGSA,A,1,,,,,,,,,,,,,,,*1E
16 33 34.345617918 GSA,A,1,,,,,,,,,,,,,,,*1E
16 33 34.452622161 t¼$GPGGA,003323.088,,,,,0,00,,,M,,M,,*79^^N^B^E^^H^F^^^O^L ÿÿÿ$GPGGA,003322.088,,,,,0,@§$GPRMC,003322.088,V,,,,,0.00,0.00,060180,,,N*42
16 33 34.564806366 $GPGGA,003324.088,,,,,0,00,,,M,,M,,*7E^^N^B^E^^H^F^^^O^L ÿÿÿ$GPGSA,A,1,,,,,,,,,,,,,,,*1E
16 33 34.672959601 RMC,003322.088,V,,,,,0.00,0.00,060180,,,N*42
16 33 34.779964843 $GPGGA,003323.088,,,,,0,00,,,M,,M,,*79^^N^B^E^^H^F^^^O^L ÿÿÿ$GPGGA,003322.088,,,,,0,@§$GPRMC,003324.308,V,,,,,0.00,0.00,060180,,,N*4F
16 33 34.888441075 $GPGGA,003324.088,,,,,0,00,,,M,,M,,*7E^^N^B^E^^H^F^^^O^L ÿÿÿ$GPGSA,A,1,,,,,,,,,,,,,,,*1E
16 33 35.022355126 RMC,003324.308,V,,,,,0.00,0.00,060180,,,N*4F
16 33 35.129218370 $GPGGA,003328.308,,,,,0,00,,,M,,M,,*79
16 33 35.578031192
16 33 35.682152454 $GPGSA,A,1,,,,,,,,,,,,,,,*1E
16 33 35.787835706
16 33 35.891354973 $GPRMC,003328.308,V,,,,,0.00,0.00,060180,,,N*43
16 33 36.000640199
16 33 36.126511308 $GPVTG,0.00,T,,M,0.00,N,0.00,K,N*32
16 33 36.231613564
16 33 36.335863825 $GPGGA,003323.088,,,,,0,00,,,M,,M,,*79^^N^B^E^^H^F^^^O^L ÿÿÿ$GPGGA,003322.088,,,,,0,@§$GPRMC,003322.088,V,,,,,0.00,0.00,060180,,,N*42
16 33 36.444529056 $GPGGA,003324.088,,,,,0,00,,,M,,M,,*7E^^N^B^E^^H^F^^^O^L ÿÿÿ$GPGSA,A,1,,,,,,,,,,,,,,,*1E
16 33 36.552950288 RMC,003322.088á1$GPGGA,003323.088,,,,,0,00,,,M,,M,,*79^^N^B^E^^H^F^^^O^L ÿÿÿ$GPGGA,003322.088,,,,,0,@§$GPVTG,0.00,T,,M,0.00,N,0.00,K,N*32
16 33 36.661526519 $GPGGA,003324.088,,,,,0,00,,,M,,M,,*7E^^N^B^E^^H^F^^^O^L ÿÿÿ$GPGSA,A,1,,,,,,,,,,,,,,,*1E
16 33 36.769100758 VTG,0.00,T,,M,0.00,N,0.00,K,N*32
16 33 36.875743003 $GPGGA,003323.088,,,,,0,00,,,M,,M,,*79^^N^B^E^^H^F^^^O^L ÿÿÿ$GPGGA,003322.088,,,,,0,@§$GPGGA,003326.308,,,,,0,00,,,M,,M,,*77
16 33 36.983881237 $GPGSA,A,1,,,,,,,,,,,,,,,*1E
16 33 37.104527382 M,,M,,*79^^N^B^E^^H^F^^^O^L ÿÿÿ$GPGGA,003322.088,,,,,0,@§$GPGGA,003326.308,,,,,0,00,,,M,,M,,*77
16 33 37.219750567 $GPRMC,003326.308,V,,,,,0.00,0.00,060180,,,N*4D
16 33 37.326570810 H^F^^^O^L ÿÿÿ$GPGGA,003322.088,,,,,0,@§$GPGGA,003326.308,,,,,0,00,,,M,,M,,*77
16 33 37.434134049 $GPVTG,0.00,T,,M,0.00,N,0.00,K,N*32
16 33 37.544167269 0180,,,N*4D
16 33 37.650491517 H^F^^^O^L ÿÿÿ$GPGGA,003322.088,,,,,0,@§$GPGGA,003326.308,,,,,0,00,,,M,,M,,*77
16 33 37.758394752 $GPRMC,003322.088,V,,,,,0.00,0.00,060180,,,N*42
16 33 37.865201996 H^F^^^O^L ÿÿÿ$GPGGA,003322.088,,,,,0,@§$GPGGA,003326.308,,,,,0,00,,,M,,M,,*77
16 33 37.972779234 $GPGGA,003325.308,,,,,0,00,,,M,,M,,*74
16 33 38.079290480 0,,,N*42
16 33 38.208074568 H^F^^^O^L ÿÿÿ$GPGGA,003322.088,,,,,0,@§$GPGGA,003326.308,,,,,0,00,,,M,,M,,*77
16 33 38.315819805 $GPGSA,A,1,,,,,,,,,,,,,,,*1E
16 33 38.421996053 M,,M,,*74
16 33 38.527798304 0,,,N*42
16 33 38.634148551 H^F^^^O^L ÿÿÿ$GPGGA,003322.088,,,,,0,@§$GPGGA,003326.308,,,,,0,00,,,M,,M,,*77
16 33 38.742165786 $GPGGA,003329.308,,,,,0,00,,,M,,M,,*78
16 33 38.847504040
16 33 38.951014307 $GPGSA,A,1,,,,,,,,,,,,,,,*1E
16 33 39.060273534
16 33 39.163478803 $GPRMC,003329.308,V,,,,,0.00,0.00,060180,,,N*42
16 33 39.291000900
16 33 39.394511167 $GPVTG,0.00,T,,M,0.00,N,0.00,K,N*32
16 33 39.500359418
16 33 39.603692686 $GPRMC,003325.308,V,,,,,0.00,0.00,060180,,,N*4E
16 33 39.711045926  ÿÿÿ$GPVTG,0.00,T,,M,0.00,N,0.00,K,N*32
16 33 39.818265166 0180,,,N*4E
16 33 39.924154417  ÿÿÿ$GPGSA,A,1,,,,,,,,,,,,,,,*1E
16 33 40.033872640 K,N*32
16 33 40.139605891 0180,,,N*4E
16 33 40.268298980  ÿÿÿ$GPGGA,003324.088,,,,,0,00,,,M,,M,,*7E^^N^B^E^^H^F^^^O^L ÿÿÿ$GPGSA,A,1,,,,,,,,,,,,,,,*1E
16 33 40.379325194 $GPGGA,003323.088,,,,,0,00,,,M,,M,,*79^^N^B^E^^H^F^^^O^L ÿÿÿ$GPGGA,003322.088,,,,,0,@§$GPRMC,003324.088,V,,,,,0.00,0.00,060180,,,N*@§$GPGGA,003323.088,,,,,0,00,,,M,,M,,*79^^N^B^E^^H^F^^^O^L ÿÿÿ$GPGGA,003322.088,,,,,0,@§$GPGGA,003324.308,,,,,0,00,,,M,,M,, ÿÿÿ$GPGGA,003329.308,,,,,0,00,,,M,,M,,*78
16 33 40.490208408 .308,,,,,0,00,,,M,,M,,*77
16 33 40.601758618 $GPGSA,A,1,,,,,,,,,,,,,,,*1E
16 33 40.708341864 M,,M,,*78
16 33 40.814711111 .308,,,,,0,00,,,M,,M,,*77
16 33 40.921167357 $GPRMC,003329.308,V,,,,,0.00,0.00,060180,,,N*42
16 33 41.028010600 0,00,,,M,,M,,*77
16 33 41.133923850 $GPVTG,0.00,T,,M,0.00,N,0.00,K,N*32
16 33 41.240548095 0180,,,N*42
16 33 41.368711188 0,00,,,M,,M,,*77
16 33 41.475403432 $GPRMC,003325.308,V,,,,,0.00,0.00,060180,,,N*4E
16 33 41.582207676 0,00,,,M,,M,,*77
16 33 41.688491923 $GPVTG,0.00,T,,M,0.00,N,0.00,K,N*32
16 33 41.794815170 0180,,,N*4E
16 33 41.900782420 0,00,,,M,,M,,*77
16 33 42.010856641 $GPGSA,A,1,,,,,,,,,,,,,,,*1E
16 33 42.117178888 K,N*32
16 33 42.229348093  ÿÿÿ$GPGSA,A,1,,,,,,,,,,,,,,,*1E
16 33 42.355818198  ÿÿÿ$GPRMC,003328.308,V,,,,,0.00,0.00,060180,,,N*43
16 33 42.467739405  ÿÿÿ$GPGSA,A,1,,,,,,,,,,,,,,,*1E
16 33 42.574904647 0.00,060180,,,N*43
16 33 42.681585891  ÿÿÿ$GPVTG,0.00,T,,M,0.00,N,0.00,K,N*32
16 33 42.788801132 0180,,,N*43
16 33 42.895518376  ÿÿÿ$GPGSA,A,1,,,,,,,,,,,,,,,*1E
16 33 43.003236613 K,N*32
16 33 43.109335862 0180,,,N*43
16 33 43.216485103  ÿÿÿ$GPGGA,003323.088,,,,,0,00,,,M,,M,,*79^^N^B^E^^H^F^^^O^L ÿÿÿ$GPGGA,003322.088,,,,,0,@§$GPRMC,003322.088,V,,,,,0.00,0.00,060180,,,N*42
16 33 43.326551324 $GPGGA,003324.088,,,,,0,00,,,M,,M,,*7E^^N^B^E^^H^F^^^O^L ÿÿÿ$GPGSA,A,1,,,,,,,,,,,,,,,*1E
16 33 43.458792388  ÿÿÿ$GPRMC,003332.094,V,,,,,0.00,0.00,060180,,,N*4E
16 33 43.571035593  ÿÿÿ$GPVTG,0.00,T,,M,0.00,N,0.00,K,N*32
16 33 43.679693823 0180,,,N*4E
16 33 43.786910064  ÿÿÿ$GPGGA,003323.088,,,,,0,00,,,M,,M,,*79^^N^B^E^^H^F^^^O^L ÿÿÿ$GPGGA,003322.088,,,,,0,@§$GPVTG,0.00,T,,M,0.00,N,0.00,K,N*32
16 33 43.896036292 $GPGGA,003324.088,,,,,0,00,,,M,,M,,*7E^^N^B^E^^H^F^^^O^L ÿÿÿ$GPGSA,A,1,,,,,,,,,,,,,,,*1E
16 33 44.003922528 VTG,0.00,T,,M,0.00,N,0.00,K,N*32
16 33 44.177631298  ÿÿÿ$GPRMC,003326.308,V,,,,,0.00,0.00,060180,,,N*4D
16 33 44.285345535 0,00,,,M,,M,,*77
16 33 44.391900780 $GPGGA,003326.308,,,,,0,00,,,M,,M,,*77
16 33 44.863026444  ÿÿÿ$GPRMC,003322.088,V,,,,,0.00,0.00,060180,,,N*42
16 33 45.024064304  ÿÿÿ$GPGSA,A,1,,,,,,,,,,,,,,,*1E
16 33 45.135583514 M^^N^B^E^^F^^^O^L ÿÿÿ$GPGGA,003329.308,,,,,0,00,,,M,,M,,*78
16 33 45.242506757 $GPRMC,003329.308,V,,,,,0.00,0.00,060180,,,N*42
16 33 45.349895997  ÿÿÿ$GPGGA,003329.308,,,,,0,00,,,M,,M,,*78
16 33 45.456344243 $GPVTG,0.00,T,,M,0.00,N,0.00,K,N*32
16 33 45.584733334 0180,,,N*42
16 33 45.692327572  ÿÿÿ$GPGGA,003329.308,,,,,0,00,,,M,,M,,*78
16 33 45.799640812 $GPRMC,003325.308,V,,,,,0.00,0.00,060180,,,N*4E
16 33 45.906754054  ÿÿÿ$GPGGA,003329.308,,,,,0,00,,,M,,M,,*78
16 33 46.013664297 $GPVTG,0.00,T,,M,0.00,N,0.00,K,N*32
16 33 46.120393541 0180,,,N*4E
16 33 46.226839787  ÿÿÿ$GPGGA,003329.308,,,,,0,00,,,M,,M,,*78
16 33 46.334044028 $GPGSA,A,1,,,,,,,,,,,,,,,*1E
16 33 46.440674273 K,N*32
16 33 46.550867493 0180,,,N*4E
16 33 46.675538610  ÿÿÿ$GPGGA,003329.308,,,,,0,00,,,M,,M,,*78
16 33 46.780952863 $GPGGA,003324.088,,,,,0,00,,,M,,M,,*7E^^N^B^E^^H^F^^^O^L ÿÿÿ$GPGSA,A,1,,,,,,,,,,,,,,,*1E
16 33 46.885808121
16 33 46.988113396 $GPGGA,003341.094,,,,,0,00,,,M,,M,,*70
16 33 47.431505257
16 33 47.569890277  ÿÿÿÿ$GPGSA,A,1,,,,,,,,,,,,,,,*1E
16 33 47.721876201  ÿÿÿÿ$GPRMC,003347.094,V,,,,,0.00,0.00,060180,,,N*4C
16 33 47.829841436  ÿÿÿÿ$GPVTG,0.00,T,,M,0.00,N,0.00,K,N*32
16 33 47.937572673 0180,,,N*4C
16 33 48.047838892  ÿÿÿÿ$GPGGA,003347.094,,,,,0,00,,,M,,M,,*76
16 33 48.154962134 0,,,N*4C
16 33 48.261068383  ÿÿÿÿ$GPGSA,A,1,,,,,,,,,,,,,,,*1E
16 33 48.370138610 M,,M,,*76
16 33 48.475665863 0,,,N*4C
16 33 48.582453107  ÿÿÿÿ$GPVTG,0.00,T,,M,0.00,N,0.00,K,N*32
16 33 48.712098189 1^^N^B^E^^F^^^O^L ÿÿÿÿ^A^_$GPRMC,003347.094,V,,,,,0.00,0.00,060180,,,N*4C
16 33 48.833466329  ÿÿÿÿ$GPRMC,003347.094,V,,,,,0.00,0.00,060180,,,N*4C
16 33 48.941552564  ÿÿÿÿ$GPGSA,A,1,,,,,,,,,,,,,,,*1E
16 33 49.048634806 0.00,060180,,,N*4C
16 33 49.154676055  ÿÿÿÿ$GPRMC,003347.094,V,,,,,0.00,0.00,060180,,,N*4C
16 33 49.264861275  ÿÿÿÿ$GPVTG,0.00,T,,M,0.00,N,0.00,K,N*32
16 33 49.371905517 $GPRMC,003347.094,V,,,,,0.00,0.00,060180,,,N*4C
16 33 49.478531762 $GPRMC,003347.094,V,,,,,0.00,0.00,060180,,,N*4C
16 33 49.592166957 $GPRMC,003347.094,V,,,,,0.00,0.00,060180,,,N*4C
16 33 49.703830166 $GPGGA,003348.094,,,,,0,00,,,M,,M,,*79
16 33 50.176944816 0,,,N*4C
16 33 50.288060029 $GPGSA,A,1,,,,,,,,,,,,,,,*1E
16 33 50.396042265 M,,M,,*79
16 33 50.506453483 0,,,N*4C
16 33 50.614320719 $GPRMC,003348.094,V,,,,,0.00,0.00,101217,,,N*48
16 33 50.727896915 $GPGSA,A,1,,,,,,,,,,,,,,,*1E
16 33 50.863288956 ^F^^^O^L ÿÿÿÿ^A^_$GPRMC,003347.094,V,,,,,0.00,0.00,060180,,,N*4C
16 33 50.981591118 $GPRMC,003347.094,V,,,,,0.00,0.00,060180,,,N*4C
16 33 51.091893337 GPRMC,003347.094,V,,,,,0.00,0.00,060180,,,N*4C
16 33 51.229009366  ÿÿÿÿ$GPGSA,A,1,,,,,,,,,,,,,,,*1E
16 33 51.338505591  ÿÿÿÿ$GPRMC,003348.094,V,,,,,0.00,0.00,101217,,,N*48
16 33 51.446253828  ÿÿÿÿ$GPGSA,A,1,,,,,,,,,,,,,,,*1E
16 33 51.558366034 0.00,101217,,,N*48
16 33 51.664815280  ÿÿÿÿ$GPRMC,003347.094,V,,,,,0.00,0.00,060180,,,N*4C
16 33 51.773052514  ÿÿÿÿ$GPRMC,003347.094,V,,,,,0.00,0.00,060180,,,N*4C
16 33 51.902351598  ÿÿÿÿ$GPVTG,0.00,T,,M,0.00,N,0.00,K,N*32
16 33 52.020804760 0180,,,N*4C
16 33 52.127052007  ÿÿÿÿ$GPRMC,003347.094,V,,,,,0.00,0.00,060180,,,N*4C
16 33 52.235145242  ÿÿÿÿ$GPGGA,003349.094,,,,,0,00,,,M,,M,,*78
16 33 52.343240477 0,,,N*4C
16 33 52.453064699  ÿÿÿÿ$GPGSA,A,1,,,,,,,,,,,,,,,*1E
16 33 52.565088906 M,,M,,*78
16 33 52.671322153 0,,,N*4C
16 33 52.777961398  ÿÿÿÿ$GPRMC,003349.094,V,,,,,0.00,0.00,101217,,,N*49
16 33 52.889643607  ÿÿÿÿ$GPVTG,0.00,T,,M,0.00,N,0.00,K,N*32
16 33 53.019836685 1217,,,N*49
16 33 53.125927934  ÿÿÿÿ$GPRMC,003347.094,V,,,,,0.00,0.00,060180,,,N*4C
16 33 53.233750171  ÿÿÿÿ$GPGGA,003351.094,,,,,0,00,,,M,,M,,*71
16 33 53.341419408
16 33 53.445593671 $GPGSA,A,1,,,,,,,,,,,,,,,*1E
16 33 53.555810890  ÿÿÿÿ$GPGSA,A,1,,,,,,,,,,,,,,,*1E
16 33 53.663859125  ÿÿÿÿ$GPRMC,003351.094,V,,,,,0.00,0.00,101217,,,N*40
16 33 53.772074359  ÿÿÿÿ$GPVTG,0.00,T,,M,0.00,N,0.00,K,N*32
16 33 53.882471577 1217,,,N*40
16 33 54.027543550  ÿÿÿÿ$GPRMC,003347.094,V,,,,,0.00,0.00,060180,,,N*4C
16 33 54.135258787  ÿÿÿÿ$GPRMC,003348.094,V,,,,,0.00,0.00,101217,,,N*48
16 33 54.242909025  ÿÿÿÿ$GPGSA,A,1,,,,,,,,,,,,,,,*1E
16 33 54.350181265 0.00,101217,,,N*48
16 33 54.456404513  ÿÿÿÿ$GPGSA,A,1,,,,,,,,,,,,,,,*1E
16 33 54.568131722 0.00,101217,,,N*48
16 33 54.674281970  ÿÿÿÿ$GPGSA,A,1,,,,,,,,,,,,,,,*1E
16 33 54.877949528 0.00,101217,,,N*48
16 33 54.986222761  ÿÿÿÿ$GPRMC,003347.094,V,,,,,0.00,0.00,060180,,,N*4C
16 33 55.117762830  ÿÿÿÿ$GPGSA,A,1,,,,,,,,,,,,,,,*1E
16 33 55.231993021 0.00,060180,,,N*4C
16 33 55.342367240  ÿÿÿÿ$GPRMC,003347.094,V,,,,,0.00,0.00,060180,,,N*4C
16 33 55.453626452  ÿÿÿÿ$GPGSA,A,1,,,,,,,,,,,,,,,*1E
16 33 55.565289661 0.00,060180,,,N*4C
16 33 55.672024905  ÿÿÿÿ$GPVTG,0.00,T,,M,0.00,N,0.00,K,N*32
16 33 55.783188118 0180,,,N*4C
16 33 55.893657336  ÿÿÿÿ$GPGSA,A,1,,,,,,,,,,,,,,,*1E
16 33 56.001719571 K,N*32
16 33 56.129673665 0180,,,N*4C
16 33 56.236050911  ÿÿÿÿ$GPRMC,003347.094,V,,,,,0.00,0.00,060180,,,N*4C
16 33 56.345889134  ÿÿÿÿ$GPGSA,A,1,,,,,,,,,,,,,,,*1E
16 33 56.456330352 0.00,060180,,,N*4C
16 33 56.563161595  ÿÿÿÿ$GPGGA,003349.094,,,,,0,00,,,M,,M,,*78
16 33 56.670563835 0,,,N*4C
16 33 56.776852082  ÿÿÿÿ$GPVTG,0.00,T,,M,0.00,N,0.00,K,N*32
16 33 56.899567213 $GPGSA,A,1,,,,,,,,,,,,,,,*1E
16 33 57.005892460 K,N*32
16 33 57.121869639 $GPRMC,003347.094,V,,,,,0.00,0.00,060180,,,N*4C
16 33 57.243733776 $GPGSA,A,1,,,,,,,,,,,,,,,*1E
16 33 57.357135973 0.00,060180,,,N*4C
16 33 57.465541205 $GPGGA,003349.094,,,,,0,00,,,M,,M,,*78
16 33 57.938949853 $GPGSA,A,1,,,,,,,,,,,,,,,*1E
16 33 58.090472780 $GPRMC,003351.094,V,,,,,0.00,0.00,101217,,,N*40
16 33 58.224160833 $GPRMC,003347.094,V,,,,,0.00,0.00,060180,,,N*4C
16 33 58.341441003 $GPGSA,A,1,,,,,,,,,,,,,,,*1E
16 33 58.476106049 $GPGSA,A,1,,,,,,,,,,,,,,,*1E
16 33 58.611324092 $GPGSA,A,1,,,,,,,,,,,,,,,*1E
16 33 58.746565134 $GPVTG,0.00,T,,M,0.00,N,0.00,K,N*32
16 33 58.881428179 $GPGSA,A,1,,,,,,,,,,,,,,,*1E
16 33 59.016295224 $GPGSA,A,1,,,,,,,,,,,,,,,*1E
16 33 59.150411275 $GPGSA,A,1,,,,,,,,,,,,,,,*1E
16 33 59.283837330 $GPGSA,A,1,,,,,,,,,,,,,,,*1E
16 33 59.393496553 $GPGGA,003357.000,,,,,0,03,,,M,,M,,*79
16 33 59.499523803
16 33 59.649592740 $GPGSA,A,1,,,,,,,,,,,,,,,*1E
16 33 59.784236786 $GPGSA,A,1,,,,,,,,,,,,,,,*1E
16 33 59.892053023 $GPRMC,003353.094,V,,,,,0.00,0.00,101217,,,N*42
16 34 00.012330171 $GPRMC,003349.094,V,,,,,0.00,0.00,101217,,,N*49
16 34 00.139434271 $GPGGA,003355.304,,,,,0,03,,,M,,M,,*7C
16 34 00.295230168 $GPRMC,003355.304,V,,,,,0.41,20.68,101217,,,N*77
16 34 00.416521309 $GPRMC,003347.094,V,,,,,0.00,0.00,060180,,,N*4C
16 34 00.522591558 ,,,,,,,,,,,*1E
16 34 00.628769806 $GPGSA,A,1,,,,,,,,,,,,,,,*1E
16 34 00.735552050 0.00,060180,,,N*4C
16 34 00.844842276 ,,,,,,,,,,,*1E
16 34 00.950860526 $GPGGA,003352.094,,,,,0,00,,,M,,M,,*72
16 34 01.133170235 $GPRMC,003347.094,V,,,,,0.00,0.00,060180,,,N*4C
16 34 01.251518397 $GPGSA,A,1,,,,,,,,,,,,,,,*1E
16 34 01.386255443 $GPGSA,A,1,,,,,,,,,,,,,,,*1E
16 34 01.521360486 $GPGSA,A,1,,,,,,,,,,,,,,,*1E
16 34 01.665027469 $GPVTG,0.00,T,,M,0.00,N,0.00,K,N*32
16 34 01.791328574 $GPGSA,A,1,,,,,,,,,,,,,,,*1E
16 34 01.926185619 $GPGSA,A,1,,,,,,,,,,,,,,,*1E
16 34 02.036250840 $GPGGA,003359.000,3356.0569,N,11726.6058,W,1,03,3.34,183.2,M,-33.1,M,,*50
16 34 02.142199090
16 34 02.245933355 $GPGSA,A,2,26,23,16,,,,,,,,,,3.49,3.34,1.00*0A
16 34 02.396848286 $GPGGA,003349.094,,,,,0,00,,,M,,M,,*78
16 34 02.518622424 $GPGGA,003357.000,,,,,0,03,,,M,,M,,*79
16 34 02.678824290 $GPGSV,1,1,04,23,65,347,32,16,56,090,33,26,35,053,31,09,,,21*4F
16 34 02.785933531 $GPRMC,003357.000,V,,,,,0.44,15.23,101217,,,N*7E
16 34 02.895043759 ,31,09,,,21*4F
16 34 03.001237007 $GPVTG,15.23,T,,M,0.44,N,0.81,K,N*0E
16 34 03.113256214 1217,,,N*7E
16 34 03.218757466 ,31,09,,,21*4F
16 34 03.324980714 $GPRMC,003353.094,V,,,,,0.00,0.00,101217,,,N*42
16 34 03.453738803  ÿÿÿÿÿ^C^]$GPGSA,A,1,,,,,,,,,,,,,,,*1E
16 34 03.562025036 ^C	^T^_^^^N^B^E^^F^^^O^L ÿÿÿÿÿ^C^]$GPGGA,003353.094,,,,,0,00,,,M,,M,,*7^^N^B^E^^F^^^O^L ÿÿÿÿÿ^C^]$GPGSA,A,1,,»$GPVTG,0.00,T,,M,0.00,N,0.00,K,N*32
16 34 03.670920265 1217,,,N*42
16 34 03.811716268 $GPGGA,003355.304,,,,,0,03,,,M,,M,,*7C
16 34 03.954602256 $GPRMC,003355.304,V,,,,,0.41,20.68,101217,,,N*77
16 34 04.062427492 $GPGGA,003400.219,3356.0568,N,11726.6057,W,1,03,3.35,183.1,M,-33.1,M,,*5D
16 34 04.168872739
16 34 04.273199000
16 34 04.383339220 $GPGSA,A,1,,,,,,,,,,,,,,,*1E
16 34 04.518269265 $GPGSA,A,1,,,,,,,,,,,,,,,*1E
16 34 04.703548953 $GPGGA,003358.000,3356.0569,N,11726.6057,W,1,03,3.34,183.2,M,-33.1,M,,*5E
16 34 04.810723194 $GPGSA,A,2,26,23,16,,,,,,,,,,3.49,3.34,1.00*0A
16 34 04.917367439 ,3.34,183.2,M,-33.1,M,,*5E
16 34 05.023932684 $GPRMC,003358.000,A,3356.0569,N,11726.6057,W,0.18,319.58,101217,,,A*74
16 34 05.130059932 5E
16 34 05.234617192 $GPVTG,319.58,T,,M,0.18,N,0.33,K,A*32
16 34 05.343491421 6057,W,0.18,319.58,101217,,,A*74
16 34 05.449454671 5E
16 34 05.577108767 $GPRMC,003347.094,V,,,,,0.00,0.00,060180,,,N*4C
16 34 05.683717012 ,0.00,T,,M,0.00,N,0.00,K,N*32
16 34 05.792558241 $GPRMC,003348.094,V,,,,,0.00,0.00,101217,,,N*48
16 34 05.898938488 ,0.00,T,,M,0.00,N,0.00,K,N*32
16 34 06.005484734 $GPGSA,A,1,,,,,,,,,,,,,,,*1E
16 34 06.116679946 0.00,101217,,,N*48
16 34 06.223011193 ,0.00,T,,M,0.00,N,0.00,K,N*32
16 34 06.329506439 $GPGSA,A,1,,,,,,,,,,,,,,,*1E
16 34 06.435723687 0.00,101217,,,N*48
16 34 06.544875914 ,0.00,T,,M,0.00,N,0.00,K,N*32
16 34 06.675888986 $GPGSA,A,1,,,,,,,,,,,,,,,*1E
16 34 06.784559217 0.00,101217,,,N*48
16 34 06.891159462 ,0.00,T,,M,0.00,N,0.00,K,N*32
16 34 06.999136697 $GPGGA,003354.090,,,,,0,00,,,M,,M,,*70
16 34 07.468972371 7,,,N*48
16 34 07.579188590 ,0.00,T,,M,0.00,N,0.00,K,N*32
16 34 07.707673680 $GPGSA,A,1,,,,,,,,,,,,,,,*1E
16 34 07.814077927 M,,M,,*70
16 34 07.920534173 $GPGSA,A,1,,,,,,,,,,,,,,,*1E
16 34 08.064033157 $GPGSA,A,2,26,23,16,,,,,,,,,,3.49,3.34,1.00*0A
16 34 08.172119392 H^F^^^O^L ÿÿÿÿÿ^C^]$GPGSA,A,1,,»^G$GPGGA,003400.000,3356.0567,N,11726.6059,W,1,03,3.34,183.2,M,-33.1,M,,*54
16 34 08.280055627 @	V@@§$GPRMC,003400.000,A,3356.0567,N,11726.6059,W,0.13,279.87,101217,,,A*70
16 34 08.387689865 A,A,1,,»^G$GPGGA,003400.000,3356.0567,N,11726.6059,W,1,03,3.34,183.2,M,-33.1,M,,*54
16 34 08.494797107 @	V@@§$GPVTG,279.87,T,,M,0.13,N,0.24,K,A*3A
16 34 08.602627343 6059,W,0.13,279.87,101217,,,A*70
16 34 08.731303432 A,A,1,,»^G$GPGGA,003400.000,3356.0567,N,11726.6059,W,1,03,3.34,183.2,M,-33.1,M,,*54
16 34 08.841212654 @	V@@§$GPGSA,A,1,,,,,,,,,,,,,,,*1E
16 34 08.949035890 L ÿ^C^]$GPGGA,003355.304,,,,,0,03,,,M,,M,,*7C
16 34 09.060311102 1,,»^G$GPGGA,003400.000,3356.0567,N,11726.6059,W,1,03,3.34,183.2,M,-33.1,M,,*54
16 34 09.167730342 @	V@@§$GPRMC,003355.304,V,,,,,0.41,20.68,101217,,,N*77
16 34 09.274962582 .304,,,,,0,03,,,M,,M,,*7C
16 34 09.382525821 1,,»^G$GPGGA,003400.000,3356.0567,N,11726.6059,W,1,03,3.34,183.2,M,-33.1,M,,*54
16 34 09.489908060 @	V@@§$GPGGA,003404.000,3356.0559,N,11726.6050,W,1,03,3.34,183.1,M,-33.1,M,,*57
16 34 09.596561305
16 34 09.714905467 $GPGSA,A,2,26,23,16,,,,,,,,,,3.49,3.34,1.00*0A
16 34 09.828455663
16 34 09.932079929 $GPRMC,003404.000,A,3356.0559,N,11726.6050,W,0.14,194.24,101217,,,A*7E
16 34 10.038409176
16 34 10.141813444 $GPVTG,194.24,T,,M,0.14,N,0.26,K,A*36
16 34 10.247479696
16 34 10.356064927 $GPGGA,003400.219,3356.0568,N,11726.6057,W,1,03,3.35,183.1,M,-33.1,M,,*5D
16 34 10.839780502 $GPGSA,A,1,,,,,,,,,,,,,,,*1E
16 34 10.974702546 $GPGSA,A,1,,,,,,,,,,,,,,,*1E
16 34 11.118732526 $GPVTG,0.00,T,,M,0.00,N,0.00,K,N*32
16 34 11.243440643 $GPGSA,A,1,,,,,,,,,,,,,,,*1E
16 34 11.382942656 $GPGSA,A,1,,,,,,,,,,,,,,,*1E
16 34 11.501377817 $GPGGA,003406.000,3356.0556,N,11726.6051,W,1,03,3.34,183.1,M,-33.1,M,,*5B
16 34 11.607988062
16 34 11.711118332 $GPGSA,A,2,26,23,16,,,,,,,,,,3.49,3.34,1.00*0A
16 34 11.839995419
16 34 11.943852684 $GPRMC,003406.000,A,3356.0556,N,11726.6051,W,0.20,226.19,101217,,,A*71
16 34 12.054808898
16 34 12.158580163 $GPVTG,226.19,T,,M,0.20,N,0.37,K,A*35
16 34 12.264673412
16 34 12.369979666 $GPGGA,003402.000,3356.0565,N,11726.6056,W,1,03,3.34,183.1,M,-33.1,M,,*58
16 34 12.822945459 $GPGSA,A,2,26,23,16,,,,,,,,,,3.49,3.34,1.00*0A
16 34 12.951966545 ,3.34,183.1,M,-33.1,M,,*58
16 34 13.058632790 $GPGSV,1,1,04,23,65,347,25,16,56,090,28,26,35,053,28,09,,,22*48
16 34 13.165462033 .1,M,,*58
16 34 13.272154278 $GPGGA,003406.219,3356.0554,N,11726.6050,W,1,03,3.35,183.1,M,-33.1,M,,*53
16 34 13.727980050
16 34 13.831602316 $GPGSA,A,2,26,23,16,,,,,,,,,,3.49,3.35,1.00*0B
16 34 13.962384390
16 34 14.066247655 $GPGSV,1,1,04,23,65,347,27,16,56,090,29,26,35,053,30,09,,,22*42
16 34 14.171967906
16 34 14.275142176 $GPRMC,003406.219,A,3356.0554,N,11726.6050,W,0.16,198.11,101217,,,A*73
16 34 14.393699336 $GPRMC,003400.000,A,3356.0567,N,11726.6059,W,0.13,279.87,101217,,,A*70
16 34 14.500703579 .2,M,-33.1,M,,*54
16 34 14.609738806 $GPGGA,003400.000,3356.0567,N,11726.6059,W,1,03,3.34,183.2,M,-33.1,M,,*54
16 34 15.087986420 M,-33.1,M,,*54
16 34 15.194320667 $GPVTG,279.87,T,,M,0.13,N,0.24,K,A*3A
16 34 15.301503908 59,W,1,03,3.34,183.2,M,-33.1,M,,*54
16 34 15.410833134 M,-33.1,M,,*54
16 34 15.555202112 $GPRMC,003404.000,A,3356.0559,N,11726.6050,W,0.14,194.24,101217,,,A*7E
16 34 15.662479352 $GPVTG,194.24,T,,M,0.14,N,0.26,K,A*36
16 34 15.769320595 6050,W,0.14,194.24,101217,,,A*7E
16 34 15.876127839 $GPGGA,003400.219,3356.0568,N,11726.6057,W,1,03,3.35,183.1,M,-33.1,M,,*5D
16 34 16.351538473 $GPGSA,A,2,26,23,16,,,,,,,,,,3.49,3.35,1.00*0B
16 34 16.457995719 ,3.35,183.1,M,-33.1,M,,*5D
16 34 16.568536936 $GPRMC,003400.219,A,3356.0568,N,11726.6057,W,0.11,274.23,101217,,,A*7A
16 34 16.676685170 5D
16 34 16.781082431 $GPVTG,274.23,T,,M,0.11,N,0.21,K,A*3E
16 34 16.887422678 6057,W,0.11,274.23,101217,,,A*7A
16 34 17.041022590 $GPRMC,003358.000,A,3356.0569,N,11726.6057,W,0.18,319.58,101217,,,A*74
16 34 17.168472688 $GPVTG,319.58,T,,M,0.18,N,0.33,K,A*32
16 34 17.274755935 6057,W,0.18,319.58,101217,,,A*74
16 34 17.383506165 $GPRMC,003347.094,V,,,,,0.00,0.00,060180,,,N*4C
16 34 17.490637407 $GPGSA,A,2,26,23,16,,,,,,,,,,3.49,3.35,1.00*0B
16 34 17.597486650 ,3.35,183.1,M,-33.1,M,,*55
16 34 17.703434900 11726.6057,W,0.18,319.58,101217,,,A*74
16 34 17.810176144  BÁLìx× ïQÁ$GPGSA,A,2,26,23,16,,,,,,,,,,3.49,3.35,1.00*0B
16 34 17.917190386 ,3.35,183.1,M,-33.1,M,,*55
16 34 18.023680632 11726.6057,W,0.18,319.58,101217,,,A*74
16 34 18.156949689  BÁLìx× ïQÁ$GPGSA,A,2,26,23,16,,,,,,,,,,3.49,3.35,1.00*0B
16 34 18.262633940 ,3.35,183.1,M,-33.1,M,,*55
16 34 18.370886174 11726.6057,W,0.18,319.58,101217,,,A*74
16 34 18.477791417  BÁLìx× ïQÁ$GPGSA,A,2,26,23,16,,,,,,,,,,3.49,3.35,1.00*0B
16 34 18.587812638 ,3.35,183.1,M,-33.1,M,,*55
16 34 18.701190835 $GPGGA,003418.214,3356.0557,N,11726.6045,W,1,03,3.35,183.1,M,-33.1,M,,*56
16 34 19.164911551
16 34 19.278448747 $GPGSA,A,2,26,23,16,,,,,,,,,,3.50,3.35,1.00*03
16 34 19.384615995
16 34 19.488427260 $GPRMC,003418.214,A,3356.0557,N,11726.6045,W,0.47,53.40,101217,,,A*40
16 34 19.598949478
16 34 19.702665743 $GPVTG,53.40,T,,M,0.47,N,0.87,K,A*03
16 34 19.808765992
16 34 19.912111260 $GPGGA,003418.000,3356.0556,N,11726.6046,W,1,03,3.35,183.1,M,-33.1,M,,*53
16 34 20.388661886 $GPGSA,A,2,26,23,16,,,,,,,,,,3.50,3.35,1.00*03
16 34 20.495419130 ,3.35,183.1,M,-33.1,M,,*53
16 34 20.601773377 $GPRMC,003418.000,A,3356.0556,N,11726.6046,W,0.42,54.47,101217,,,A*40
16 34 20.709817612 *53
16 34 20.816140859 $GPVTG,54.47,T,,M,0.42,N,0.79,K,A*07
16 34 20.922834103 .6046,W,0.42,54.47,101217,,,A*40
16 34 21.029689347 *53
16 34 21.140398563 $GPGSA,A,2,26,23,16,,,,,,,,,,3.49,3.35,1.00*0B
16 34 21.269331650 42,54.47,101217,,,A*40
16 34 21.375860895 *53
16 34 21.482446141 $GPGGA,003418.214,3356.0557,N,11726.6045,W,1,03,3.35,183.1,M,-33.1,M,,*56
16 34 21.934004943 $GPGSA,A,2,26,23,16,,,,,,,,,,3.49,3.35,1.00*0B
16 34 22.041121185 »+$GPGGA,003420.000,3356.0554,N,11726.6046,W,1,03,3.35,183.1,M,-33.1,M,,*5A
16 34 22.149441417 Ï÷$GPGSA,A,2,26,23,16,,,,,,,,,,3.50,3.35,1.00*03
16 34 22.261580623
16 34 22.387533732 $GPRMC,003418.214,A,3356.0557,N,11726.6045,W,0.47,53.40,101217,,,A*40
16 34 22.494668973 $GPVTG,53.40,T,,M,0.47,N,0.87,K,A*03
16 34 22.605899185 .6045,W,0.47,53.40,101217,,,A*40
16 34 22.712941427 $GPGGA,003418.000,3356.0556,N,11726.6046,W,1,03,3.35,183.1,M,-33.1,M,,*53
16 34 23.165960219 $GPGSA,A,2,26,23,16,,,,,,,,,,3.50,3.35,1.00*03
16 34 23.272971462 ,3.35,183.1,M,-33.1,M,,*53
16 34 23.401951548 $GPRMC,003418.000,A,3356.0556,N,11726.6046,W,0.42,54.47,101217,,,A*40
16 34 23.508885791 *53
16 34 23.615467037 $GPGGA,003420.000,3356.0554,N,11726.6046,W,1,03,3.35,183.1,M,-33.1,M,,*5A
16 34 24.070269816 $GPGSA,A,2,26,23,16,,,,,,,,,,3.50,3.35,1.00*03
16 34 24.264015444 ,3.35,183.1,M,-33.1,M,,*5A
16 34 24.464800022 $GPRMC,003420.000,A,3356.0554,N,11726.6046,W,0.26,55.72,101217,,,A*4C
16 34 24.721945201 *5A
16 34 24.936207684 $GPVTG,55.72,T,,M,0.26,N,0.49,K,A*01
16 34 25.147617187 .6046,W,0.26,55.72,101217,,,A*4C
16 34 25.361459673 *5A
16 34 25.616614866 $GPGGA,003418.214,3356.0557,N,11726.6045,W,1,03,3.35,183.1,M,-33.1,M,,*56
16 34 26.515992498 $GPGGA,003422.000,3356.0554,N,11726.6049,W,1,03,3.35,183.1,M,-33.1,M,,*57
16 34 27.217773528 $GPRMC,003420.000,A,3356.0554,N,11726.6046,W,0.26,55.72,101217,,,A*4C
16 34 27.326767757 $GPVTG,55.72,T,,M,0.26,N,0.49,K,A*01
16 34 27.433441001 .6046,W,0.26,55.72,101217,,,A*4C
16 34 27.540461243 $GPGGA,003423.000,3356.0551,N,11726.6050,W,1,03,3.35,183.1,M,-33.1,M,,*5B
16 34 28.014661886 $GPGSA,A,2,26,23,16,,,,,,,,,,3.50,3.35,1.00*03
16 34 28.120857134 ,3.35,183.1,M,-33.1,M,,*5B
16 34 28.227744377 $GPRMC,003423.000,A,3356.0551,N,11726.6050,W,0.19,139.44,101217,,,A*7F
16 34 28.333559627 5B
16 34 28.437713890 $GPVTG,139.44,T,,M,0.19,N,0.36,K,A*3B
16 34 28.544124136 6050,W,0.19,139.44,101217,,,A*7F
16 34 28.654098358 5B
16 34 28.760650603 $GPGGA,003418.214,3356.0557,N,11726.6045,W,1,03,3.35,183.1,M,-33.1,M,,*56
16 34 29.234347249 $GPGGA,003422.000,3356.0554,N,11726.6049,W,1,03,3.35,183.1,M,-33.1,M,,*57
16 34 29.686572047 $GPGSA,A,2,26,23,16,,,,,,,,,,3.50,3.35,1.00*03
16 34 29.793599289 ,3.35,183.1,M,-33.1,M,,*57
16 34 29.924855359 $GPGSV,1,1,04,23,65,347,27,16,56,090,29,26,35,053,30,09,,,22*42
16 34 30.031582604 .1,M,,*57
16 34 30.141947822 $GPRMC,003422.000,A,3356.0554,N,11726.6049,W,0.14,63.43,101217,,,A*47
16 34 30.248522068 *57
16 34 30.354673316 $GPVTG,63.43,T,,M,0.14,N,0.26,K,A*0E
16 34 30.463979542 .6049,W,0.14,63.43,101217,,,A*47
16 34 30.571342782 *57
16 34 30.678366024 $GPGGA,003421.000,3356.0555,N,11726.6045,W,1,03,3.35,183.1,M,-33.1,M,,*59
16 34 31.152747665 $GPGSA,A,2,26,23,16,,,,,,,,,,3.50,3.35,1.00*03
16 34 31.258997912 ,3.35,183.1,M,-33.1,M,,*59
16 34 31.368599136 $GPRMC,003421.000,A,3356.0555,N,11726.6045,W,0.32,66.98,101217,,,A*4E
16 34 31.478186360 *59
16 34 31.588717578 $GPVTG,66.98,T,,M,0.32,N,0.60,K,A*0B
16 34 31.695253823 .6045,W,0.32,66.98,101217,,,A*4E
16 34 31.801669070 *59
16 34 31.918127245 $GPVTG,53.40,T,,M,0.47,N,0.87,K,A*03
16 34 32.035927411 .6045,W,0.32,66.98,101217,,,A*4E
16 34 32.143174651 *59
16 34 32.248776904 $GPGGA,003418.000,3356.0556,N,11726.6046,W,1,03,3.35,183.1,M,-33.1,M,,*53
16 34 32.704244678 $GPGSA,A,2,26,23,16,,,,,,,,,,3.50,3.35,1.00*03
16 34 32.810753924 ,3.35,183.1,M,-33.1,M,,*53
16 34 32.917507168 $GPGGA,003424.000,3356.0551,N,11726.6050,W,1,03,3.36,183.1,M,-33.1,M,,*5F
16 34 33.395667782 $GPGGA,003423.000,3356.0551,N,11726.6050,W,1,03,3.35,183.1,M,-33.1,M,,*5B
16 34 33.851287556 $GPGSV,1,1,04,23,65,347,27,16,56,090,29,26,35,053,30,09,,,22*42
16 34 33.958193799 $GPRMC,003422.000,A,3356.0554,N,11726.6049,W,0.14,63.43,101217,,,A*47
16 34 34.137455530 $GPVTG,63.43,T,,M,0.14,N,0.26,K,A*0E
16 34 34.244058775 .6049,W,0.14,63.43,101217,,,A*47
16 34 34.351217016 $GPGGA,003430.206,3356.0553,N,11726.6061,W,1,03,3.36,183.1,M,-33.1,M,,*5E
16 34 34.806454793
16 34 34.909818061 $GPGSA,A,2,26,23,16,,,,,,,,,,3.50,3.36,1.00*00
16 34 35.015103315
16 34 35.134525470 $GPRMC,003430.206,A,3356.0553,N,11726.6061,W,0.13,148.69,101217,,,A*7A
16 34 35.246796675
16 34 35.350378941 $GPVTG,148.69,T,,M,0.13,N,0.24,K,A*3B
16 34 35.455978193
16 34 35.564225427 $GPGGA,003421.000,3356.0555,N,11726.6045,W,1,03,3.35,183.1,M,-33.1,M,,*59
16 34 36.017223219 $GPGSA,A,2,26,23,16,,,,,,,,,,3.50,3.35,1.00*03
16 34 36.128339432 ,3.35,183.1,M,-33.1,M,,*59
16 34 36.290016287 $GPRMC,003424.207,A,3356.0551,N,11726.6050,W,0.29,119.02,101217,,,A*7E
16 34 36.396794531 $GPGGA,003429.000,3356.0554,N,11726.6056,W,1,03,3.36,183.1,M,-33.1,M,,*51
16 34 36.912785878 $GPRMC,003423.000,A,3356.0551,N,11726.6050,W,0.19,139.44,101217,,,A*7F
16 34 37.019859119 $GPVTG,139.44,T,,M,0.19,N,0.36,K,A*3B
16 34 37.127049360 6050,W,0.19,139.44,101217,,,A*7F
16 34 37.256665443 $GPGGA,003427.000,3356.0549,N,11726.6051,W,1,03,3.36,183.1,M,-33.1,M,,*54
16 34 37.712697213 $GPGSA,A,2,26,23,16,,,,,,,,,,3.50,3.36,1.00*00
16 34 37.819659456 ,3.36,183.1,M,-33.1,M,,*54
16 34 37.925795704 $GPGSV,1,1,04,23,65,347,26,16,56,090,30,26,35,053,30,09,,,20*49
16 34 38.032722947 .1,M,,*54
16 34 38.139395192 $GPRMC,003427.000,A,3356.0549,N,11726.6051,W,0.39,130.12,101217,,,A*7B
16 34 38.245387441 54
16 34 38.372069544 $GPVTG,130.12,T,,M,0.39,N,0.72,K,A*33
16 34 38.478877788 6051,W,0.39,130.12,101217,,,A*7B
16 34 38.584620039 54
16 34 38.690313291 $GPRMC,003422.000,A,3356.0554,N,11726.6049,W,0.14,63.43,101217,,,A*47
16 34 38.797060535 053,30,09,,,22*42
16 34 38.903534781 $GPVTG,63.43,T,,M,0.14,N,0.26,K,A*0E
16 34 39.010720022 .6049,W,0.14,63.43,101217,,,A*47
16 34 39.121560237 053,30,09,,,22*42
16 34 39.228191482 $GPGGA,003430.206,3356.0553,N,11726.6061,W,1,03,3.36,183.1,M,-33.1,M,,*5E
16 34 39.710574066 30,09,,,22*42
16 34 39.817091312 $GPGSA,A,2,26,23,16,,,,,,,,,,3.50,3.36,1.00*00
16 34 39.923578558 ,3.36,183.1,M,-33.1,M,,*5E
16 34 40.030147803 30,09,,,22*42
16 34 40.136154053 $GPGGA,003434.000,3356.0549,N,11726.6069,W,1,03,3.36,183.1,M,-33.1,M,,*5D
16 34 40.618554637
16 34 40.722048904 $GPGSA,A,2,26,23,16,,,,,,,,,,3.50,3.36,1.00*00
16 34 40.830908133
16 34 40.934187402 $GPRMC,003434.000,A,3356.0549,N,11726.6069,W,0.10,141.76,101217,,,A*7D
16 34 41.042670634
16 34 41.154160844 $GPVTG,141.76,T,,M,0.10,N,0.18,K,A*30
16 34 41.260174094
16 34 41.414336002 $GPRMC,003430.206,A,3356.0553,N,11726.6061,W,0.13,148.69,101217,,,A*7A
16 34 41.541943098 $GPVTG,148.69,T,,M,0.13,N,0.24,K,A*3B
16 34 41.648677343 6061,W,0.13,148.69,101217,,,A*7A
16 34 41.755418587 $GPGGA,003421.000,3356.0555,N,11726.6045,W,1,03,3.35,183.1,M,-33.1,M,,*59
16 34 42.211067360 $GPGSA,A,2,26,23,16,,,,,,,,,,3.50,3.35,1.00*03
16 34 42.318182602 ,3.35,183.1,M,-33.1,M,,*59
16 34 42.424758847 $GPRMC,003421.000,A,3356.0555,N,11726.6045,W,0.32,66.98,101217,,,A*4E
16 34 42.553928932 *59
16 34 42.660669177 $GPVTG,66.98,T,,M,0.32,N,0.60,K,A*0B
16 34 42.767191422 .6045,W,0.32,66.98,101217,,,A*4E
16 34 42.873288671 *59
16 34 42.979068922 $GPVTG,53.40,T,,M,0.47,N,0.87,K,A*03
16 34 43.085103171 .6045,W,0.32,66.98,101217,,,A*4E
16 34 43.191065421 *59
16 34 43.297380668 $GPGGA,003418.000,3356.0556,N,11726.6046,W,1,03,3.35,183.1,M,-33.1,M,,*53
16 34 43.772181306 $GPGSA,A,2,26,23,16,,,,,,,,,,3.50,3.35,1.00*03
16 34 43.878639552 ,3.35,183.1,M,-33.1,M,,*53
16 34 43.984999799 $GPGGA,003428.000,3356.0552,N,11726.6054,W,1,03,3.35,183.1,M,-33.1,M,,*57
16 34 44.436594601 $GPGSA,A,2,26,23,16,,,,,,,,,,3.50,3.35,1.00*03
16 34 44.545326831 ,3.35,183.1,M,-33.1,M,,*57
16 34 44.677892893 $GPRMC,003428.000,A,3356.0552,N,11726.6054,W,0.23,132.60,101217,,,A*77
16 34 44.783770143 57
16 34 44.888198403 $GPVTG,132.60,T,,M,0.23,N,0.43,K,A*3D
16 34 44.995007647 6054,W,0.23,132.60,101217,,,A*77
16 34 45.155098513 57
16 34 45.259191776 $GPGGA,003435.000,3356.0546,N,11726.6071,W,1,03,3.36,183.1,M,-33.1,M,,*5A
16 34 45.750129300
16 34 45.852922572 $GPGSA,A,2,26,23,16,,,,,,,,,,3.50,3.36,1.00*00
16 34 45.958604824
16 34 46.062189090 $GPRMC,003435.000,A,3356.0546,N,11726.6071,W,0.27,176.40,101217,,,A*7F
16 34 46.168047341
16 34 46.271273610 $GPVTG,176.40,T,,M,0.27,N,0.50,K,A*39
16 34 46.377143860
16 34 46.481149124 $GPGGA,003424.000,3356.0551,N,11726.6050,W,1,03,3.36,183.1,M,-33.1,M,,*5F
16 34 46.955656764 $GPGSA,A,2,26,23,16,,,,,,,,,,3.50,3.36,1.00*00
16 34 47.062021010 ,3.36,183.1,M,-33.1,M,,*5F
16 34 47.168371257 $GPGGA,003426.000,3356.0548,N,11726.6050,W,1,03,3.36,183.1,M,-33.1,M,,*55
16 34 47.617528077 $GPGSA,A,2,26,23,16,,,,,,,,,,3.50,3.36,1.00*00
16 34 47.723539326 ,3.36,183.1,M,-33.1,M,,*55
16 34 47.858500371 $GPRMC,003426.000,A,3356.0548,N,11726.6050,W,0.40,136.89,101217,,,A*70
16 34 47.964321621 55
16 34 48.070995866 $GPVTG,136.89,T,,M,0.40,N,0.74,K,A*3F
16 34 48.184945059 6050,W,0.40,136.89,101217,,,A*70
16 34 48.290673310 55
16 34 48.394745573 $GPRMC,003424.000,A,3356.0551,N,11726.6050,W,0.24,118.82,101217,,,A*7F
16 34 48.500515824 55
16 34 48.607830064 $GPVTG,118.82,T,,M,0.24,N,0.45,K,A*38
16 34 48.714140312 6050,W,0.24,118.82,101217,,,A*7F
16 34 48.827103512 55
16 34 48.993833331 $GPRMC,003418.000,A,3356.0556,N,11726.6046,W,0.42,54.47,101217,,,A*40
16 34 49.099292584
16 34 49.201884858 55
16 34 49.305537124 $GPGGA,003420.000,3356.0554,N,11726.6046,W,1,03,3.35,183.1,M,-33.1,M,,*5A
16 34 49.758688915 $GPGGA,003424.207,3356.0551,N,11726.6050,W,1,03,3.35,183.1,M,-33.1,M,,*59
16 34 50.229729580 $GPGGA,003432.000,3356.0550,N,11726.6066,W,1,03,3.36,183.1,M,-33.1,M,,*5C
16 34 50.679440395 $GPGSA,A,2,26,23,16,,,,,,,,,,3.51,3.36,1.00*01
16 34 50.785678643 ,3.36,183.1,M,-33.1,M,,*5C
16 34 50.894563872 $GPGGA,003436.000,3356.0542,N,11726.6072,W,1,03,3.36,183.1,M,-33.1,M,,*5E
16 34 51.369505509
16 34 51.472816777 $GPGSA,A,2,26,23,16,,,,,,,,,,3.50,3.36,1.00*00
16 34 51.578311030
16 34 51.681816297 $GPRMC,003436.000,A,3356.0542,N,11726.6072,W,0.32,168.60,101217,,,A*72
16 34 51.787379550
16 34 51.890737818 $GPVTG,168.60,T,,M,0.32,N,0.59,K,A*39
16 34 52.018252915
16 34 52.121468184 $GPGSV,1,1,04,23,65,347,26,16,56,090,31,26,35,053,31,09,,,18*42
16 34 52.228242428 $GPRMC,003432.000,A,3356.0550,N,11726.6066,W,0.12,200.84,101217,,,A*75
16 34 52.334819674 $GPVTG,200.84,T,,M,0.12,N,0.23,K,A*31
16 34 52.440823923 6066,W,0.12,200.84,101217,,,A*75
16 34 52.546673173 $GPGGA,003436.207,3356.0540,N,11726.6073,W,1,03,3.36,183.1,M,-33.1,M,,*58
16 34 52.999053970
16 34 53.124462082 $GPGSA,A,2,26,23,16,,,,,,,,,,3.50,3.36,1.00*00
16 34 53.229640337
16 34 53.333610601 $GPGSV,1,1,04,23,65,347,26,16,56,090,31,26,35,053,31,09,,,18*42
16 34 53.438804856
16 34 53.541928126 $GPRMC,003436.207,A,3356.0540,N,11726.6073,W,0.38,173.91,101217,,,A*7A
16 34 53.647651377
16 34 53.750970646 $GPVTG,173.91,T,,M,0.38,N,0.71,K,A*3D
16 34 53.856986895
16 34 53.963082144 $GPGGA,003429.000,3356.0554,N,11726.6056,W,1,03,3.36,183.1,M,-33.1,M,,*51
16 34 54.441753754 $GPGSA,A,2,26,23,16,,,,,,,,,,3.50,3.36,1.00*00
16 34 54.547719004 ,3.36,183.1,M,-33.1,M,,*51
16 34 54.653995251 $GPRMC,003429.000,A,3356.0554,N,11726.6056,W,0.19,105.91,101217,,,A*71
16 34 54.763267478 51
16 34 54.870664717 $GPGGA,003433.000,3356.0549,N,11726.6068,W,1,03,3.36,183.1,M,-33.1,M,,*5B
16 34 55.348460334 $GPGSA,A,2,26,23,16,,,,,,,,,,3.50,3.36,1.00*00
16 34 55.456609568 ,3.36,183.1,M,-33.1,M,,*5B
16 34 55.563372812 $GPRMC,003433.000,A,3356.0549,N,11726.6068,W,0.15,173.55,101217,,,A*7E
16 34 55.676346012 5B
16 34 55.779343283 $GPVTG,173.55,T,,M,0.15,N,0.27,K,A*39
16 34 55.892218483 6068,W,0.15,173.55,101217,,,A*7E
16 34 55.997141740 5B
16 34 56.100002012 $GPGSA,A,2,26,23,16,,,,,,,,,,3.50,3.35,1.00*03
16 34 56.228921099 15,173.55,101217,,,A*7E
16 34 56.334014355 5B
16 34 56.438360616 $GPRMC,003423.000,A,3356.0551,N,11726.6050,W,0.19,139.44,101217,,,A*7F
16 34 56.567951699 5B
16 34 56.671831963 $GPVTG,139.44,T,,M,0.19,N,0.36,K,A*3B
16 34 56.777026218 6050,W,0.19,139.44,101217,,,A*7F
16 34 56.881540478 5B
16 34 56.984711747 $GPGGA,003427.000,3356.0549,N,11726.6051,W,1,03,3.36,183.1,M,-33.1,M,,*54
16 34 57.458219394 $GPGSA,A,2,26,23,16,,,,,,,,,,3.50,3.36,1.00*00
16 34 57.564412643 ,3.36,183.1,M,-33.1,M,,*54
16 34 57.669868896 $GPGSV,1,1,04,23,65,347,26,16,56,090,30,26,35,053,30,09,,,20*49
16 34 57.775763146 .1,M,,*54
16 34 57.880756402 $GPRMC,003427.000,A,3356.0549,N,11726.6051,W,0.39,130.12,101217,,,A*7B
16 34 57.986376655 54
16 34 58.089637923 $GPVTG,130.12,T,,M,0.39,N,0.72,K,A*33
16 34 58.194060184 6051,W,0.39,130.12,101217,,,A*7B
16 34 58.320797287 54
16 34 58.425037548 $GPRMC,003422.000,A,3356.0554,N,11726.6049,W,0.14,63.43,101217,,,A*47
16 34 58.530635801
16 34 58.637611043 54
16 34 58.741252309 $GPVTG,63.43,T,,M,0.14,N,0.26,K,A*0E
16 34 58.846384565 .6049,W,0.14,63.43,101217,,,A*47
16 34 58.950545827
16 34 59.052213107 54
16 34 59.155499376 $GPGGA,003430.206,3356.0553,N,11726.6061,W,1,03,3.36,183.1,M,-33.1,M,,*5E
16 34 59.626192043 $GPGSA,A,2,26,23,16,,,,,,,,,,3.50,3.36,1.00*00
16 34 59.732007294 ,3.36,183.1,M,-33.1,M,,*5E
16 34 59.838103542 $GPGGA,003434.000,3356.0549,N,11726.6069,W,1,03,3.36,183.1,M,-33.1,M,,*5D
16 35 00.287579360 $GPGSA,A,2,26,23,16,,,,,,,,,,3.50,3.36,1.00*00
16 35 00.412880472 ,3.36,183.1,M,-33.1,M,,*5D
16 35 00.522521696 $GPRMC,003434.000,A,3356.0549,N,11726.6069,W,0.10,141.76,101217,,,A*7D
16 35 00.628404946 5D
16 35 00.732665208 $GPVTG,141.76,T,,M,0.10,N,0.18,K,A*30
16 35 00.838734457 6069,W,0.10,141.76,101217,,,A*7D
16 35 00.944461708 5D
16 35 01.087937692 $GPGGA,003438.000,3356.0539,N,11726.6076,W,1,03,3.36,183.1,M,-33.1,M,,*58
16 35 01.554900386
16 35 01.661610630 $GPGSA,A,2,26,23,16,,,,,,,,,,3.51,3.36,1.00*01
16 35 01.765611894
16 35 01.868092168 $GPRMC,003438.000,A,3356.0539,N,11726.6076,W,0.31,177.40,101217,,,A*7B
16 35 01.973651421
16 35 02.075535699 $GPVTG,177.40,T,,M,0.31,N,0.58,K,A*37
16 35 02.179837961
16 35 02.282156236 $GPRMC,003430.206,A,3356.0553,N,11726.6061,W,0.13,148.69,101217,,,A*7A
16 35 02.389120479 $GPVTG,148.69,T,,M,0.13,N,0.24,K,A*3B
16 35 02.516722575 6061,W,0.13,148.69,101217,,,A*7A
16 35 02.623161821 $GPGGA,003421.000,3356.0555,N,11726.6045,W,1,03,3.35,183.1,M,-33.1,M,,*59
16 35 03.070649653 $GPGSA,A,2,26,23,16,,,,,,,,,,3.50,3.35,1.00*03
16 35 03.180172877 ,3.35,183.1,M,-33.1,M,,*59
16 35 03.285560131 $GPRMC,003421.000,A,3356.0555,N,11726.6045,W,0.32,66.98,101217,,,A*4E
16 35 03.392347375 *59
16 35 03.498185625 $GPVTG,66.98,T,,M,0.32,N,0.60,K,A*0B
16 35 03.626131719 .6045,W,0.32,66.98,101217,,,A*4E
16 35 03.732392967 *59
16 35 03.837180225 $GPVTG,53.40,T,,M,0.47,N,0.87,K,A*03
16 35 03.942772477 .6045,W,0.32,66.98,101217,,,A*4E
16 35 04.047147738 *59
16 35 04.152112995 $GPGGA,003418.000,3356.0556,N,11726.6046,W,1,03,3.35,183.1,M,-33.1,M,,*53
16 35 04.625146645 ¢p$GPGSA,A,2,26,23,16,,,,,,,,,,3.50,3.35,1.00*03
16 35 04.730992896 ,3.35,183.1,M,-33.1,M,,*53
16 35 04.836155151 ¢p$GPGGA,003428.000,3356.0552,N,11726.6054,W,1,03,3.35,183.1,M,-33.1,M,,*57
16 35 04.943259393 ¢p$GPGSA,A,2,26,23,16,,,,,,,,,,3.50,3.35,1.00*03
16 35 05.048930644 ,3.35,183.1,M,-33.1,M,,*57
16 35 05.154013900 ¢p$GPRMC,003428.000,A,3356.0552,N,11726.6054,W,0.23,132.60,101217,,,A*77
16 35 05.259223155 57
16 35 05.363226419 ¢p$GPVTG,132.60,T,,M,0.23,N,0.43,K,A*3D
16 35 05.469402667 6054,W,0.23,132.60,101217,,,A*77
16 35 05.574953920 57
16 35 05.701783021 ¢p$GPGGA,003439.000,3356.0541,N,11726.6077,W,1,03,3.36,183.1,M,-33.1,M,,*57
16 35 05.807591272
16 35 05.910677542 $GPGSA,A,2,26,23,16,,,,,,,,,,3.50,3.36,1.00*00
16 35 06.015653799
16 35 06.125761019 $GPRMC,003439.000,A,3356.0541,N,11726.6077,W,0.30,179.70,101217,,,A*78
16 35 06.230856275
16 35 06.334087544 $GPVTG,179.70,T,,M,0.30,N,0.55,K,A*36
16 35 06.439589797
16 35 06.542920065 $GPGGA,003435.000,3356.0546,N,11726.6071,W,1,03,3.36,183.1,M,-33.1,M,,*5A
16 35 07.017833702 $GPGSA,A,2,26,23,16,,,,,,,,,,3.50,3.36,1.00*00
16 35 07.124243949 ,3.36,183.1,M,-33.1,M,,*5A
16 35 07.231154192 $GPRMC,003435.000,A,3356.0546,N,11726.6071,W,0.27,176.40,101217,,,A*7F
16 35 07.340016421 5A
16 35 07.458671581 $GPVTG,176.40,T,,M,0.27,N,0.50,K,A*39
16 35 07.564166834 6071,W,0.27,176.40,101217,,,A*7F
16 35 07.672599066 5A
16 35 07.797037185 $GPGGA,003424.000,3356.0551,N,11726.6050,W,1,03,3.36,183.1,M,-33.1,M,,*5F
16 35 08.244387017 $GPGSA,A,2,26,23,16,,,,,,,,,,3.50,3.36,1.00*00
16 35 08.350959263 ,3.36,183.1,M,-33.1,M,,*5F
16 35 08.457532508 $GPGGA,003426.000,3356.0548,N,11726.6050,W,1,03,3.36,183.1,M,-33.1,M,,*55
16 35 08.925988191 $GPGSA,A,2,26,23,16,,,,,,,,,,3.50,3.36,1.00*00
16 35 09.031890441 ,3.36,183.1,M,-33.1,M,,*55
16 35 09.141375666 $GPRMC,003426.000,A,3356.0548,N,11726.6050,W,0.40,136.89,101217,,,A*70
16 35 09.245985925 55
16 35 09.353028167 $GPVTG,136.89,T,,M,0.40,N,0.74,K,A*3F
16 35 09.460184408 6050,W,0.40,136.89,101217,,,A*70
16 35 09.566376656 55
16 35 09.670775917 $GPRMC,003424.000,A,3356.0551,N,11726.6050,W,0.24,118.82,101217,,,A*7F
16 35 09.776446169 55
16 35 09.901658282 $GPVTG,118.82,T,,M,0.24,N,0.45,K,A*38
16 35 10.007670531 6050,W,0.24,118.82,101217,,,A*7F
16 35 10.111933793 55
16 35 10.220837022 $GPRMC,003418.000,A,3356.0556,N,11726.6046,W,0.42,54.47,101217,,,A*40
16 35 10.329396253
16 35 10.432763521 55
16 35 10.537503780 $GPGGA,003440.000,3356.0539,N,11726.6077,W,1,03,3.37,183.1,M,-33.1,M,,*57
16 35 11.014064405
16 35 11.129675586 $GPGSA,A,2,26,23,16,,,,,,,,,,3.51,3.37,1.00*00
16 35 11.269884593
16 35 11.374685851 $GPRMC,003440.000,A,3356.0539,N,11726.6077,W,0.32,169.53,101217,,,A*7B
16 35 11.480434103
16 35 11.583686371 $GPVTG,169.53,T,,M,0.32,N,0.59,K,A*38
16 35 11.701569537
16 35 11.807706785 $GPGGA,003420.000,3356.0554,N,11726.6046,W,1,03,3.35,183.1,M,-33.1,M,,*5A
16 35 12.280724436 $GPGGA,003439.000,3356.0541,N,11726.6077,W,1,03,3.36,183.1,M,-33.1,M,,*57
16 35 12.387441680 $GPGSA,A,2,26,23,16,,,,,,,,,,3.50,3.36,1.00*00
16 35 12.494706920 ,3.36,183.1,M,-33.1,M,,*57
16 35 12.601430165 $GPRMC,003439.000,A,3356.0541,N,11726.6077,W,0.30,179.70,101217,,,A*78
16 35 12.711112388 57
16 35 12.815533649 $GPVTG,179.70,T,,M,0.30,N,0.55,K,A*36
16 35 12.922461892 6077,W,0.30,179.70,101217,,,A*78
16 35 13.054150959 57
16 35 13.158585220 $GPGGA,003450.000,3356.0542,N,11726.6061,W,1,03,3.37,183.1,M,-33.1,M,,*5D
16 35 13.608346035
16 35 13.716295270 $GPGSA,A,2,26,23,16,,,,,,,,,,3.52,3.37,1.00*03
16 35 13.821931522
16 35 13.925690788 $GPRMC,003450.000,A,3356.0542,N,11726.6061,W,0.42,75.20,101217,,,A*4E
16 35 14.031693037
16 35 14.157867144 $GPVTG,75.20,T,,M,0.42,N,0.78,K,A*04
16 35 14.263280397
16 35 14.367175661 $GPGGA,003435.000,3356.0546,N,11726.6071,W,1,03,3.36,183.1,M,-33.1,M,,*5A
16 35 14.816309481 $GPGSA,A,2,26,23,16,,,,,,,,,,3.50,3.36,1.00*00
16 35 14.922903726 ,3.36,183.1,M,-33.1,M,,*5A
16 35 15.029180974 $GPRMC,003435.000,A,3356.0546,N,11726.6071,W,0.27,176.40,101217,,,A*7F
16 35 15.162447030 @ëÏ÷$GPVTG,176.40,T,,M,0.27,N,0.50,K,A*39
16 35 15.269744270 6071,W,0.27,176.40,101217,,,A*7F
16 35 15.376425515 @ëÏ÷$GPGGA,003451.000,3356.0543,N,11726.6058,W,1,03,3.37,183.1,M,-33.1,M,,*57
16 35 15.483319758
16 35 15.586507027 $GPGSA,A,2,26,23,16,,,,,,,,,,3.51,3.37,1.00*00
16 35 15.692368278
16 35 15.796212542 $GPRMC,003451.000,A,3356.0543,N,11726.6058,W,0.52,71.91,101217,,,A*4B
16 35 15.905401769
16 35 16.008875036 $GPVTG,71.91,T,,M,0.52,N,0.97,K,A*0A
16 35 16.114216291
16 35 16.240574396 $GPGGA,003424.000,3356.0551,N,11726.6050,W,1,03,3.36,183.1,M,-33.1,M,,*5F
16 35 16.704291112 $GPGSA,A,2,26,23,16,,,,,,,,,,3.50,3.36,1.00*00
16 35 16.810904357 ,3.36,183.1,M,-33.1,M,,*5F
16 35 16.916883607 $GPGGA,003452.000,3356.0542,N,11726.6059,W,1,03,3.36,183.1,M,-33.1,M,,*55
16 35 17.391785244
16 35 17.495007513 $GPGSA,A,2,26,23,16,,,,,,,,,,3.51,3.36,1.00*01
16 35 17.603483745
16 35 17.707232010 $GPGSV,1,1,04,23,65,347,24,16,56,089,31,26,35,053,30,09,,,17*46
16 35 17.812638264
16 35 17.919116510 $GPRMC,003452.000,A,3356.0542,N,11726.6059,W,0.44,79.44,101217,,,A*4F
16 35 18.024603763
16 35 18.140621941 $GPVTG,79.44,T,,M,0.44,N,0.82,K,A*09
16 35 18.320039671
16 35 18.423778936 $GPGGA,003426.000,3356.0548,N,11726.6050,W,1,03,3.36,183.1,M,-33.1,M,,*55
16 35 18.873576751 $GPGSA,A,2,26,23,16,,,,,,,,,,3.50,3.36,1.00*00
16 35 18.979987998 ,3.36,183.1,M,-33.1,M,,*55
16 35 19.094082190 $GPRMC,003426.000,A,3356.0548,N,11726.6050,W,0.40,136.89,101217,,,A*70
16 35 19.201879427 $GPRMC,003444.000,A,3356.0539,N,11726.6074,W,0.20,126.57,101217,,,A*70
16 35 19.320238589 $GPVTG,126.57,T,,M,0.20,N,0.38,K,A*33
16 35 19.440795735 6074,W,0.20,126.57,101217,,,A*70
16 35 19.547529979 $GPGSA,A,2,26,23,16,,,,,,,,,,3.50,3.36,1.00*00
16 35 19.677129061 3439.000,3356.0541,N,11726.6077,W,1,03,3.36,183.1,M,-33.1,M,,*57
16 35 19.826897001 v ä£’!ïQÁ$GPGGA,003512.000,3356.0523,N,11726.6053,W,1,03,3.38,183.1,M,-33.1,M,,*53
16 35 19.933630245
16 35 20.037477510 $GPGSA,A,2,26,23,16,,,,,,,,,,3.52,3.38,1.00*0C
16 35 20.143030762
16 35 20.246667028 $GPGSV,1,1,04,23,65,348,24,16,56,089,32,26,35,052,31,09,,,15*48
16 35 20.363201203
16 35 20.478284388 $GPRMC,003512.000,A,3356.0523,N,11726.6053,W,0.74,42.75,101217,,,A*4E
16 35 20.584000640
16 35 20.687847904 $GPVTG,42.75,T,,M,0.74,N,1.37,K,A*0F
16 35 20.793742155
16 35 20.897678419 $GPRMC,003439.000,A,3356.0541,N,11726.6077,W,0.30,179.70,101217,,,A*78
16 35 21.003925666 $GPVTG,179.70,T,,M,0.30,N,0.55,K,A*36
16 35 21.110906909 6077,W,0.30,179.70,101217,,,A*78
16 35 21.222017122 $GPGGA,003450.000,3356.0542,N,11726.6061,W,1,03,3.37,183.1,M,-33.1,M,,*5D
16 35 21.705274700 $GPGSA,A,2,26,23,16,,,,,,,,,,3.52,3.37,1.00*03
16 35 21.824680855 ,3.37,183.1,M,-33.1,M,,*5D
16 35 21.981419745 $GPGGA,003512.207,3356.0525,N,11726.6053,W,1,03,3.38,183.1,M,-33.1,M,,*50
16 35 22.431278559
16 35 22.556669671 $GPGSA,A,2,26,23,16,,,,,,,,,,3.52,3.38,1.00*0C
16 35 22.666239895
16 35 22.769533164 $GPRMC,003512.207,A,3356.0525,N,11726.6053,W,0.73,37.92,101217,,,A*41
16 35 22.875435414
16 35 22.978994681 $GPVTG,37.92,T,,M,0.73,N,1.36,K,A*02
16 35 23.084057937
16 35 23.190668182 $GPRMC,003450.000,A,3356.0542,N,11726.6061,W,0.42,75.20,101217,,,A*4E
16 35 23.298681417 $GPVTG,75.20,T,,M,0.42,N,0.78,K,A*04
16 35 23.405323662 .6061,W,0.42,75.20,101217,,,A*4E
16 35 23.534246749 $GPGGA,003435.000,3356.0546,N,11726.6071,W,1,03,3.36,183.1,M,-33.1,M,,*5A
16 35 23.991522511 $GPGSA,A,2,26,23,16,,,,,,,,,,3.50,3.36,1.00*00
16 35 24.098688752 ,3.36,183.1,M,-33.1,M,,*5A
16 35 24.209476968 $GPRMC,003435.000,A,3356.0546,N,11726.6071,W,0.27,176.40,101217,,,A*7F
16 35 24.315544217 5A
16 35 24.438264348 $GPVTG,176.40,T,,M,0.27,N,0.50,K,A*39
16 35 24.675169670 6071,W,0.27,176.40,101217,,,A*7F
16 35 24.781903914 5A
16 35 24.886610173 $GPGGA,003451.000,3356.0543,N,11726.6058,W,1,03,3.37,183.1,M,-33.1,M,,*57
16 35 25.336158990 $GPGSA,A,2,26,23,16,,,,,,,,,,3.51,3.37,1.00*00
16 35 25.442075240 ,3.37,183.1,M,-33.1,M,,*57
16 35 25.548113489 $GPRMC,003451.000,A,3356.0543,N,11726.6058,W,0.52,71.91,101217,,,A*4B
16 35 25.673282602 *57
16 35 25.791183768 $GPRMC,003453.000,A,3356.0542,N,11726.6055,W,0.56,82.39,101217,,,A*4F
16 35 25.897877012 $GPVTG,82.39,T,,M,0.56,N,1.04,K,A*0B
16 35 26.004819255 .6055,W,0.56,82.39,101217,,,A*4F
16 35 26.111854497 $GPGGA,003514.000,3356.0529,N,11726.6052,W,1,03,3.38,183.1,M,-33.1,M,,*5E
16 35 26.563493299 $GPGSA,A,2,26,23,16,,,,,,,,,,3.52,3.38,1.00*0C
16 35 26.670286543 ,3.38,183.1,M,-33.1,M,,*5E
16 35 26.805748583 $GPRMC,003514.000,A,3356.0529,N,11726.6052,W,0.68,37.62,101217,,,A*4A
16 35 26.912341829 *5E
16 35 27.018582076 $GPVTG,37.62,T,,M,0.68,N,1.27,K,A*07
16 35 27.125145322 .6052,W,0.68,37.62,101217,,,A*4A
16 35 27.235848538 *5E
16 35 27.342702781 $GPRMC,003424.000,A,3356.0551,N,11726.6050,W,0.24,118.82,101217,,,A*7F
16 35 27.449326026 5E
