13 29 19.551626885 $GPGGA,212919.000,3401.8691,N,11725.0156,W,1,07,1.34,201.7,M,-32.8,M,,*5D
13 29 20.071365599
13 29 20.186240431 $GPGSA,A,3,01,31,11,32,22,10,14,,,,,,2.78,1.34,2.44*0D
13 29 20.303481239
13 29 20.416838086 $GPRMC,212919.000,A,3401.8691,N,11725.0156,W,1.37,346.12,041217,,,A*78
13 29 20.533826896
13 29 20.648369731 $GPVTG,346.12,T,,M,1.37,N,2.53,K,A*3E
13 29 20.765054544
13 29 20.879186384 $GPGGA,212919.000,3401.8691,N,11725.0156,W,1,07,1.34,201.7,M,-32.8,M,,*5D
13 29 21.518223884 ∫dÈ?˙‰π4H$GPGSA,A,3,01,31,11,32,22,10,14,,,,,,2.78,1.34,2.44*0D
13 29 21.686590172 ∫dÈ?˙‰π4H$GPVTG,346.12,T,,M,1.37,N,2.53,K,A*3E
13 29 21.813016886 ∫dÈ?˙‰π4H$GPGGA,212921.000,3401.8708,N,11725.0153,W,1,06,1.35,201.7,M,-32.8,M,,*52
13 29 21.930766689
13 29 22.045641521 $GPGSA,A,3,31,11,32,22,10,14,,,,,,,1.64,1.35,0.93*0B
13 29 22.162008337
13 29 22.276859169 $GPRMC,212921.000,A,3401.8708,N,11725.0153,W,1.35,347.76,041217,,,A*76
13 29 22.394077977
13 29 22.508584812 $GPVTG,347.76,T,,M,1.35,N,2.51,K,A*3D
13 29 22.629913578
13 29 22.744842410 $GPRMC,212920.000,A,3401.8699,N,11725.0155,W,1.32,343.48,041217,,,A*76^Z∫dÈ?˙‰π^H4H$GPVTG,343.48,T,,M,1.32,N,2.44,K,A*37
13 29 22.864081197 .81,1.37,2.45*08
13 29 22.983476983 $GPRMC,212919.000,A,3401.8691,N,11725.0156,W,1.37,346.12,041217,,,A*78
13 29 23.101970778 dÈ?˙‰π^H4H$GPGSA,A,3,01,31,11,32,22,10,14,,,,,,2.78,1.34,2.44*0D
13 29 23.220027577 8
13 29 23.335188406 $GPVTG,346.12,T,,M,1.37,N,2.53,K,A*3E
13 29 23.480616927 $GPRMC,212919.000,A,3401.8691,N,11725.0156,W,1.37,346.12,041217,,,A*78
13 29 23.599241720 $GPGSA,A,3,01,31,11,32,22,10,14,,,,,,2.78,1.34,2.44*0D
13 29 23.725059441 $GPVTG,346.12,T,,M,1.37,N,2.53,K,A*3E
13 29 23.885545809 $GPGSA,A,3,01,31,11,32,22,10,14,,,,,,2.78,1.34,2.44*0D
13 29 24.050011136 $GPGGA,212921.000,3401.8708,N,11725.0153,W,1,06,1.35,201.7,M,-32.8,M,,*52
13 29 24.599772545 $GPRMC,212921.000,A,3401.8708,N,11725.0153,W,1.35,347.76,041217,,,A*76
13 29 24.717854344 $GPGSA,A,3,01,31,11,32,22,10,14,,,,,,2.78,1.34,2.44*0D
13 29 24.843649065 $GPVTG,347.76,T,,M,1.35,N,2.51,K,A*3D
13 29 25.003858435 $GPGSA,A,3,01,31,11,32,22,10,14,,,,,,2.78,1.34,2.44*0D
13 29 25.163828808 $GPGGA,212923.000,3401.8722,N,11725.0148,W,1,07,1.34,201.6,M,-32.8,M,,*53
13 29 25.668261678
13 29 25.783579505 $GPGSA,A,3,31,11,32,22,10,14,01,,,,,,2.79,1.34,2.44*0C
13 29 25.900927312
13 29 26.016266139 $GPGSV,4,1,13,31,69,123,19,14,56,031,28,01,48,294,25,22,42,314,23*71
13 29 26.134570936 $GPRMC,212919.000,A,3401.8691,N,11725.0156,W,1.37,346.12,041217,,,A*78
13 29 26.252271739 $GPVTG,343.48,T,,M,1.32,N,2.44,K,A*37
13 29 26.374015501 $GPGSA,A,3,01,31,11,32,22,10,14,,,,,,2.78,1.34,2.44*0D
13 29 26.491695304 $GPVTG,343.48,T,,M,1.32,N,2.44,K,A*37
13 29 26.634322853 $GPVTG,346.12,T,,M,1.37,N,2.53,K,A*3E
13 29 26.769673477 $GPVTG,343.48,T,,M,1.32,N,2.44,K,A*37
13 29 26.930249844 $GPGSA,A,3,01,31,11,32,22,10,14,,,,,,2.78,1.34,2.44*0D
13 29 27.061392510 $GPVTG,343.48,T,,M,1.32,N,2.44,K,A*37
13 29 27.232656768 $GPGGA,212924.000,3401.8735,N,11725.0144,W,1,07,1.34,201.5,M,-32.8,M,,*5D
13 29 27.737178637
13 29 27.853247457 $GPGSA,A,3,31,11,32,22,10,14,01,,,,,,2.78,1.34,2.44*0D
13 29 27.970781261
13 29 28.086079089 $GPRMC,212924.000,A,3401.8735,N,11725.0144,W,1.27,354.17,041217,,,A*7D
13 29 28.203921890
13 29 28.318450725 $GPVTG,354.17,T,,M,1.27,N,2.34,K,A*38
13 29 28.435663533
13 29 28.555952310 $GPGGA,212921.000,3401.8708,N,11725.0153,W,1,06,1.35,201.7,M,-32.8,M,,*52
13 29 29.060749176 $GPVTG,343.48,T,,M,1.32,N,2.44,K,A*37
13 29 29.179138972 53,W,1,06,1.35,201.7,M,-32.8,M,,*52
13 29 29.296727776 $GPGSA,A,3,01,31,11,32,22,10,14,,,,,,2.78,1.34,2.44*0D
13 29 29.415361570 1.7,M,-32.8,M,,*52
13 29 29.533145372 $GPVTG,343.48,T,,M,1.32,N,2.44,K,A*37
13 29 29.649970184 .78,1.34,2.44*0D
13 29 29.767270991 1.7,M,-32.8,M,,*52
13 29 29.884801796 $GPGSA,A,3,31,11,32,22,10,14,,,,,,,1.64,1.35,0.93*0B
13 29 30.002907594 D
13 29 30.125167351 1.7,M,-32.8,M,,*52
13 29 30.302114551 $GPRMC,212919.000,A,3401.8691,N,11725.0156,W,1.37,346.12,041217,,,A*78
13 29 30.419078362 $GPVTG,343.48,T,,M,1.32,N,2.44,K,A*37
13 29 30.552314007 $GPVTG,343.48,T,,M,1.32,N,2.44,K,A*37
13 29 30.696010545 $GPVTG,343.48,T,,M,1.32,N,2.44,K,A*37
13 29 30.856325915 $GPGSA,A,3,01,31,11,32,22,10,14,,,,,,2.78,1.34,2.44*0D
13 29 30.974156717 $GPVTG,343.48,T,,M,1.32,N,2.44,K,A*37
13 29 31.119806235 $GPVTG,343.48,T,,M,1.32,N,2.44,K,A*37
13 29 31.260100809 $GPVTG,343.48,T,,M,1.32,N,2.44,K,A*37
13 29 31.377362616 .78,1.34,2.44*0D
13 29 31.494406426 2,041217,,,A*78
13 29 31.616412185 Z∫dÈ?˙‰π^H4H$GPVTG,34 $GPVTG,346.12,T,,M,1.37,N,2.53,K,A*3E
13 29 31.734547983 .78,1.34,2.44*0D
13 29 31.853301776 2,041217,,,A*78
13 29 31.970704582 Z∫dÈ?˙‰π^H4H$GPVTG,34 $GPVTG,343.48,T,,M,1.32,N,2.44,K,A*37
13 29 32.089275376 .78,1.34,2.44*0D
13 29 32.207169177 2,041217,,,A*78
13 29 32.324608982 Z∫dÈ?˙‰π^H4H$GPVTG,34 $GPVTG,343.48,T,,M,1.32,N,2.44,K,A*37
13 29 32.442552783 .78,1.34,2.44*0D
13 29 32.560317585 2,041217,,,A*78
13 29 32.677720391 Z∫dÈ?˙‰π^H4H$GPVTG,34 $GPVTG,343.48,T,,M,1.32,N,2.44,K,A*37
13 29 32.799880149 .78,1.34,2.44*0D
13 29 32.917390954 2,041217,,,A*78
13 29 33.035752750 Z∫dÈ?˙‰π^H4H$GPVTG,34 $GPGSA,A,3,01,31,11,32,22,10,14,,,,,,2.78,1.34,2.44*0D
13 29 33.158679500 2,041217,,,A*78
13 29 33.277185295 Z∫dÈ?˙‰π^H4H$GPVTG,34 $GPVTG,343.48,T,,M,1.32,N,2.44,K,A*37
13 29 33.394909097 .78,1.34,2.44*0D
13 29 33.512290904 2,041217,,,A*78
13 29 33.630192705 Z∫dÈ?˙‰π^H4H$GPVTG,34 $GPGGA,212927.000,3401.8756,N,11725.0144,W,1,07,1.32,201.6,M,-32.8,M,,*5E
13 29 33.747635510
13 29 33.862241345 $GPGSA,A,3,01,31,11,32,22,10,14,,,,,,1.61,1.32,0.93*08
13 29 33.979539152
13 29 34.094318984 $GPRMC,212927.000,A,3401.8756,N,11725.0144,W,1.23,355.88,041217,,,A*78
13 29 34.213222775
13 29 34.328089607 $GPVTG,355.88,T,,M,1.23,N,2.28,K,A*36
13 29 34.445399414
13 29 34.564366204 $GPVTG,343.48,T,,M,1.32,N,2.44,K,A*37
13 29 34.682191006 ˇˇˇˇˇˇˇˇˇˇˇˇˇˇˇˇˇˇˇˇˇˇˇˇ$GPVTG,343.48,T,,M,1.32,N,2.44,K,A*37
13 29 34.802715780 ˇˇˇˇˇˇˇˇˇˇˇˇˇˇˇˇˇˇˇˇˇˇˇˇ$GPGGA,212924.000,3401.8735,N,11725.0144,W,1,07,1.34,201.5,M,-32.8,M,,*5D
13 29 34.922300564 $GPGSA,A,3,31,11,32,22,10,14,01,,,,,,2.78,1.34,2.44*0D
13 29 35.042011346 1.5,M,-32.8,M,,*5D
13 29 35.159996146 $GPRMC,212924.000,A,3401.8735,N,11725.0144,W,1.27,354.17,041217,,,A*7D
13 29 35.277427952 5D
13 29 35.392086786 $GPVTG,354.17,T,,M,1.27,N,2.34,K,A*38
13 29 35.510223584 0144,W,1.27,354.17,041217,,,A*7D
13 29 35.626736399 5D
13 29 35.742063227 $GPGGA,212921.000,3401.8708,N,11725.0153,W,1,06,1.35,201.7,M,-32.8,M,,*52
13 29 36.248152080 $GPVTG,343.48,T,,M,1.32,N,2.44,K,A*37
13 29 36.367111870 53,W,1,06,1.35,201.7,M,-32.8,M,,*52
13 29 36.484245679 $GPGSA,A,3,01,31,11,32,22,10,14,,,,,,2.78,1.34,2.44*0D
13 29 36.602708474 1.7,M,-32.8,M,,*52
13 29 36.720168279 $GPVTG,343.48,T,,M,1.32,N,2.44,K,A*37
13 29 36.867580780 A6.12,041217,,,A*∫000,A,3401.8691,N,11725.0156,W,1.37,346.12,041217,,,A*78
13 29 37.567739659 $GPGGA,212937.000,3401.8741,N,11725.0111,W,1,07,1.32,202.6,M,-32.8,M,,*5A
13 29 38.103340212
13 29 38.218786038 $GPGSA,A,3,01,31,11,32,22,10,14,,,,,,1.61,1.32,0.93*08
13 29 38.335764848
13 29 38.450038686 $GPRMC,212937.000,A,3401.8741,N,11725.0111,W,1.37,180.47,041217,,,A*73
13 29 38.567346493
13 29 38.681479332 $GPVTG,180.47,T,,M,1.37,N,2.53,K,A*36
13 29 38.798240145
13 29 38.912671981 $GPGGA,212937.000,3401.8741,N,11725.0111,W,1,07,1.32,202.6,M,-32.8,M,,*5A
13 29 39.421630805 $GPGSA,A,3,01,31,11,32,22,10,14,,,,,,1.61,1.32,0.93*08
13 29 39.539943602 2.6,M,-32.8,M,,*5A
13 29 39.657783403 $GPRMC,212937.000,A,3401.8741,N,11725.0111,W,1.37,180.47,041217,,,A*73
13 29 39.775639205 5A
13 29 39.891210029 $GPVTG,180.47,T,,M,1.37,N,2.53,K,A*36
13 29 40.009234829 0111,W,1.37,180.47,041217,,,A*73
13 29 40.126142640 5A
13 29 40.242041461 $GPGGA,212937.000,3401.8741,N,11725.0111,W,1,07,1.32,202.6,M,-32.8,M,,*5A
13 29 40.748145314 $GPGSA,A,3,01,31,11,32,22,10,14,,,,,,1.61,1.32,0.93*08
13 29 40.866654109 2.6,M,-32.8,M,,*5A
13 29 40.985032905 $GPRMC,212937.000,A,3401.8741,N,11725.0111,W,1.37,180.47,041217,,,A*73
13 29 41.102691708 5A
13 29 41.217673539 $GPVTG,180.47,T,,M,1.37,N,2.53,K,A*36
13 29 41.335238343 0111,W,1.37,180.47,041217,,,A*73
13 29 41.453564140 5A
13 29 41.569545961 $GPGGA,212938.000,3401.8738,N,11725.0111,W,1,07,1.32,202.9,M,-32.8,M,,*54
13 29 42.075787812
13 29 42.190706643 $GPGSA,A,3,01,31,11,32,22,10,14,,,,,,1.61,1.32,0.93*08
13 29 42.307558455
13 29 42.422523286 $GPGSV,4,1,13,31,69,123,21,14,56,031,27,01,48,294,26,22,42,314,23*76
13 29 42.539932092
13 29 42.655467917 $GPGSV,4,2,13,32,38,048,28,11,36,263,28,10,23,109,21,03,21,308,20*7B
13 29 42.772796723
13 29 42.888351548 $GPGSV,4,3,13,25,11,065,21,23,08,256,20,26,07,152,,08,02,225,*7B
13 29 43.005838353
13 29 43.120913183 $GPGSV,4,4,13,36,,,*7E
13 29 43.237181000
13 29 43.352447828 $GPRMC,212938.000,A,3401.8738,N,11725.0111,W,0.96,127.24,041217,,,A*70
13 29 43.468776645
13 29 43.587509438 $GPVTG,127.24,T,,M,0.96,N,1.78,K,A*3E
13 29 43.704051252
13 29 43.818872085 $GPGGA,212937.000,3401.8741,N,11725.0111,W,1,07,1.32,202.6,M,-32.8,M,,*5A
13 29 44.318501003 $GPGSA,A,3,01,31,11,32,22,10,14,,,,,,1.61,1.32,0.93*08
13 29 44.435781811 2.6,M,-32.8,M,,*5A
13 29 44.554222606 $GPRMC,212937.000,A,3401.8741,N,11725.0111,W,1.37,180.47,041217,,,A*73
13 29 44.670721421 5A
13 29 44.785487254 $GPVTG,180.47,T,,M,1.37,N,2.53,K,A*36
13 29 44.902338066 0111,W,1.37,180.47,041217,,,A*73
13 29 45.018673883 5A
13 29 45.138725662 $GPGGA,212938.000,3401.8738,N,11725.0111,W,1,07,1.32,202.9,M,-32.8,M,,*54
13 29 45.637667587 $GPGSA,A,3,01,31,11,32,22,10,14,,,,,,1.61,1.32,0.93*08
13 29 45.755255391 $GPGSV,4,1,13,31,69,123,21,14,56,031,27,01,48,294,26,22,42,314,23*76
13 29 45.873402190 ï=î?äæ?$GPGSV,4,2,13,32,38,048,28,11,36,263,28,10,23,109,21,03,21,308,20*7B
13 29 45.992856975 ï=î?äæ?$GPGSV,4,3,13,25,11,065,21,23,08,256,20,26,07,152,,08,02,225,*7B
13 29 46.110089783 *7B
13 29 46.226688597 ï=î?äæ?$GPGSV,4,4,13,36,,,*7E
13 29 46.344233401 ,21,23,08,256,20,26,07,152,,08,02,225,*7B
13 29 46.461773206 *7B
13 29 46.583765965 ï=î?äæ?$GPRMC,212938.000,A,3401.8738,N,11725.0111,W,0.96,127.24,041217,,,A*70
13 29 46.701582767 î?äæ?$GPVTG,127.24,T,,M,0.96,N,1.78,K,A*3E
13 29 46.821473548 0111,W,0.96,127.24,041217,,,A*70
13 29 46.939145351 î?äæ?$GPGGA,212937.000,3401.8741,N,11725.0111,W,1,07,1.32,202.6,M,-32.8,M,,*5A
13 29 47.058868134 æ?$GPGGA,212939.000,3401.8731,N,11725.0108,W,1,07,1.32,203.3,M,-32.8,M,,*5F
13 29 47.176384938
13 29 47.290663776 $GPGSA,A,3,01,31,11,32,22,10,14,,,,,,1.61,1.32,0.93*08
13 29 47.407376589
13 29 47.521685427 $GPRMC,212939.000,A,3401.8731,N,11725.0108,W,0.74,114.15,041217,,,A*7E
13 29 47.638309241
13 29 47.753043074 $GPVTG,114.15,T,,M,0.74,N,1.36,K,A*3A
13 29 47.869768887
13 29 47.983814727 $GPGSA,A,3,01,31,11,32,22,10,14,,,,,,1.61,1.32,0.93*08
13 29 48.106720477 ˇˇˇˇˇˇˇ$GPRMC,212937.000,A,3401.8741,N,11725.0111,W,1.37,180.47,041217,,,A*73
13 29 48.224762276 $GPVTG,180.47,T,,M,1.37,N,2.53,K,A*36
13 29 48.340604098 0111,W,1.37,180.47,041217,,,A*73
13 29 48.457912905 $GPGGA,212938.000,3401.8738,N,11725.0111,W,1,07,1.32,202.9,M,-32.8,M,,*54
13 29 48.957744822 $GPGSA,A,3,01,31,11,32,22,10,14,,,,,,1.61,1.32,0.93*08
13 29 49.075325626 2.9,M,-32.8,M,,*54
13 29 49.191950440 $GPGSV,4,1,13,31,69,123,21,14,56,031,27,01,48,294,26,22,42,314,23*76
13 29 49.308487255 ,*54
13 29 49.425465065 $GPGSV,4,2,13,32,38,048,28,11,36,263,28,10,23,109,21,03,21,308,20*7B
13 29 49.542843871 ,*54
13 29 49.667459604 $GPGSV,4,3,13,25,11,065,21,23,08,256,20,26,07,152,,08,02,225,*7B
13 29 49.789532362 *7B
13 29 49.905531183 ,*54
13 29 50.022287995 $GPGSV,4,4,13,36,,,*7E
13 29 50.142524772 ,21,23,08,256,20,26,07,152,,08,02,225,*7B
13 29 50.260597572 *7B
13 29 50.378913368 ,*54
13 29 50.516196972 $GPRMC,212938.000,A,3401.8738,N,11725.0111,W,0.96,127.24,041217,,,A*70
13 29 50.635889755 54
13 29 50.751118583 $GPVTG,127.24,T,,M,0.96,N,1.78,K,A*3E
13 29 50.868148393 0111,W,0.96,127.24,041217,,,A*70
13 29 50.984282212 54
13 29 51.102820006 $GPGGA,212937.000,3401.8741,N,11725.0111,W,1,07,1.32,202.6,M,-32.8,M,,*5A
13 29 51.598870961 $GPGGA,212940.000,3401.8731,N,11725.0107,W,1,07,1.32,203.6,M,-32.8,M,,*5B
13 29 52.094838917
13 29 52.208471762 $GPGSA,A,3,01,31,11,32,22,10,14,,,,,,1.61,1.32,0.93*08
13 29 52.324062586
13 29 52.438004427 $GPRMC,212940.000,A,3401.8731,N,11725.0107,W,0.33,144.47,041217,,,A*7E
13 29 52.555754230
13 29 52.674746019 $GPVTG,144.47,T,,M,0.33,N,0.62,K,A*3B
13 29 52.791605831
13 29 52.904694681 $GPGGA,212939.000,3401.8731,N,11725.0108,W,1,07,1.32,203.3,M,-32.8,M,,*5F
13 29 53.400312640 $GPGSA,A,3,01,31,11,32,22,10,14,,,,,,1.61,1.32,0.93*08
13 29 53.517725446 3.3,M,-32.8,M,,*5F
13 29 53.634791256 $GPRMC,212939.000,A,3401.8731,N,11725.0108,W,0.74,114.15,041217,,,A*7E
13 29 53.752255061 5F
13 29 53.867815886 $GPVTG,114.15,T,,M,0.74,N,1.36,K,A*3A
13 29 53.985565688 0108,W,0.74,114.15,041217,,,A*7E
13 29 54.106536458 5F
13 29 54.224994253 $GPGSA,A,3,01,31,11,32,22,10,14,,,,,,1.61,1.32,0.93*08
13 29 54.344404039 5,041217,,,A*7E
13 29 54.460932854 5F
13 29 54.576211681 $GPRMC,212937.000,A,3401.8741,N,11725.0111,W,1.37,180.47,041217,,,A*73
13 29 54.697096452 5F
13 29 54.812448279 $GPVTG,180.47,T,,M,1.37,N,2.53,K,A*36
13 29 54.929658087 0111,W,1.37,180.47,041217,,,A*73
13 29 55.047502888 5F
13 29 55.163846705 $GPGGA,212938.000,3401.8738,N,11725.0111,W,1,07,1.32,202.9,M,-32.8,M,,*54
13 29 55.669605561 ∫dÈ?˙‰π4H$GPGGA,212951.000,3401.8769,N,11725.0117,W,1,07,1.34,205.4,M,-32.8,M,,*55
13 29 55.787271365
13 29 55.901616202 $GPGSA,A,3,01,31,11,32,22,10,14,,,,,,2.78,1.34,2.43*0A
13 29 56.018843010
13 29 56.134157837 $GPRMC,212951.000,A,3401.8769,N,11725.0117,W,0.92,15.93,041217,,,A*45
13 29 56.251743641
13 29 56.366444475 $GPVTG,15.93,T,,M,0.92,N,1.71,K,A*0F
13 29 56.482995289
13 29 56.597597124 $GPGSV,4,4,13,38,,,*70
13 29 56.716375916 ˇˇˇˇˇˇˇˇˇˇˇˇˇˇˇˇˇˇˇˇˇˇˇˇˇˇˇˇˇˇˇˇˇˇˇˇˇˇˇ$GPRMC,212943.000,A,3401.8738,N,11725.0114,W,0.59,231.93,041217,,,A*72
13 29 56.840170657 $GPVTG,231.93,T,,M,0.59,N,1.10,K,A*3B
13 29 56.958091457 0114,W,0.59,231.93,041217,,,A*72
13 29 57.086844148 $GPGGA,212952.000,3401.8771,N,11725.0115,W,1,07,1.32,205.5,M,-32.8,M,,*5A
13 29 57.589422037
13 29 57.707752833 $GPGSA,A,3,01,31,11,32,22,10,14,,,,,,1.61,1.32,0.93*08
13 29 57.825093640
13 29 57.939918472 $GPRMC,212952.000,A,3401.8771,N,11725.0115,W,0.06,221.44,041217,,,A*7F
13 29 58.057528276
13 29 58.172390108 $GPVTG,221.44,T,,M,0.06,N,0.11,K,A*3A
13 29 58.289580916
13 29 58.404368749 $GPGGA,212940.000,3401.8731,N,11725.0107,W,1,07,1.32,203.6,M,-32.8,M,,*5B
13 29 58.912489581 $GPGSA,A,3,01,31,11,32,22,10,14,,,,,,1.61,1.32,0.93*08
13 29 59.032368362 3.6,M,-32.8,M,,*5B
13 29 59.152277142 $GPRMC,212940.000,A,3401.8731,N,11725.0107,W,0.33,144.47,041217,,,A*7E
13 29 59.271350931 5B
13 29 59.387692748 $GPVTG,144.47,T,,M,0.33,N,0.62,K,A*3B
13 29 59.505324552 0107,W,0.33,144.47,041217,,,A*7E
13 29 59.621492370 5B
13 29 59.738387182 $GPGGA,212953.000,3401.8773,N,11725.0119,W,1,07,1.32,205.6,M,-32.8,M,,*56
13 30 00.286112611
13 30 00.407111381 $GPGSA,A,3,01,31,11,32,22,10,14,,,,,,1.61,1.32,0.93*08
13 30 00.523882193
13 30 00.638711025 $GPGSV,4,1,13,31,69,122,19,14,56,031,28,01,48,293,27,22,42,314,24*72
13 30 00.755727835
13 30 00.870130672 $GPGSV,4,2,13,32,38,049,27,11,36,263,27,10,23,109,26,03,21,308,21*7C
13 30 00.986695486
13 30 01.134353984 $GPGSV,4,3,13,25,11,065,21,23,08,256,,26,07,152,,08,02,225,16*7E
13 30 01.252081787
13 30 01.366195627 $GPGSV,4,4,13,43,,,*7C
13 30 01.483895430
13 30 01.605464193 $GPRMC,212953.000,A,3401.8773,N,11725.0119,W,0.37,149.27,041217,,,A*7A
13 30 01.722410004
13 30 01.836706841 $GPVTG,149.27,T,,M,0.37,N,0.68,K,A*3E
13 30 01.952736661
13 30 02.067489494 $GPGGA,212939.000,3401.8731,N,11725.0108,W,1,07,1.32,203.3,M,-32.8,M,,*5F
13 30 02.607235005 $GPGSA,A,3,01,31,11,32,22,10,14,,,,,,1.61,1.32,0.93*08
13 30 02.731821738 3.3,M,-32.8,M,,*5F
13 30 02.849587540 $GPGGA,212954.000,3401.8779,N,11725.0123,W,1,07,1.32,205.6,M,-32.8,M,,*52
13 30 03.396545978
13 30 03.517669746 $GPGSA,A,3,01,31,11,32,22,10,14,,,,,,1.61,1.32,0.93*08
13 30 03.633843564
13 30 03.749077392 $GPRMC,212954.000,A,3401.8779,N,11725.0123,W,0.26,289.26,041217,,,A*70
13 30 03.865717206
13 30 03.980369040 $GPVTG,289.26,T,,M,0.26,N,0.49,K,A*33
13 30 04.097467849
13 30 04.212357681 $GPGGA,212944.000,3401.8743,N,11725.0117,W,1,06,1.64,204.7,M,-32.8,M,,*5F
13 30 04.761164099 $GPGSA,A,3,01,31,11,32,22,14,,,,,,,1.91,1.64,0.97*01
13 30 04.884956840 204.7,M,-32.8,M,,*5F
13 30 05.002217648 $GPRMC,212944.000,A,3401.8743,N,11725.0117,W,0.76,205.66,041217,,,A*7A
13 30 05.119240458 5F
13 30 05.232732304 $GPVTG,205.66,T,,M,0.76,N,1.40,K,A*3E
13 30 05.348980121 0117,W,0.76,205.66,041217,,,A*7A
13 30 05.465359938 5F
13 30 05.580607766 $GPGGA,212955.000,3401.8782,N,11725.0127,W,1,07,1.32,205.7,M,-32.8,M,,*52
13 30 06.118621294
13 30 06.238980070 $GPGSA,A,3,01,31,11,32,22,10,14,,,,,,1.61,1.32,0.93*08
13 30 06.354165898
13 30 06.468776733 $GPRMC,212955.000,A,3401.8782,N,11725.0127,W,0.37,287.73,041217,,,A*7F
13 30 06.586430536
13 30 06.700883372 $GPVTG,287.73,T,,M,0.37,N,0.69,K,A*3F
13 30 06.817120190
13 30 06.931419028 $GPGSA,A,3,01,31,11,32,22,10,14,,,,,,2.78,1.34,2.43*0A
13 30 07.049746824 1725.0117,W,1,07,1.34,205.4,M,-32.8,M,,*55
13 30 07.166326639 $GPRMC,212951.000,A,3401.8769,N,11725.0117,W,0.92,15.93,041217,,,A*45
13 30 07.282574456 7,1.34,205.4,M,-32.8,M,,*55
13 30 07.399019272 $GPVTG,15.93,T,,M,0.92,N,1.71,K,A*0F
13 30 07.516305079 .0117,W,0.92,15.93,041217,,,A*45
13 30 07.639025831 7,1.34,205.4,M,-32.8,M,,*55
13 30 07.756260639 $GPGSV,4,4,13,38,,,*70
13 30 07.873397448 N,1.71,K,A*0F
13 30 07.991471247 .0117,W,0.92,15.93,041217,,,A*45
13 30 08.107970062 7,1.34,205.4,M,-32.8,M,,*55
13 30 08.224124881 $GPRMC,212943.000,A,3401.8738,N,11725.0114,W,0.59,231.93,041217,,,A*72
13 30 08.340928693 ,1.34,205.4,M,-32.8,M,,*55
13 30 08.458072501 $GPVTG,231.93,T,,M,0.59,N,1.10,K,A*3B
13 30 08.576150301 0114,W,0.59,231.93,041217,,,A*72
13 30 08.693772104 ,1.34,205.4,M,-32.8,M,,*55
13 30 08.811846904 $GPGGA,212952.000,3401.8771,N,11725.0115,W,1,07,1.32,205.5,M,-32.8,M,,*5A
13 30 09.353234398 34,205.4,M,-32.8,M,,*55
13 30 09.478342125 $GPGSA,A,3,01,31,11,32,22,10,14,,,,,,1.61,1.32,0.93*08
13 30 09.596131927 5.5,M,-32.8,M,,*5A
13 30 09.712461744 34,205.4,M,-32.8,M,,*55
13 30 09.830822540 $GPRMC,212952.000,A,3401.8771,N,11725.0115,W,0.06,221.44,041217,,,A*7F
13 30 09.947127358 5A
13 30 10.060599204 34,205.4,M,-32.8,M,,*55
13 30 10.176489025 $GPVTG,221.44,T,,M,0.06,N,0.11,K,A*3A
13 30 10.292851842 0115,W,0.06,221.44,041217,,,A*7F
13 30 10.408187669 5A
13 30 10.522894502 34,205.4,M,-32.8,M,,*55
13 30 10.645370256 $GPGGA,212940.000,3401.8731,N,11725.0107,W,1,07,1.32,203.6,M,-32.8,M,,*5B
13 30 11.186245756 34,205.4,M,-32.8,M,,*55
13 30 11.304996548 $GPGGA,212956.000,3401.8782,N,11725.0128,W,1,07,1.32,205.8,M,-32.8,M,,*51
13 30 11.844816058
13 30 11.960589881 $GPGSA,A,3,01,31,11,32,22,10,14,,,,,,1.61,1.32,0.92*09
13 30 12.076401703
13 30 12.194641500 $GPRMC,212956.000,A,3401.8782,N,11725.0128,W,0.39,212.42,041217,,,A*73
13 30 12.309538332
13 30 12.422384184 $GPVTG,212.42,T,,M,0.39,N,0.73,K,A*34
13 30 12.539131997
13 30 12.653640832 $GPGSA,A,3,01,31,11,32,22,10,14,,,,,,1.61,1.32,0.93*08
13 30 12.772022628 ˇˇˇˇˇˇˇ$GPRMC,212940.000,A,3401.8731,N,11725.0107,W,0.33,144.47,041217,,,A*7E
13 30 12.890333425 $GPVTG,144.47,T,,M,0.33,N,0.62,K,A*3B
13 30 13.007825230 0107,W,0.33,144.47,041217,,,A*7E
13 30 13.125212036 $GPGGA,212953.000,3401.8773,N,11725.0119,W,1,07,1.32,205.6,M,-32.8,M,,*56
13 30 13.657969618 $GPGSA,A,3,01,31,11,32,22,10,14,,,,,,1.61,1.32,0.93*08
13 30 13.790210273 5.6,M,-32.8,M,,*56
13 30 13.907423081 $GPGSV,4,1,13,31,69,122,19,14,56,031,28,01,48,293,27,22,42,314,24*72
13 30 14.025614879 ,*56
13 30 14.142394691 $GPGSV,4,2,13,32,38,049,27,11,36,263,27,10,23,109,26,03,21,308,21*7C
13 30 14.258434511 ,*56
13 30 14.374188334 $GPGSV,4,3,13,25,11,065,21,23,08,256,,26,07,152,,08,02,225,16*7E
13 30 14.492099135 *7C
13 30 14.609111945 ,*56
13 30 14.725728759 $GPGSV,4,4,13,43,,,*7C
13 30 14.846986526 ,21,23,08,256,,26,07,152,,08,02,225,16*7E
13 30 14.963559340 *7C
13 30 15.080010156 ,*56
13 30 15.200625929 $GPRMC,212953.000,A,3401.8773,N,11725.0119,W,0.37,149.27,041217,,,A*7A
13 30 15.316760748 56
13 30 15.431129585 $GPVTG,149.27,T,,M,0.37,N,0.68,K,A*3E
13 30 15.548399392 0119,W,0.37,149.27,041217,,,A*7A
13 30 15.664365213 56
13 30 15.779088046 $GPGGA,212939.000,3401.8731,N,11725.0108,W,1,07,1.32,203.3,M,-32.8,M,,*5F
13 30 16.313166614 $GPGSA,A,3,01,31,11,32,22,10,14,,,,,,1.61,1.32,0.93*08
13 30 16.438187343 3.3,M,-32.8,M,,*5F
13 30 16.555977145 $GPGGA,212954.000,3401.8779,N,11725.0123,W,1,07,1.32,205.6,M,-32.8,M,,*52
13 30 17.099375619 $GPGGA,212957.000,3401.8782,N,11725.0128,W,1,07,1.32,205.8,M,-32.8,M,,*50
13 30 17.635133170
13 30 17.758047920 $GPGSA,A,3,01,31,11,32,22,10,14,,,,,,1.61,1.32,0.92*09
13 30 17.873676744
13 30 17.989183569 $GPRMC,212957.000,A,3401.8782,N,11725.0128,W,0.70,157.00,041217,,,A*7B
13 30 18.105297388
13 30 18.222624195 $GPVTG,157.00,T,,M,0.70,N,1.29,K,A*33
13 30 18.337758024
13 30 18.451591866 $GPGSA,A,3,01,31,11,32,22,10,14,,,,,,1.61,1.32,0.93*08
13 30 18.570005662 ˇˇˇˇˇˇˇ$GPRMC,212954.000,A,3401.8779,N,11725.0123,W,0.26,289.26,041217,,,A*70
13 30 18.688382458 $GPVTG,289.26,T,,M,0.26,N,0.49,K,A*33
13 30 18.806374258 0123,W,0.26,289.26,041217,,,A*70
13 30 18.924334059 $GPGGA,212944.000,3401.8743,N,11725.0117,W,1,06,1.64,204.7,M,-32.8,M,,*5F
13 30 19.461110599 $GPGSA,A,3,01,31,11,32,22,14,,,,,,,1.91,1.64,0.97*01
13 30 19.585356336 204.7,M,-32.8,M,,*5F
13 30 19.707860090 $GPRMC,212944.000,A,3401.8743,N,11725.0117,W,0.76,205.66,041217,,,A*7A
13 30 19.824893900 5F
13 30 19.941507714 $GPVTG,205.66,T,,M,0.76,N,1.40,K,A*3E
13 30 20.058266526 0117,W,0.76,205.66,041217,,,A*7A
13 30 20.173495354 5F
13 30 20.287774192 $GPGGA,212955.000,3401.8782,N,11725.0127,W,1,07,1.32,205.7,M,-32.8,M,,*52
13 30 20.825299726 $GPGSA,A,3,01,31,11,32,22,10,14,,,,,,1.61,1.32,0.93*08
13 30 20.949838459 5.7,M,-32.8,M,,*52
13 30 21.065781280 $GPRMC,212955.000,A,3401.8782,N,11725.0127,W,0.37,287.73,041217,,,A*7F
13 30 21.186261054 52
13 30 21.300165896 $GPVTG,287.73,T,,M,0.37,N,0.69,K,A*3F
13 30 21.417618702 0127,W,0.37,287.73,041217,,,A*7F
13 30 21.534008518 52
13 30 21.649274346 $GPGSA,A,3,01,31,11,32,22,10,14,,,,,,2.78,1.34,2.43*0A
13 30 21.766714151 3,041217,,,A*7F
13 30 21.882549973 52
13 30 21.997162808 $GPRMC,212951.000,A,3401.8769,N,11725.0117,W,0.92,15.93,041217,,,A*45
13 30 22.113269627
13 30 22.225688483 52
13 30 22.339314328 $GPVTG,15.93,T,,M,0.92,N,1.71,K,A*0F
13 30 22.456058141 .0117,W,0.92,15.93,041217,,,A*45
13 30 22.572505956
13 30 22.690677754 52
13 30 22.805960582 $GPGGA,212958.000,3401.8783,N,11725.0127,W,1,07,1.32,205.8,M,-32.8,M,,*51
13 30 23.341651134
13 30 23.458247948 $GPGSA,A,3,01,31,11,32,22,10,14,,,,,,1.61,1.32,0.92*09
13 30 23.574626765
13 30 23.689263599 $GPGSV,4,1,13,31,69,122,19,14,56,031,27,01,48,293,26,22,42,314,24*7C
13 30 23.806181410
13 30 23.920767244 $GPGSV,4,2,13,32,38,049,27,11,36,262,25,10,23,109,24,03,21,308,21*7D
13 30 24.037495057
13 30 24.155587856 $GPGSV,4,3,13,25,11,065,20,23,08,256,,26,07,152,,08,02,225,15*7C
13 30 24.271153681
13 30 24.384663526 $GPGSV,4,4,13,43,,,*7C
13 30 24.502274330
13 30 24.617143162 $GPRMC,212958.000,A,3401.8783,N,11725.0127,W,0.57,143.53,041217,,,A*7C
13 30 24.734123972
13 30 24.847933815 $GPVTG,143.53,T,,M,0.57,N,1.06,K,A*38
13 30 24.967669597
13 30 25.080637448 $GPGSV,4,4,13,38,,,*70
13 30 25.198024254 ˇˇˇˇˇˇˇˇˇˇˇˇˇˇˇˇˇˇˇˇˇˇˇˇˇˇˇˇˇˇˇˇˇˇˇˇˇˇˇ$GPRMC,212943.000,A,3401.8738,N,11725.0114,W,0.59,231.93,041217,,,A*72
13 30 25.316899045 $GPVTG,231.93,T,,M,0.59,N,1.10,K,A*3B
13 30 25.432969865 0114,W,0.59,231.93,041217,,,A*72
13 30 25.551241662 $GPGGA,212952.000,3401.8771,N,11725.0115,W,1,07,1.32,205.5,M,-32.8,M,,*5A
13 30 26.090248180 $GPGSA,A,3,01,31,11,32,22,10,14,,,,,,1.61,1.32,0.93*08
13 30 26.217671885 5.5,M,-32.8,M,,*5A
13 30 26.333719704 $GPRMC,212952.000,A,3401.8771,N,11725.0115,W,0.06,221.44,041217,,,A*7F
13 30 26.449473527 5A
13 30 26.565110351 $GPVTG,221.44,T,,M,0.06,N,0.11,K,A*3A
13 30 26.681990162 0115,W,0.06,221.44,041217,,,A*7F
13 30 26.799081972 5A
13 30 26.913513808 $GPGGA,212940.000,3401.8731,N,11725.0107,W,1,07,1.32,203.6,M,-32.8,M,,*5B
13 30 27.449560356 $GPGGA,212956.000,3401.8782,N,11725.0128,W,1,07,1.32,205.8,M,-32.8,M,,*51
13 30 27.999992758 $GPGGA,212959.000,3401.8785,N,11725.0130,W,1,07,1.32,206.0,M,-32.8,M,,*5B
13 30 28.546672198
13 30 28.669691947 $GPGSA,A,3,01,31,11,32,22,10,14,,,,,,1.61,1.32,0.93*08
13 30 28.786050764
13 30 28.900214603 $GPRMC,212959.000,A,3401.8785,N,11725.0130,W,0.26,142.61,041217,,,A*7B
13 30 29.017305412
13 30 29.130230264 $GPVTG,142.61,T,,M,0.26,N,0.48,K,A*35
13 30 29.245676089
13 30 29.359141935 $GPGSA,A,3,01,31,11,32,22,10,14,,,,,,1.61,1.32,0.92*09
13 30 29.477232734 ˇˇˇˇˇˇˇ$GPRMC,212956.000,A,3401.8782,N,11725.0128,W,0.39,212.42,041217,,,A*73
13 30 29.598708499 $GPVTG,212.42,T,,M,0.39,N,0.73,K,A*34
13 30 29.715953307 0128,W,0.39,212.42,041217,,,A*73
13 30 29.833415112 $GPGSA,A,3,01,31,11,32,22,10,14,,,,,,1.61,1.32,0.93*08
13 30 29.950825918 2,041217,,,A*73
13 30 30.080297601 $GPRMC,212940.000,A,3401.8731,N,11725.0107,W,0.33,144.47,041217,,,A*7E
13 30 30.201624367 $GPVTG,144.47,T,,M,0.33,N,0.62,K,A*3B
13 30 30.318515179 0107,W,0.33,144.47,041217,,,A*7E
13 30 30.434857995 $GPGGA,212953.000,3401.8773,N,11725.0119,W,1,07,1.32,205.6,M,-32.8,M,,*56
13 30 30.971821534 $GPGSA,A,3,01,31,11,32,22,10,14,,,,,,1.61,1.32,0.93*08
13 30 31.098473246 5.6,M,-32.8,M,,*56
13 30 31.214256069 $GPGSV,4,1,13,31,69,122,19,14,56,031,28,01,48,293,27,22,42,314,24*72
13 30 31.331022881 ,*56
13 30 31.447698695 $GPGSV,4,2,13,32,38,049,27,11,36,263,27,10,23,109,26,03,21,308,21*7C
13 30 31.565075501 ,*56
13 30 31.687357257 $GPGSV,4,3,13,25,11,065,21,23,08,256,,26,07,152,,08,02,225,16*7E
13 30 31.805214059 *7C
13 30 31.921812873 ,*56
13 30 32.039858672 $GPGSV,4,4,13,43,,,*7C
13 30 32.160477446 ,21,23,08,256,,26,07,152,,08,02,225,16*7E
13 30 32.276494266 *7C
13 30 32.392561085 ,*56
13 30 32.510248888 $GPRMC,212953.000,A,3401.8773,N,11725.0119,W,0.37,149.27,041217,,,A*7A
13 30 32.626889702 56
13 30 32.741900532 $GPVTG,149.27,T,,M,0.37,N,0.68,K,A*3E
13 30 32.859405337 0119,W,0.37,149.27,041217,,,A*7A
13 30 32.974589166 56
13 30 33.088922003 $GPGGA,213000.000,3401.8789,N,11725.0129,W,1,07,1.32,206.1,M,-32.8,M,,*5A
13 30 33.629318507
13 30 33.749066289 $GPGSA,A,3,01,31,11,32,22,10,14,,,,,,1.61,1.32,0.92*09
13 30 33.865793102
13 30 33.980754933 $GPRMC,213000.000,A,3401.8789,N,11725.0129,W,0.26,352.50,041217,,,A*7A
13 30 34.098659734
13 30 34.211730584 $GPVTG,352.50,T,,M,0.26,N,0.48,K,A*34
13 30 34.327319409
13 30 34.441700245 $GPGGA,212939.000,3401.8731,N,11725.0108,W,1,07,1.32,203.3,M,-32.8,M,,*5F
13 30 34.984843722 $GPGSA,A,3,01,31,11,32,22,10,14,,,,,,1.61,1.32,0.93*08
13 30 35.108255466 3.3,M,-32.8,M,,*5F
13 30 35.226175267 $GPGGA,212954.000,3401.8779,N,11725.0123,W,1,07,1.32,205.6,M,-32.8,M,,*52
13 30 35.764967788 $GPGGA,212957.000,3401.8782,N,11725.0128,W,1,07,1.32,205.8,M,-32.8,M,,*50
13 30 36.313249211 $GPGSA,A,3,01,31,11,32,22,10,14,,,,,,1.61,1.32,0.92*09
13 30 36.430790016 5.8,M,-32.8,M,,*50
13 30 36.548112823 $GPRMC,212957.000,A,3401.8782,N,11725.0128,W,0.70,157.00,041217,,,A*7B
13 30 36.665168632 50
13 30 36.780250462 $GPVTG,157.00,T,,M,0.70,N,1.29,K,A*33
13 30 36.897656268 0128,W,0.70,157.00,041217,,,A*7B
13 30 37.016180063 50
13 30 37.129869906 $GPGSA,A,3,01,31,11,32,22,10,14,,,,,,1.61,1.32,0.93*08
13 30 37.246375721 0,041217,,,A*7B
13 30 37.361071555 50
13 30 37.476258384 $GPRMC,212954.000,A,3401.8779,N,11725.0123,W,0.26,289.26,041217,,,A*70
13 30 37.593413192 50
13 30 37.713444971 $GPVTG,289.26,T,,M,0.26,N,0.49,K,A*33
13 30 37.831025776 0123,W,0.26,289.26,041217,,,A*70
13 30 37.947012596 50
13 30 38.061728429 $GPGGA,212944.000,3401.8743,N,11725.0117,W,1,06,1.64,204.7,M,-32.8,M,,*5F
13 30 38.593032026 $GPGSA,A,3,01,31,11,32,22,14,,,,,,,1.91,1.64,0.97*01
13 30 38.723904695 204.7,M,-32.8,M,,*5F
13 30 38.841332501 $GPGGA,213001.000,3401.8793,N,11725.0129,W,1,07,1.34,206.1,M,-32.8,M,,*56
13 30 39.378149041
13 30 39.502609775 $GPGSA,A,3,01,31,11,32,22,10,14,,,,,,2.78,1.34,2.43*0A
13 30 39.619523586
13 30 39.733506427 $GPRMC,213001.000,A,3401.8793,N,11725.0129,W,0.32,305.59,041217,,,A*7E
13 30 39.850053242
13 30 39.963262090 $GPVTG,305.59,T,,M,0.32,N,0.60,K,A*30
13 30 40.080473898
13 30 40.193983744 $GPRMC,212944.000,A,3401.8743,N,11725.0117,W,0.76,205.66,041217,,,A*7A
13 30 40.310807556 $GPVTG,205.66,T,,M,0.76,N,1.40,K,A*3E
13 30 40.426803376 0117,W,0.76,205.66,041217,,,A*7A
13 30 40.544701177 $GPGGA,212955.000,3401.8782,N,11725.0127,W,1,07,1.32,205.7,M,-32.8,M,,*52
13 30 41.085353679 Aø$GPGGA,213002.000,3401.8794,N,11725.0130,W,1,07,1.32,206.1,M,-32.8,M,,*5C
13 30 41.209069420
13 30 41.322204270 $GPGSA,A,3,01,31,11,32,22,10,14,,,,,,1.61,1.32,0.93*08
13 30 41.439857073
13 30 41.554088912 $GPRMC,213002.000,A,3401.8794,N,11725.0130,W,0.99,288.87,041217,,,A*74
13 30 41.670864724
13 30 41.785394559 $GPVTG,288.87,T,,M,0.99,N,1.83,K,A*3A
13 30 41.901205381
13 30 42.014106233 $GPGSA,A,3,01,31,11,32,22,10,14,,,,,,1.61,1.32,0.93*08
13 30 42.130446050 ˇˇˇˇˇˇˇ$GPRMC,212955.000,A,3401.8782,N,11725.0127,W,0.37,287.73,041217,,,A*7F
13 30 42.252451809 $GPVTG,287.73,T,,M,0.37,N,0.69,K,A*3F
13 30 42.368171632 0127,W,0.37,287.73,041217,,,A*7F
13 30 42.485093443 $GPGGA,213003.000,3401.8796,N,11725.0135,W,1,07,1.32,206.3,M,-32.8,M,,*58
13 30 43.021117992
13 30 43.143594746 $GPGSA,A,3,01,31,11,32,22,10,14,,,,,,1.61,1.32,0.92*09
13 30 43.259259570
13 30 43.372746416 $GPGSV,4,1,13,31,69,122,19,14,56,031,27,01,48,293,28,22,42,314,23*75
13 30 43.488644237
13 30 43.602934075 $GPGSV,4,2,13,32,38,049,27,11,36,262,25,10,23,109,23,03,21,308,22*79
13 30 43.725081832
13 30 43.839480669 $GPGSV,4,3,13,25,11,065,20,23,08,256,,26,07,152,,08,02,225,15*7C
13 30 43.956417480
13 30 44.071464310 $GPGSV,4,4,13,45,,,*7A
13 30 44.188203122
13 30 44.301826967 $GPRMC,213003.000,A,3401.8796,N,11725.0135,W,0.31,246.90,041217,,,A*74
13 30 44.418235783
13 30 44.532553620 $GPVTG,246.90,T,,M,0.31,N,0.57,K,A*34
13 30 44.649823428
13 30 44.765111255 $GPGSA,A,3,01,31,11,32,22,10,14,,,,,,2.78,1.34,2.43*0A
13 30 44.881953067 ˇˇˇˇˇˇˇ$GPRMC,212951.000,A,3401.8769,N,11725.0117,W,0.92,15.93,041217,,,A*45
13 30 45.000696859 $GPGGA,213004.000,3401.8795,N,11725.0139,W,1,07,1.32,206.4,M,-32.8,M,,*57
13 30 45.539752377
13 30 45.663348120 $GPGSA,A,3,01,31,11,32,22,10,14,,,,,,1.61,1.32,0.92*09
13 30 45.778894945
13 30 45.892153793 $GPRMC,213004.000,A,3401.8795,N,11725.0139,W,0.68,190.81,041217,,,A*78
13 30 46.008604609
13 30 46.121151464 $GPVTG,190.81,T,,M,0.68,N,1.26,K,A*37
13 30 46.236525291
13 30 46.349983137 $GPVTG,15.93,T,,M,0.92,N,1.71,K,A*0F
13 30 46.468064936 ˇˇˇˇˇˇˇˇˇˇˇˇˇˇˇˇˇˇˇˇˇˇˇˇˇ$GPGGA,212958.000,3401.8783,N,11725.0127,W,1,07,1.32,205.8,M,-32.8,M,,*51
13 30 46.587680719 $GPGGA,213005.000,3401.8795,N,11725.0141,W,1,07,1.32,206.5,M,-32.8,M,,*58
13 30 47.133831165
13 30 47.247589008 $GPGSA,A,3,01,31,11,32,22,10,14,,,,,,1.61,1.32,0.92*09
13 30 47.362575839
13 30 47.477770667 $GPRMC,213005.000,A,3401.8795,N,11725.0141,W,1.29,159.18,041217,,,A*77
13 30 47.594641479
13 30 47.709274313 $GPVTG,159.18,T,,M,1.29,N,2.38,K,A*3A
13 30 47.825148134
13 30 47.938521981 $GPGSA,A,3,01,31,11,32,22,10,14,,,,,,1.61,1.32,0.92*09
13 30 48.056198784 ˇˇˇˇˇˇˇ$GPGSV,4,1,13,31,69,122,19,14,56,031,27,01,48,293,26,22,42,314,24*7C
13 30 48.177884547 $GPGSV,4,2,13,32,38,049,27,11,36,262,25,10,23,109,24,03,21,308,21*7D
13 30 48.293995366 $GPGGA,213006.000,3401.8797,N,11725.0139,W,1,07,1.32,206.6,M,-32.8,M,,*55
13 30 48.830249912
13 30 48.952475669 $GPGSA,A,3,01,31,11,32,22,10,14,,,,,,1.61,1.32,0.93*08
13 30 49.069336481
13 30 49.183934315 $GPRMC,213006.000,A,3401.8797,N,11725.0139,W,0.96,151.57,041217,,,A*7F
13 30 49.302695108
13 30 49.416443951 $GPVTG,151.57,T,,M,0.96,N,1.77,K,A*34
13 30 49.532771768
13 30 49.647422602 $GPGSV,4,3,13,25,11,065,20,23,08,256,,26,07,152,,08,02,225,15*7C
13 30 49.771634338 $GPGSV,4,4,13,43,,,*7C
13 30 49.891977114 ,20,23,08,256,,26,07,152,,08,02,225,15*7C
13 30 50.009307921 $GPRMC,212958.000,A,3401.8783,N,11725.0127,W,0.57,143.53,041217,,,A*7C
13 30 50.129763696 $GPVTG,143.53,T,,M,0.57,N,1.06,K,A*38
13 30 50.248992484 0127,W,0.57,143.53,041217,,,A*7C
13 30 50.366078293 $GPGSV,4,4,13,38,,,*70
13 30 50.487143062 ,N,1.06,K,A*38
13 30 50.626943640 0127,W,0.57,143.53,041217,,,A*7C
13 30 50.745107438 $GPGGA,213007.000,3401.8801,N,11725.0138,W,1,07,1.32,206.7,M,-32.8,M,,*54
13 30 51.285067947
13 30 51.403994737 $GPGSA,A,3,01,31,11,32,22,10,14,,,,,,1.61,1.32,0.92*09
13 30 51.520671550
13 30 51.635415383 $GPRMC,213007.000,A,3401.8801,N,11725.0138,W,0.86,169.42,041217,,,A*71
13 30 51.752195196
13 30 51.870385994 $GPVTG,169.42,T,,M,0.86,N,1.60,K,A*3C
13 30 51.986879809 ∫dÈ?˙‰π4H$GPGGA,213021.000,3401.8843,N,11725.0159,W,1,07,1.31,208.2,M,-32.8,M,,*59
13 30 52.103758620
13 30 52.217329465 $GPGSA,A,3,01,31,11,32,22,10,14,,,,,,1.61,1.31,0.92*0A
13 30 52.332751292
13 30 52.446541134 $GPRMC,213021.000,A,3401.8843,N,11725.0159,W,0.23,240.94,041217,,,A*78
13 30 52.563746942
13 30 52.682749732 $GPVTG,240.94,T,,M,0.23,N,0.43,K,A*30
13 30 52.799568544
13 30 52.913877381 $GPVTG,305.59,T,,M,0.32,N,0.60,K,A*30
13 30 53.032451176 ˇˇˇˇˇˇˇˇˇˇˇˇˇˇˇˇˇˇˇˇˇˇˇˇ$GPRMC,212944.000,A,3401.8743,N,11725.0117,W,0.76,205.66,041217,,,A*7A
13 30 53.151793962 $GPVTG,205.66,T,,M,0.76,N,1.40,K,A*3E
13 30 53.269290767 0117,W,0.76,205.66,041217,,,A*7A
13 30 53.386536574 $GPGGA,212955.000,3401.8782,N,11725.0127,W,1,07,1.32,205.7,M,-32.8,M,,*52
13 30 53.927284075 $GPGGA,213022.000,3401.8843,N,11725.0160,W,1,07,1.31,208.3,M,-32.8,M,,*51
13 30 54.476758487
13 30 54.600511228 $GPGSA,A,3,01,31,11,32,22,10,14,,,,,,1.61,1.31,0.92*0A
13 30 54.718953024
13 30 54.833312861 $GPRMC,213022.000,A,3401.8843,N,11725.0160,W,0.06,263.75,041217,,,A*78
13 30 54.950311671
13 30 55.065313501 $GPVTG,263.75,T,,M,0.06,N,0.12,K,A*3D
13 30 55.182034314
13 30 55.296883146 $GPGGA,213002.000,3401.8794,N,11725.0130,W,1,07,1.32,206.1,M,-32.8,M,,*5C
13 30 55.845994561 $GPGSA,A,3,01,31,11,32,22,10,14,,,,,,1.61,1.32,0.93*08
13 30 55.969765303 6.1,M,-32.8,M,,*5C
13 30 56.087948101 $GPRMC,213002.000,A,3401.8794,N,11725.0130,W,0.99,288.87,041217,,,A*74
13 30 56.205428906 5C
13 30 56.320766733 $GPGGA,213023.000,3401.8843,N,11725.0160,W,1,07,1.31,208.3,M,-32.8,M,,*50
13 30 56.858202267
13 30 56.981946009 $GPGSA,A,3,01,31,11,32,22,10,14,,,,,,1.61,1.31,0.92*0A
13 30 57.099240816
13 30 57.218783600 $GPGSV,4,1,13,31,69,121,20,14,56,031,29,01,48,293,28,22,42,314,24*75
13 30 57.336011408
13 30 57.451403234 $GPGSV,4,2,13,32,38,049,27,11,36,262,24,10,23,109,25,03,21,309,21*7C
13 30 57.567979049
13 30 57.682262886 $GPGSV,4,3,13,25,11,065,21,23,08,257,18,26,07,151,,08,02,225,16*75
13 30 57.799195697
13 30 57.917129498 $GPGSV,4,4,13,49,,,*76
13 30 58.033450315
13 30 58.147881151 $GPRMC,213023.000,A,3401.8843,N,11725.0160,W,0.42,158.44,041217,,,A*70
13 30 58.264768962
13 30 58.379287798 $GPVTG,158.44,T,,M,0.42,N,0.77,K,A*37
13 30 58.496060610
13 30 58.610213449 $GPVTG,288.87,T,,M,0.99,N,1.83,K,A*3A
13 30 58.733278198 ˇˇˇˇˇˇˇˇˇˇˇˇˇˇˇˇˇˇˇˇˇˇˇˇ$GPGSA,A,3,01,31,11,32,22,10,14,,,,,,1.61,1.32,0.93*08
13 30 58.852862981 ˇˇˇˇˇˇˇ$GPRMC,212955.000,A,3401.8782,N,11725.0127,W,0.37,287.73,041217,,,A*7F
13 30 58.971624774 $GPGGA,213024.000,3401.8842,N,11725.0159,W,1,07,1.31,208.3,M,-32.8,M,,*5C
13 30 59.511943278
13 30 59.631261065 $GPGSA,A,3,01,31,11,32,22,10,14,,,,,,1.61,1.31,0.92*0A
13 30 59.748304875
13 30 59.862754711 $GPRMC,213024.000,A,3401.8842,N,11725.0159,W,0.55,203.98,041217,,,A*76
13 30 59.979498523
13 31 00.093969359 $GPVTG,203.98,T,,M,0.55,N,1.02,K,A*3E
13 31 00.215283125
13 31 00.329647962 $GPVTG,287.73,T,,M,0.37,N,0.69,K,A*3F
13 31 00.447549763 ˇˇˇˇˇˇˇˇˇˇˇˇˇˇˇˇˇˇˇˇˇˇˇˇ$GPGGA,213003.000,3401.8796,N,11725.0135,W,1,07,1.32,206.3,M,-32.8,M,,*58
13 31 00.567758541 $GPGSA,A,3,01,31,11,32,22,10,14,,,,,,1.61,1.32,0.92*09
13 31 00.685640342 6.3,M,-32.8,M,,*58
13 31 00.803073147 $GPGGA,213025.000,3401.8840,N,11725.0160,W,1,07,1.31,208.3,M,-32.8,M,,*55
13 31 01.366193420
13 31 01.493465126 $GPGSA,A,3,01,31,11,32,22,10,14,,,,,,1.61,1.31,0.92*0A
13 31 01.612423916
13 31 01.730923711 $GPRMC,213025.000,A,3401.8840,N,11725.0160,W,1.10,213.56,041217,,,A*7C
13 31 01.848151519
13 31 01.963948341 $GPVTG,213.56,T,,M,1.10,N,2.03,K,A*3F
13 31 02.080563155
13 31 02.195117990 $GPGSV,4,1,13,31,69,122,19,14,56,031,27,01,48,293,28,22,42,314,23*75
13 31 02.313086790 $GPGSV,4,2,13,32,38,049,27,11,36,262,25,10,23,109,23,03,21,308,22*79
13 31 02.430988591 $GPGSV,4,3,13,25,11,065,20,23,08,256,,26,07,152,,08,02,225,15*7C
13 31 02.548724394 *79
13 31 02.665952202 $GPGSV,4,4,13,45,,,*7A
13 31 02.783427007 ,20,23,08,256,,26,07,152,,08,02,225,15*7C
13 31 02.900452817 *79
13 31 03.017627625 $GPRMC,213003.000,A,3401.8796,N,11725.0135,W,0.31,246.90,041217,,,A*74
13 31 03.136468417 $GPGGA,213026.000,3401.8830,N,11725.0164,W,1,07,1.31,208.7,M,-32.8,M,,*51
13 31 03.679320896
13 31 03.799624672 $GPGSA,A,3,01,31,11,32,22,10,14,,,,,,1.61,1.31,0.92*0A
13 31 03.916053488
13 31 04.030987319 $GPRMC,213026.000,A,3401.8830,N,11725.0164,W,1.29,207.29,041217,,,A*7B
13 31 04.147972130
13 31 04.262551964 $GPVTG,207.29,T,,M,1.29,N,2.38,K,A*30
13 31 04.377810792
13 31 04.491924631 $GPVTG,246.90,T,,M,0.31,N,0.57,K,A*34
13 31 04.609503436 ˇˇˇˇˇˇˇˇˇˇˇˇˇˇˇˇˇˇˇˇˇˇˇˇ$GPGSA,A,3,01,31,11,32,22,10,14,,,,,,2.78,1.34,2.43*0A
13 31 04.734330166 ˇˇˇˇˇˇˇ$GPRMC,212951.000,A,3401.8769,N,11725.0117,W,0.92,15.93,041217,,,A*45
13 31 04.854860940 $GPGGA,213004.000,3401.8795,N,11725.0139,W,1,07,1.32,206.4,M,-32.8,M,,*57
13 31 05.387445524 $GPGGA,213027.000,3401.8827,N,11725.0165,W,1,06,1.59,209.1,M,-32.8,M,,*5F
13 31 05.937335932
13 31 06.055733727 $GPGSA,A,3,01,31,32,22,10,14,,,,,,,1.84,1.59,0.93*0E
13 31 06.170307562
13 31 06.288777357 $GPRMC,213027.000,A,3401.8827,N,11725.0165,W,0.20,173.50,041217,,,A*7B
13 31 06.404581180
13 31 06.518738019 $GPVTG,173.50,T,,M,0.20,N,0.38,K,A*34
13 31 06.635482831
13 31 06.749263674 $GPGSA,A,3,01,31,11,32,22,10,14,,,,,,1.61,1.32,0.92*09
13 31 06.867660470 ˇˇˇˇˇˇˇ$GPRMC,213004.000,A,3401.8795,N,11725.0139,W,0.68,190.81,041217,,,A*78
13 31 06.986540261 $GPVTG,190.81,T,,M,0.68,N,1.26,K,A*37
13 31 07.102691080 0139,W,0.68,190.81,041217,,,A*78
13 31 07.218390903 $GPGGA,213028.000,3401.8823,N,11725.0166,W,1,06,1.59,209.4,M,-32.8,M,,*52
13 31 07.760262392
13 31 07.881213162 $GPGSA,A,3,01,31,32,22,10,14,,,,,,,1.84,1.59,0.93*0E
13 31 07.996998985
13 31 08.110076835 $GPGSV,4,1,13,31,69,121,21,14,56,031,29,01,48,293,28,48,47,206,29*72
13 31 08.225518660
13 31 08.338911507 $GPGSV,4,2,13,22,42,314,24,32,38,049,27,11,36,262,,10,23,109,24*74
13 31 08.455206325
13 31 08.569813159 $GPGSV,4,3,13,03,21,309,21,25,11,065,21,23,08,257,19,26,07,151,*75
13 31 08.686812969
13 31 08.800811810 $GPGSV,4,4,13,08,02,225,16*43
13 31 08.917091627
13 31 09.032316455 $GPRMC,213028.000,A,3401.8823,N,11725.0166,W,0.31,143.13,041217,,,A*77
13 31 09.149030268
13 31 09.266578073 $GPVTG,143.13,T,,M,0.31,N,0.57,K,A*39
13 31 09.381820901
13 31 09.496295737 $GPVTG,15.93,T,,M,0.92,N,1.71,K,A*0F
13 31 09.614691532 ˇˇˇˇˇˇˇˇˇˇˇˇˇˇˇˇˇˇˇˇˇˇˇˇˇ$GPGGA,212958.000,3401.8783,N,11725.0127,W,1,07,1.32,205.8,M,-32.8,M,,*51
13 31 09.734693312 $GPGGA,213029.000,3401.8821,N,11725.0167,W,1,06,1.59,209.8,M,-32.8,M,,*5C
13 31 10.263109938
13 31 10.389947648 $GPGSA,A,3,01,31,32,22,10,14,,,,,,,1.84,1.59,0.93*0E
13 31 10.506429463
13 31 10.620903299 $GPRMC,213029.000,A,3401.8821,N,11725.0167,W,0.29,226.50,041217,,,A*7B
13 31 10.741980068
13 31 10.855648912 $GPVTG,226.50,T,,M,0.29,N,0.54,K,A*34
13 31 10.973807710
13 31 11.087229557 $GPGGA,213005.000,3401.8795,N,11725.0141,W,1,07,1.32,206.5,M,-32.8,M,,*58
13 31 11.625380084 $GPGSA,A,3,01,31,11,32,22,10,14,,,,,,1.61,1.32,0.92*09
13 31 11.746115856 6.5,M,-32.8,M,,*58
13 31 11.863341663 $GPRMC,213005.000,A,3401.8795,N,11725.0141,W,1.29,159.18,041217,,,A*77
13 31 11.980409473 58
13 31 12.094321314 $GPVTG,159.18,T,,M,1.29,N,2.38,K,A*3A
13 31 12.215635081 0141,W,1.29,159.18,041217,,,A*77
13 31 12.330784909 58
13 31 12.445020748 $GPGSA,A,3,01,31,11,32,22,10,14,,,,,,1.61,1.32,0.92*09
13 31 12.561957558 8,041217,,,A*77
13 31 12.678834370 58
13 31 12.793858200 $GPGGA,213030.000,3401.8815,N,11725.0170,W,1,06,1.59,210.1,M,-32.8,M,,*54
13 31 13.333475712
13 31 13.447223555 $GPGSA,A,3,01,31,32,22,10,14,,,,,,,1.84,1.59,0.93*0E
13 31 13.563848369
13 31 13.678796200 $GPRMC,213030.000,A,3401.8815,N,11725.0170,W,0.81,233.74,041217,,,A*72
13 31 13.800296964
13 31 13.915088797 $GPVTG,233.74,T,,M,0.81,N,1.51,K,A*30
13 31 14.031476613
13 31 14.145534453 $GPGSV,4,1,13,31,69,122,19,14,56,031,27,01,48,293,26,22,42,314,24*7C
13 31 14.262145267 $GPGSV,4,2,13,32,38,049,27,11,36,262,25,10,23,109,24,03,21,308,21*7D
13 31 14.378972079 $GPGGA,213006.000,3401.8797,N,11725.0139,W,1,07,1.32,206.6,M,-32.8,M,,*55
13 31 14.916382614 $GPGSA,A,3,01,31,11,32,22,10,14,,,,,,1.61,1.32,0.93*08
13 31 15.040549351 6.6,M,-32.8,M,,*55
13 31 15.156996167 $GPGGA,213031.000,3401.8811,N,11725.0172,W,1,06,1.59,210.5,M,-32.8,M,,*57
13 31 15.694546700
13 31 15.816857456 $GPGSA,A,3,01,31,32,22,10,14,,,,,,,1.84,1.59,0.93*0E
13 31 15.933206272
13 31 16.048766097 $GPRMC,213031.000,A,3401.8811,N,11725.0172,W,0.47,256.09,041217,,,A*76
13 31 16.164822917
13 31 16.277685769 $GPVTG,256.09,T,,M,0.47,N,0.87,K,A*39
13 31 16.393304593
13 31 16.508448422 $GPRMC,213006.000,A,3401.8797,N,11725.0139,W,0.96,151.57,041217,,,A*7F
13 31 16.626197225 $GPVTG,151.57,T,,M,0.96,N,1.77,K,A*34
13 31 16.749068975 0139,W,0.96,151.57,041217,,,A*7F
13 31 16.866935776 $GPGSV,4,3,13,25,11,065,20,23,08,256,,26,07,152,,08,02,225,15*7C
13 31 16.984829577 ,A*7F
13 31 17.100826398 $GPGSV,4,4,13,43,,,*7C
13 31 17.216670220 ,20,23,08,256,,26,07,152,,08,02,225,15*7C
13 31 17.332183045 ,A*7F
13 31 17.449499852 $GPGGA,213032.000,3401.8806,N,11725.0174,W,1,06,1.59,210.9,M,-32.8,M,,*58
13 31 17.984826407
13 31 18.104154194 $GPGSA,A,3,01,31,32,22,10,14,,,,,,,1.84,1.59,0.93*0E
13 31 18.224404971
13 31 18.337359822 $GPRMC,213032.000,A,3401.8806,N,11725.0174,W,0.75,191.58,041217,,,A*78
13 31 18.453056645
13 31 18.567990476 $GPVTG,191.58,T,,M,0.75,N,1.38,K,A*31
13 31 18.683677300
13 31 18.798320134 $GPRMC,212958.000,A,3401.8783,N,11725.0127,W,0.57,143.53,041217,,,A*7C
13 31 18.916493932 $GPVTG,143.53,T,,M,0.57,N,1.06,K,A*38
13 31 19.034036737 0127,W,0.57,143.53,041217,,,A*7C
13 31 19.151250545 $GPGSV,4,4,13,38,,,*70
13 31 19.268324354 ,N,1.9ãù≥ÿ9€?8
13 31 19.384382174 0127,W,0.57,143.53,041217,,,A*7C
13 31 19.502284975 $GPGGA,213033.000,3401.8798,N,11725.0175,W,1,06,1.59,211.3,M,-32.8,M,,*5B
13 31 20.044596459
13 31 20.160942276 $GPGSA,A,3,01,31,32,22,10,14,,,,,,,1.84,1.59,0.93*0E
13 31 20.276306103
13 31 20.389362953 $GPGSV,4,1,13,31,69,121,21,14,55,031,29,01,48,293,28,48,47,206,29*71
13 31 20.505925767
13 31 20.622333584 $GPGSV,4,2,13,22,42,314,26,32,38,049,27,11,36,262,,10,23,109,25*77
13 31 20.738806399
13 31 20.853338234 $GPGSV,4,3,13,03,21,309,20,25,11,065,20,23,08,257,19,26,07,151,*75
13 31 20.970021048
13 31 21.087138856 $GPGSV,4,4,13,08,02,225,16*43
13 31 21.206778640
13 31 21.319642492 $GPRMC,213033.000,A,3401.8798,N,11725.0175,W,0.84,181.72,041217,,,A*77
13 31 21.436923299
13 31 21.550999139 $GPVTG,181.72,T,,M,0.84,N,1.55,K,A*3D
13 31 21.667703952
13 31 21.782564784 $GPGGA,213007.000,3401.8801,N,11725.0138,W,1,07,1.32,206.7,M,-32.8,M,,*54
13 31 22.315218367 $GPGSA,A,3,01,31,11,32,22,10,14,,,,,,1.61,1.32,0.92*09
13 31 22.438936109 6.7,M,-32.8,M,,*54
13 31 22.557058907 $GPRMC,213007.000,A,3401.8801,N,11725.0138,W,0.86,169.42,041217,,,A*71
13 31 22.674253715 54
13 31 22.794817489 $GPGGA,213034.000,3401.8792,N,11725.0176,W,1,06,1.59,211.7,M,-32.8,M,,*51
13 31 23.314385205
13 31 23.448080845 $GPGSA,A,3,01,31,32,22,10,14,,,,,,,1.84,1.59,0.93*0E
13 31 23.564631660
13 31 23.679889488 $GPRMC,213034.000,A,3401.8792,N,11725.0176,W,0.67,158.34,041217,,,A*72
13 31 23.796969297
13 31 23.911211135 $GPVTG,158.34,T,,M,0.67,N,1.23,K,A*37
13 31 24.028051947
13 31 24.141885789 $GPVTG,169.42,T,,M,0.86,N,1.60,K,A*3C
13 31 24.263269555 ˇˇˇˇˇˇˇˇˇˇˇˇˇˇˇˇˇˇˇˇˇˇˇˇ$GPRMC,212943.000,A,3401.8738,N,11725.0114,W,0.59,231.93,041217,,,A*72
13 31 24.381760350 $GPVTG,231.93,T,,M,0.59,N,1.10,K,A*3B
13 31 24.499090157 0114,W,0.59,231.93,041217,,,A*72
13 31 24.616372964 $GPGGA,213035.000,3401.8788,N,11725.0175,W,1,06,1.59,212.1,M,-32.8,M,,*5D
13 31 25.154889487
13 31 25.272830288 $GPGSA,A,3,01,31,32,22,10,14,,,,,,,1.84,1.59,0.93*0E
13 31 25.388177114
13 31 25.502766949 $GPRMC,213035.000,A,3401.8788,N,11725.0175,W,0.52,129.12,041217,,,A*7F
13 31 25.619473762
13 31 25.738778549 $GPVTG,129.12,T,,M,0.52,N,0.96,K,A*3C
13 31 25.855125366
13 31 25.968598212 $GPGGA,212952.000,3401.8771,N,11725.0115,W,1,07,1.32,205.5,M,-32.8,M,,*5A
13 31 26.509420711 $GPGSA,A,3,01,31,11,32,22,10,14,,,,,,1.61,1.32,0.93*08
13 31 26.631888466 5.5,M,-32.8,M,,*5A
13 31 26.749428270 $GPGGA,213036.000,3401.8787,N,11725.0177,W,1,06,1.59,212.3,M,-32.8,M,,*51
13 31 27.287039803
13 31 27.405186601 $GPGSA,A,3,01,31,32,22,10,14,,,,,,,1.84,1.59,0.93*0E
13 31 27.521745416
13 31 27.636859245 $GPRMC,213036.000,A,3401.8787,N,11725.0177,W,0.45,186.59,041217,,,A*7D
13 31 27.756761026
13 31 27.871026864 $GPVTG,186.59,T,,M,0.45,N,0.84,K,A*33
13 31 27.986548689
13 31 28.100168533 $GPGGA,213008.000,3401.8803,N,11725.0137,W,1,07,1.31,206.8,M,-32.8,M,,*5A
13 31 28.631875126 $GPGSA,A,3,01,31,11,32,22,10,14,,,,,,1.61,1.31,0.92*0A
13 31 28.766320758 6.8,M,-32.8,M,,*5A
13 31 28.883228569 $GPGSV,4,1,13,31,69,122,20,14,56,031,28,01,48,293,28,22,42,314,23*70
13 31 29.001355368 ,*5A
13 31 29.118999172 $GPGSV,4,2,13,32,38,049,27,11,36,262,26,10,23,109,24,03,21,308,21*7E
13 31 29.236228979 ,*5A
13 31 29.352051801 $GPGGA,213037.000,3401.8787,N,11725.0179,W,1,06,1.59,212.5,M,-32.8,M,,*58
13 31 29.894998280
13 31 30.008915121 $GPGSA,A,3,01,31,32,22,10,14,,,,,,,1.84,1.59,0.93*0E
13 31 30.124042950
13 31 30.242157749 $GPRMC,213037.000,A,3401.8787,N,11725.0179,W,0.54,195.68,041217,,,A*72
13 31 30.357606575
13 31 30.475456376 $GPVTG,195.68,T,,M,0.54,N,1.00,K,A*3E
13 31 30.593378177 ∫dÈ?˙‰π4H$GPGGA,213051.000,3401.8807,N,11725.0177,W,1,07,1.31,214.7,M,-32.8,M,,*5A
13 31 30.711371977
13 31 30.826521806 $GPGSA,A,3,01,31,32,22,11,10,14,,,,,,1.61,1.31,0.92*0A
13 31 30.942985622
13 31 31.057896453 $GPRMC,213051.000,A,3401.8807,N,11725.0177,W,0.11,25.83,041217,,,A*45
13 31 31.177554236
13 31 31.292774064 $GPVTG,25.83,T,,M,0.11,N,0.21,K,A*02
13 31 31.409705875
13 31 31.524427708 $GPRMC,212953.000,A,3401.8773,N,11725.0119,W,0.37,149.27,041217,,,A*7A
13 31 31.648814443 $GPVTG,149.27,T,,M,0.37,N,0.68,K,A*3E
13 31 31.785903049 0119,W,0.37,149.27,041217,,,A*7A
13 31 31.903643852 $GPGGA,213052.000,3401.8808,N,11725.0177,W,1,07,1.31,214.7,M,-32.8,M,,*56
13 31 32.500030786
13 31 32.672369034 $GPGSA,A,3,01,31,32,22,11,10,14,,,,,,1.61,1.31,0.92*0A
13 31 32.804360691
13 31 32.927608438 $GPRMC,213052.000,A,3401.8808,N,11725.0177,W,0.12,178.27,041217,,,A*7D
13 31 33.062542065
13 31 33.197574692 $GPVTG,178.27,T,,M,0.12,N,0.22,K,A*35
13 31 33.336536279
13 31 33.466117961 $GPGSA,A,3,01,31,11,32,22,10,14,,,,,,1.61,1.31,0.92*0A
13 31 33.590383697 ˇˇˇˇˇˇˇ$GPRMC,213021.000,A,3401.8843,N,11725.0159,W,0.23,240.94,041217,,,A*78
13 31 33.708493496 $GPVTG,240.94,T,,M,0.23,N,0.43,K,A*30
13 31 33.826277298 0159,W,0.23,240.94,041217,,,A*78
13 31 33.944220099 $GPVTG,305.59,T,,M,0.32,N,0.60,K,A*30
13 31 34.062579895 0159,W,0.23,240.94,041217,,,A*78
13 31 34.182101679 $GPRMC,212944.000,A,3401.8743,N,11725.0117,W,0.76,205.66,041217,,,A*7A
13 31 34.300093479 $GPVTG,205.66,T,,M,0.76,N,1.40,K,A*3E
13 31 34.418158279 0117,W,0.76,205.66,041217,,,A*7A
13 31 34.536738073 $GPGGA,212955.000,3401.8782,N,11725.0127,W,1,07,1.32,205.7,M,-32.8,M,,*52
