13 14 12.578428102 $GPGGA,211412.000,3401.8505,N,11725.0197,W,2,06,1.54,189.7,M,-32.8,M,0000,0000*5C
13 14 13.105349743
13 14 13.220587571 $GPGSA,A,3,14,32,31,11,22,01,,,,,,,1.83,1.54,0.98*0E
13 14 13.337320384
13 14 13.452433213 $GPRMC,211412.000,A,3401.8505,N,11725.0197,W,0.25,130.20,041217,,,D*7B
13 14 13.570376014
13 14 13.686035838 $GPVTG,130.20,T,,M,0.25,N,0.46,K,D*3D
13 14 13.808802589
13 14 13.924425413 $GPGGA,211412.000,3401.8505,N,11725.0197,W,2,06,1.54,189.7,M,-32.8,M,0000,0000*5C
13 14 14.428397288 $GPGSA,A,3,14,32,31,11,22,01,,,,,,,1.83,1.54,0.98*0E
13 14 14.546949082 189.7,M,-32.8,M,0000,0000*5C
13 14 14.665612875 $GPRMC,211412.000,A,3401.8505,N,11725.0197,W,0.25,130.20,041217,,,D*7B
13 14 14.784644665 00,0000*5C
13 14 14.903463456 $GPVTG,130.20,T,,M,0.25,N,0.46,K,D*3D
13 14 15.022074250 0197,W,0.25,130.20,041217,,,D*7B
13 14 15.140488046 00,0000*5C
13 14 15.263016799 $GPGGA,211412.000,3401.8505,N,11725.0197,W,2,06,1.54,189.7,M,-32.8,M,0000,0000*5C
13 14 15.767658667 $GPGSA,A,3,14,32,31,11,22,01,,,,,,,1.83,1.54,0.98*0E
13 14 15.886708456 189.7,M,-32.8,M,0000,0000*5C
13 14 16.005288251 $GPRMC,211412.000,A,3401.8505,N,11725.0197,W,0.25,130.20,041217,,,D*7B
13 14 16.125572027 00,0000*5C
13 14 16.244599817 $GPGGA,211413.000,3401.8505,N,11725.0196,W,2,06,1.54,189.7,M,-32.8,M,0000,0000*5C
13 14 16.757612599
13 14 16.873788418 $GPGSA,A,3,14,32,31,11,22,01,,,,,,,1.83,1.54,0.98*0E
13 14 16.991023225
13 14 17.106620050 $GPRMC,211413.000,A,3401.8505,N,11725.0196,W,0.20,122.38,041217,,,D*74
13 14 17.224179854
13 14 17.339216684 $GPVTG,122.38,T,,M,0.20,N,0.37,K,D*34
13 14 17.456966487
13 14 17.573187305 $GPVTG,130.20,T,,M,0.25,N,0.46,K,D*3D
13 14 17.693049086 ÿÿÿÿÿÿÿÿÿÿÿÿÿÿÿÿÿÿÿÿÿÿÿÿ‡$GPGGA,211412.000,3401.8505,N,11725.0197,W,2,06,1.54,189.7,M,-32.8,M,0000,0000*5C
13 14 17.813382862 $GPGSA,A,3,14,32,31,11,22,01,,,,,,,1.83,1.54,0.98*0E
13 14 17.932447651 189.7,M,-32.8,M,0000,0000*5C
13 14 18.051054445 $GPRMC,211412.000,A,3401.8505,N,11725.0197,W,0.25,130.20,041217,,,D*7B
13 14 18.169688238 00,0000*5C
13 14 18.293098983 $GPGGA,211413.000,3401.8505,N,11725.0196,W,2,06,1.54,189.7,M,-32.8,M,0000,0000*5C
13 14 18.795945869 $GPGSA,A,3,14,32,31,11,22,01,,,,,,,1.83,1.54,0.98*0E
13 14 18.913866670 189.7,M,-32.8,M,0000,0000*5C
13 14 19.031688472 $GPRMC,211413.000,A,3401.8505,N,11725.0196,W,0.20,122.38,041217,,,D*74
13 14 19.149851270 00,0000*5C
13 14 19.267380075 $GPVTG,122.38,T,,M,0.20,N,0.37,K,D*34
13 14 19.384721881 0196,W,0.20,122.38,041217,,,D*74
13 14 19.502322685 00,0000*5C
13 14 19.620073488 $GPVTG,130.20,T,,M,0.25,N,0.46,K,D*3D
13 14 19.737986289 0196,W,0.20,122.38,041217,,,D*74
13 14 19.859902049 00,0000*5C
13 14 19.976944858 $GPGGA,211412.000,3401.8505,N,11725.0197,W,2,06,1.54,189.7,M,-32.8,M,0000,0000*5C
13 14 20.479171751 $GPGSA,A,3,14,32,31,11,22,01,,,,,,,1.83,1.54,0.98*0E
13 14 20.597381548 189.7,M,-32.8,M,0000,0000*5C
13 14 20.715814344 $GPRMC,211412.000,A,3401.8505,N,11725.0197,W,0.25,130.20,041217,,,D*7B
13 14 20.833445148 00,0000*5C
13 14 20.951242950 $GPGGA,211414.000,3401.8505,N,11725.0196,W,2,06,1.54,189.7,M,-32.8,M,0000,0000*5B
13 14 21.459529780
13 14 21.582691528 $GPGSA,A,3,14,32,31,11,22,01,,,,,,,1.83,1.54,0.98*0E
13 14 21.815798157
13 14 21.932976965 $GPRMC,211414.000,A,3401.8505,N,11725.0196,W,0.21,105.92,041217,,,D*77
13 14 22.050136774
13 14 22.164796608 $GPVTG,105.92,T,,M,0.21,N,0.39,K,D*3E
13 14 22.281768418
13 14 22.396492251 $GPGGA,211413.000,3401.8505,N,11725.0196,W,2,06,1.54,189.7,M,-32.8,M,0000,0000*5C
13 14 22.903762092 $GPGSA,A,3,14,32,31,11,22,01,,,,,,,1.83,1.54,0.98*0E
13 14 23.022199888 189.7,M,-32.8,M,0000,0000*5C
13 14 23.140439685 $GPRMC,211413.000,A,3401.8505,N,11725.0196,W,0.20,122.38,041217,,,D*74
13 14 23.256669503 00,0000*5C
13 14 23.373713313 $GPVTG,122.38,T,,M,0.20,N,0.37,K,D*34
13 14 23.491725113 0196,W,0.20,122.38,041217,,,D*74
13 14 23.609902911 00,0000*5C
13 14 23.727991710 $GPVTG,130.20,T,,M,0.25,N,0.46,K,D*3D
13 14 23.847519494 0196,W,0.20,122.38,041217,,,D*74
13 14 23.963517315 00,0000*5C
13 14 24.080117129 $GPGGA,211412.000,3401.8505,N,11725.0197,W,2,06,1.54,189.7,M,-32.8,M,0000,0000*5C
13 14 24.583038014
13 14 24.698396841 $GPGSA,A,3,14,32,31,11,22,01,,,,,,,1.83,1.54,0.98*0E
13 14 24.816669638 189.7,M,-32.8,M,0000,0000*5C
13 14 24.932063464
13 14 25.045622309 $GPRMC,211412.000,A,3401.8505,N,11725.0197,W,0.25,130.20,041217,,,D*7B
13 14 25.162283123 00,0000*5C
13 14 25.277644950
13 14 25.392097786 $GPGGA,211414.000,3401.8505,N,11725.0196,W,2,06,1.54,189.7,M,-32.8,M,0000,0000*5B
13 14 25.897513646
13 14 26.012756474 $GPGSA,A,3,14,32,31,11,22,01,,,,,,,1.83,1.54,0.98*0E
13 14 26.129588285 189.7,M,-32.8,M,0000,0000*5B
13 14 26.245080111
13 14 26.359763944 $GPRMC,211414.000,A,3401.8505,N,11725.0196,W,0.21,105.92,041217,,,D*77
13 14 26.477733745 00,0000*5B
13 14 26.594438558
13 14 26.711861364 $GPVTG,105.92,T,,M,0.21,N,0.39,K,D*3E
13 14 26.834248119 0196,W,0.21,105.92,041217,,,D*77
13 14 26.954658894 00,0000*5B
13 14 27.070198719
13 14 27.183684565 $GPGGA,211415.000,3401.8505,N,11725.0195,W,2,06,1.54,189.7,M,-32.8,M,0000,0000*59
13 14 27.692390391
13 14 27.808123214 $GPGSA,A,3,14,32,31,11,22,01,,,,,,,1.83,1.54,0.98*0E
13 14 27.925291023
13 14 28.039586860 $GPGSV,3,1,12,31,64,139,22,14,61,023,21,48,47,206,31,01,44,302,24*7C
13 14 28.154819689
13 14 28.268746530 $GPGSV,3,2,12,32,43,043,26,11,38,272,25,22,36,311,25,03,16,305,18*7F
13 14 28.385044347
13 14 28.500194176 $GPGSV,3,3,12,25,09,072,17,23,03,251,,18,02,114,,26,02,156,*78
13 14 28.616925989
13 14 28.732729811 $GPRMC,211415.000,A,3401.8505,N,11725.0195,W,0.22,99.50,041217,,,D*4C
13 14 28.854582572
13 14 28.968463414 $GPVTG,99.50,T,,M,0.22,N,0.42,K,D*0B
13 14 29.084573233
13 14 29.198195077 $GPGGA,211413.000,3401.8505,N,11725.0196,W,2,06,1.54,189.7,M,-32.8,M,0000,0000*5C
13 14 29.698832986 $GPGSA,A,3,14,32,31,11,22,01,,,,,,,1.83,1.54,0.98*0E
13 14 29.816555789 189.7,M,-32.8,M,0000,0000*5C
13 14 29.933717597 $GPRMC,211413.000,A,3401.8505,N,11725.0196,W,0.20,122.38,041217,,,D*74
13 14 30.051344401 00,0000*5C
13 14 30.167158223 $GPVTG,122.38,T,,M,0.20,N,0.37,K,D*34
13 14 30.288980984 0196,W,0.20,122.38,041217,,,D*74
13 14 30.405880795 00,0000*5C
13 14 30.523796596 $GPVTG,130.20,T,,M,0.25,N,0.46,K,D*3D
13 14 30.641591398 0196,W,0.20,122.38,041217,,,D*74
13 14 30.759098203 00,0000*5C
13 14 30.877394000 $GPGGA,211412.000,3401.8505,N,11725.0197,W,2,06,1.54,189.7,M,-32.8,M,0000,0000*5C
13 14 31.377008919 $GPGSA,A,3,14,32,31,11,22,01,,,,,,,1.83,1.54,0.98*0E
13 14 31.495464714 189.7,M,-32.8,M,0000,0000*5C
13 14 31.614288505 $GPRMC,211412.000,A,3401.8505,N,11725.0197,W,0.25,130.20,041217,,,D*7B
13 14 31.732617302 00,0000*5C
13 14 31.854890058 $GPGGA,211414.000,3401.8505,N,11725.0196,W,2,06,1.54,189.7,M,-32.8,M,0000,0000*5B
13 14 32.354419978 $GPGSA,A,3,14,32,31,11,22,01,,,,,,,1.83,1.54,0.98*0E
13 14 32.473012772 189.7,M,-32.8,M,0000,0000*5B
13 14 32.591683565 $GPRMC,211414.000,A,3401.8505,N,11725.0196,W,0.21,105.92,041217,,,D*77
13 14 32.709734365 00,0000*5B
13 14 32.825950183 $GPVTG,105.92,T,,M,0.21,N,0.39,K,D*3E
13 14 32.943329989 0196,W,0.21,105.92,041217,,,D*77
13 14 33.059758805 00,0000*5B
13 14 33.175723625 $GPGGA,211416.000,3401.8504,N,11725.0194,W,2,06,1.54,189.7,M,-32.8,M,0000,0000*5A
13 14 33.679224505
13 14 33.794449333 $GPGSA,A,3,14,32,31,11,22,01,,,,,,,1.83,1.54,0.98*0E
13 14 33.911336144
13 14 34.025133987 $GPRMC,211416.000,A,3401.8504,N,11725.0194,W,0.30,97.82,041217,,,D*4D
13 14 34.141144807
13 14 34.255171647 $GPVTG,97.82,T,,M,0.30,N,0.56,K,D*0C
13 14 34.373022449
13 14 34.488490274 $GPGGA,211415.000,3401.8505,N,11725.0195,W,2,06,1.54,189.7,M,-32.8,M,0000,0000*59
13 14 35.022622842 $GPGSA,A,3,14,32,31,11,22,01,,,,,,,1.83,1.54,0.98*0E
13 14 35.142826620 189.7,M,-32.8,M,0000,0000*59
13 14 35.268165345 $GPGSV,3,1,12,31,64,139,22,14,61,023,21,48,47,206,31,01,44,302,24*7C
13 14 35.387149135 0000,0000*59
13 14 35.511601869 $GPGSV,3,2,12,32,43,043,26,11,38,272,25,22,36,311,25,03,16,305,18*7F
13 14 35.635693607 0000,0000*59
13 14 35.757122372 $GPGSV,3,3,12,25,09,072,17,23,03,251,,18,02,114,,26,02,156,*78
13 14 35.875492169 18*7F
13 14 35.992901974 0000,0000*59
13 14 36.110923774 $GPRMC,211415.000,A,3401.8505,N,11725.0195,W,0.22,99.50,041217,,,D*4C
13 14 36.230758555 000,0000*59
13 14 36.353578306 $GPVTG,99.50,T,,M,0.22,N,0.42,K,D*0B
13 14 36.471649106 .0195,W,0.22,99.50,041217,,,D*4C
13 14 36.589155910 000,0000*59
13 14 36.707328709 $GPGGA,211413.000,3401.8505,N,11725.0196,W,2,06,1.54,189.7,M,-32.8,M,0000,0000*5C
13 14 37.209651600 $GPGSA,A,3,14,32,31,11,22,01,,,,,,,1.83,1.54,0.98*0E
13 14 37.326822408 189.7,M,-32.8,M,0000,0000*5C
13 14 37.444667210 $GPRMC,211413.000,A,3401.8505,N,11725.0196,W,0.20,122.38,041217,,,D*74
13 14 37.562860008 00,0000*5C
13 14 37.681282803 $GPVTG,122.38,T,,M,0.20,N,0.37,K,D*34
13 14 37.803344562 0196,W,0.20,122.38,041217,,,D*74
13 14 37.921274363 00,0000*5C
13 14 38.037740178 $GPVTG,130.20,T,,M,0.25,N,0.46,K,D*3D
13 14 38.154977986 0196,W,0.20,122.38,041217,,,D*74
13 14 38.274468771 00,0000*5C
13 14 38.390652589 $GPGGA,211417.000,3401.8504,N,11725.0193,W,2,06,1.54,189.7,M,-32.8,M,0000,0000*5C
13 14 38.892721483
13 14 39.006368327 $GPGSA,A,3,14,32,31,11,22,01,,,,,,,1.83,1.54,0.98*0E
13 14 39.122077150
13 14 39.235553996 $GPRMC,211417.000,A,3401.8504,N,11725.0193,W,0.31,113.67,041217,,,D*7C
13 14 39.356366768
13 14 39.470509607 $GPVTG,113.67,T,,M,0.31,N,0.57,K,D*3A
13 14 39.587478417
13 14 39.702973243 $GPGGA,211412.000,3401.8505,N,11725.0197,W,2,06,1.54,189.7,M,-32.8,M,0000,0000*5C
13 14 40.207548111 $GPGSA,A,3,14,32,31,11,22,01,,,,,,,1.83,1.54,0.98*0E
13 14 40.324604921 189.7,M,-32.8,M,0000,0000*5C
13 14 40.442377723 $GPRMC,211412.000,A,3401.8505,N,11725.0197,W,0.25,130.20,041217,,,D*7B
13 14 40.560577521 00,0000*5C
13 14 40.678388323 $GPGGA,211414.000,3401.8505,N,11725.0196,W,2,06,1.54,189.7,M,-32.8,M,0000,0000*5B
13 14 41.190470115 $GPGSA,A,3,14,32,31,11,22,01,,,,,,,1.83,1.54,0.98*0E
13 14 41.307298926 189.7,M,-32.8,M,0000,0000*5B
13 14 41.425389725 $GPRMC,211414.000,A,3401.8505,N,11725.0196,W,0.21,105.92,041217,,,D*77
13 14 41.545531504 00,0000*5B
13 14 41.663269306 $GPVTG,105.92,T,,M,0.21,N,0.39,K,D*3E
13 14 41.781219107 0196,W,0.21,105.92,041217,,,D*77
13 14 41.898562913 00,0000*5B
13 14 42.015104728 $GPGGA,211416.000,3401.8504,N,11725.0194,W,2,06,1.54,189.7,M,-32.8,M,0000,0000*5A
13 14 42.570680078 $GPGSA,A,3,14,32,31,11,22,01,,,,,,,1.83,1.54,0.98*0E
13 14 42.697504788 189.7,M,-32.8,M,0000,0000*5A
13 14 42.815254590 $GPRMC,211416.000,A,3401.8504,N,11725.0194,W,0.30,97.82,041217,,,D*4D
13 14 42.933271390 000,0000*5A
13 14 43.049887204 $GPVTG,97.82,T,,M,0.30,N,0.56,K,D*0C
13 14 43.165994023 .0194,W,0.30,97.82,041217,,,D*4D
13 14 43.282294841 000,0000*5A
13 14 43.399493649 $GPGGA,211415.000,3401.8505,N,11725.0195,W,2,06,1.54,189.7,M,-32.8,M,0000,0000*59
13 14 43.937166180 $GPGSA,A,3,14,32,31,11,22,01,,,,,,,1.83,1.54,0.98*0E
13 14 44.070495825 189.7,M,-32.8,M,0000,0000*59
13 14 44.186927640 $GPGGA,211418.000,3401.8504,N,11725.0192,W,2,06,1.54,189.7,M,-32.8,M,0000,0000*52
13 14 44.724485173
13 14 44.851406883 $GPGSA,A,3,14,32,31,11,22,01,,,,,,,1.83,1.54,0.98*0E
13 14 44.968774689
13 14 45.083363524 $GPRMC,211418.000,A,3401.8504,N,11725.0192,W,0.30,109.80,041217,,,D*71
13 14 45.199498342
13 14 45.318210135 $GPVTG,109.80,T,,M,0.30,N,0.56,K,D*38
13 14 45.434836949
13 14 45.550054777 $GPGSV,3,1,12,31,64,139,22,14,61,023,21,48,47,206,31,01,44,302,24*7C
13 14 45.668571572 $GPGSV,3,2,12,32,43,043,26,11,38,272,25,22,36,311,25,03,16,305,18*7F
13 14 45.786279375 $GPGSV,3,3,12,25,09,072,17,23,03,251,,18,02,114,,26,02,156,*78
13 14 45.904390174 18*7F
13 14 46.022352974 $GPRMC,211415.000,A,3401.8505,N,11725.0195,W,0.22,99.50,041217,,,D*4C
13 14 46.143671740 $GPVTG,99.50,T,,M,0.22,N,0.42,K,D*0B
13 14 46.260626551 .0195,W,0.22,99.50,041217,,,D*4C
13 14 46.377051367 $GPGGA,211413.000,3401.8505,N,11725.0196,W,2,06,1.54,189.7,M,-32.8,M,0000,0000*5C
13 14 46.925078793 $GPGGA,211419.000,3401.8504,N,11725.0191,W,2,06,1.54,189.7,M,-32.8,M,0000,0000*50
13 14 47.476934181
13 14 47.599954930 $GPGSA,A,3,14,32,31,11,22,01,,,,,,,1.83,1.54,0.98*0E
13 14 47.717982729
13 14 47.831695573 $GPRMC,211419.000,A,3401.8504,N,11725.0191,W,0.22,110.17,041217,,,D*76
13 14 47.955100318
13 14 48.074491103 $GPVTG,110.17,T,,M,0.22,N,0.40,K,D*3A
13 14 48.198945838
13 14 48.328740518 $GPGSA,A,3,14,32,31,11,22,01,,,,,,,1.83,1.54,0.98*0E
13 14 48.474236038 ÿÿÿÿÿÿÿÿÿ‡$GPRMC,211413.000,A,3401.8505,N,11725.0196,W,0.20,122.38,041217,,,D*74
13 14 48.620982546 $GPVTG,122.38,T,,M,0.20,N,0.37,K,D*34
13 14 48.763312098 0196,W,0.20,122.38,041217,,,D*74
13 14 48.886997840 $GPVTG,130.20,T,,M,0.25,N,0.46,K,D*3D
13 14 49.003406656 0196,W,0.20,122.38,041217,,,D*74
13 14 49.120327467 $GPGGA,211420.000,3401.8504,N,11725.0191,W,2,06,1.54,189.7,M,-32.8,M,0000,0000*5A
13 14 49.696496608
13 14 49.831185238 $GPGSA,A,3,14,32,31,11,22,01,,,,,,,1.83,1.54,0.98*0E
13 14 49.969087835
13 14 50.094898556 $GPGSV,3,1,12,31,64,139,21,14,61,023,20,48,47,206,32,01,44,302,21*78
13 14 50.213409350
13 14 50.326697198 $GPGSV,3,2,12,32,43,043,26,11,38,272,24,22,36,311,23,03,16,305,19*79
13 14 50.452239922
13 14 50.566587759 $GPGSV,3,3,12,25,09,072,15,23,03,252,,18,02,114,,26,02,156,*79
13 14 50.694320460
13 14 50.809676286 $GPRMC,211420.000,A,3401.8504,N,11725.0191,W,0.15,131.01,041217,,,D*7C
13 14 50.926948094
13 14 51.042242921 $GPVTG,131.01,T,,M,0.15,N,0.28,K,D*34
13 14 51.159245731
13 14 51.275125553 $GPGGA,211417.000,3401.8504,N,11725.0193,W,2,06,1.54,189.7,M,-32.8,M,0000,0000*5C
13 14 51.817795034 4H$GPGSA,A,3,14,32,31,11,22,01,,,,,,,1.83,1.54,0.98*0E
13 14 51.968064505 189.7,M,-32.8,M,0000,0000*5C
13 14 52.085666309 4H$GPRMC,211417.000,A,3401.8504,N,11725.0193,W,0.31,113.67,041217,,,D*7C
13 14 52.202652120 00,0000*5C
13 14 52.319196934 4H$GPVTG,113.67,T,,M,0.31,N,0.57,K,D*3A
13 14 52.436353743 0193,W,0.31,113.67,041217,,,D*7C
13 14 52.555877527 00,0000*5C
13 14 52.678821277 4H$GPGGA,211421.000,3401.8503,N,11725.0190,W,2,06,1.54,189.7,M,-32.8,M,0000,0000*5D
13 14 52.801207032
13 14 52.918198842 $GPGSA,A,3,14,32,31,11,22,01,,,,,,,1.83,1.54,0.98*0E
13 14 53.035555649
13 14 53.149509490 $GPRMC,211421.000,A,3401.8503,N,11725.0190,W,0.17,167.73,041217,,,D*7F
13 14 53.265322312
13 14 53.379665149 $GPVTG,167.73,T,,M,0.17,N,0.32,K,D*3B
13 14 53.496301963
13 14 53.611940787 $GPGGA,211412.000,3401.8505,N,11725.0197,W,2,06,1.54,189.7,M,-32.8,M,0000,0000*5C
13 14 54.156465249 $GPGSA,A,3,14,32,31,11,22,01,,,,,,,1.83,1.54,0.98*0E
13 14 54.273840055 189.7,M,-32.8,M,0000,0000*5C
13 14 54.395444819 $GPGGA,211422.000,3401.8503,N,11725.0190,W,2,05,1.77,189.7,M,-32.8,M,0000,0000*5C
13 14 54.938820293
13 14 55.057155089 $GPGSA,A,3,14,32,31,22,01,,,,,,,,2.03,1.77,0.99*05
13 14 55.172738914
13 14 55.285952762 $GPRMC,211422.000,A,3401.8503,N,11725.0190,W,0.16,169.82,041217,,,D*7D
13 14 55.403238569
13 14 55.518373398 $GPVTG,169.82,T,,M,0.16,N,0.29,K,D*30
13 14 55.635327209
13 14 55.750601037 $GPRMC,211412.000,A,3401.8505,N,11725.0197,W,0.25,130.20,041217,,,D*7B
13 14 55.874620775 $GPGGA,211414.000,3401.8505,N,11725.0196,W,2,06,1.54,189.7,M,-32.8,M,0000,0000*5B
13 14 56.414562284 $GPGGA,211423.000,3401.8503,N,11725.0190,W,2,05,1.78,189.7,M,-32.8,M,0000,0000*52
