15 50 23.507960320 $GPGGA,235023.000,3401.8822,N,11725.0140,W,1,07,1.13,304.2,M,-32.8,M,,*5D
15 50 24.058446721
15 50 24.174110545 $GPGSA,A,3,16,26,03,22,01,23,31,,,,,,1.42,1.13,0.87*0B
15 50 24.290633360
15 50 24.406261184 $GPRMC,235023.000,A,3401.8822,N,11725.0140,W,0.42,141.84,041217,,,A*75
15 50 24.522871998
15 50 24.637532832 $GPVTG,141.84,T,,M,0.42,N,0.77,K,A*33
15 50 24.754528642
15 50 24.869202476 $GPGGA,235023.000,3401.8822,N,11725.0140,W,1,07,1.13,304.2,M,-32.8,M,,*5D
15 50 25.374936333 $GPGSA,A,3,16,26,03,22,01,23,31,,,,,,1.42,1.13,0.87*0B
15 50 25.493328128 4.2,M,-32.8,M,,*5D
15 50 25.611203930 $GPRMC,235023.000,A,3401.8822,N,11725.0140,W,0.42,141.84,041217,,,A*75
15 50 25.729013732 5D
15 50 25.844541557 $GPVTG,141.84,T,,M,0.42,N,0.77,K,A*33
15 50 25.962157360 0140,W,0.42,141.84,041217,,,A*75
15 50 26.078965172 5D
15 50 26.194185001 $GPGGA,235023.000,3401.8822,N,11725.0140,W,1,07,1.13,304.2,M,-32.8,M,,*5D
15 50 26.699170865 $GPGSA,A,3,16,26,03,22,01,23,31,,,,,,1.42,1.13,0.87*0B
15 50 26.817204665 4.2,M,-32.8,M,,*5D
15 50 26.937350443 $GPRMC,235023.000,A,3401.8822,N,11725.0140,W,0.42,141.84,041217,,,A*75
15 50 27.054691249 5D
15 50 27.170104075 $GPVTG,141.84,T,,M,0.42,N,0.77,K,A*33
15 50 27.288508871 0140,W,0.42,141.84,041217,,,A*75
15 50 27.405771679 5D
15 50 27.521293504 $GPGGA,235024.000,3401.8822,N,11725.0139,W,1,07,1.13,304.2,M,-32.8,M,,*54
15 50 28.022660405
15 50 28.141912192 $GPGSA,A,3,16,26,03,22,01,23,31,,,,,,1.42,1.13,0.87*0B
15 50 28.258886002
15 50 28.374435827 $GPGSV,4,1,13,03,79,282,17,22,72,178,17,48,47,206,26,23,46,310,21*7D
15 50 28.491351638
15 50 28.606700465 $GPGSV,4,2,13,26,45,090,24,16,40,136,21,31,26,045,21,01,21,215,17*75
15 50 28.723855274
15 50 28.838643106 $GPGSV,4,3,13,09,17,292,,14,13,084,,07,06,233,,06,04,323,*72
15 50 28.955436918
15 50 29.070276751 $GPGSV,4,4,13,11,02,208,17*45
15 50 29.189745536
15 50 29.304130372 $GPRMC,235024.000,A,3401.8822,N,11725.0139,W,0.45,146.97,041217,,,A*7E
15 50 29.420923184
15 50 29.534591028 $GPVTG,146.97,T,,M,0.45,N,0.84,K,A*3D
15 50 29.655378800
15 50 29.769888635 $GPGGA,235023.000,3401.8822,N,11725.0140,W,1,07,1.13,304.2,M,-32.8,M,,*5D
15 50 30.269528554 $GPGSA,A,3,16,26,03,22,01,23,31,,,,,,1.42,1.13,0.87*0B
15 50 30.387438355 4.2,M,-32.8,M,,*5D
15 50 30.504076169 $GPRMC,235023.000,A,3401.8822,N,11725.0140,W,0.42,141.84,041217,,,A*75
15 50 30.620843981 5D
15 50 30.735644814 $GPVTG,141.84,T,,M,0.42,N,0.77,K,A*33
15 50 30.853189618 0140,W,0.42,141.84,041217,,,A*75
15 50 30.969020440 5D
15 50 31.084515266 $GPGGA,235024.000,3401.8822,N,11725.0139,W,1,07,1.13,304.2,M,-32.8,M,,*54
15 50 31.586970156 $GPGSA,A,3,16,26,03,22,01,23,31,,,,,,1.42,1.13,0.87*0B
15 50 31.704552960 4.2,M,-32.8,M,,*54
15 50 31.821499770 $GPGSV,4,1,13,03,79,282,17,22,72,178,17,48,47,206,26,23,46,310,21*7D
15 50 31.938864577 ,*54
15 50 32.055939386 $GPGSV,4,2,13,26,45,090,24,16,40,136,21,31,26,045,21,01,21,215,17*75
15 50 32.173299192 ,*54
15 50 32.289827007 $GPGSV,4,3,13,09,17,292,,14,13,084,,07,06,233,,06,04,323,*72
15 50 32.407663809 5,17*75
15 50 32.524317623 ,*54
15 50 32.646096384 $GPGSV,4,4,13,11,02,208,17*45
15 50 32.762841197 ,084,,07,06,233,,06,04,323,*72
15 50 32.879738008 5,17*75
15 50 32.995575830 ,*54
15 50 33.112542640 $GPRMC,235024.000,A,3401.8822,N,11725.0139,W,0.45,146.97,041217,,,A*7E
15 50 33.229640449 54
15 50 33.344203284 $GPVTG,146.97,T,,M,0.45,N,0.84,K,A*3D
15 50 33.461714089 0139,W,0.45,146.97,041217,,,A*7E
15 50 33.577536911 54
15 50 33.692395743 $GPGGA,235023.000,3401.8822,N,11725.0140,W,1,07,1.13,304.2,M,-32.8,M,,*5D
15 50 34.195182630 $GPGGA,235025.000,3401.8820,N,11725.0139,W,1,07,1.13,304.2,M,-32.8,M,,*57
15 50 34.691779579
15 50 34.806580412 $GPGSA,A,3,16,26,03,22,01,23,31,,,,,,1.42,1.13,0.87*0B
15 50 34.923019228
15 50 35.037208066 $GPRMC,235025.000,A,3401.8820,N,11725.0139,W,0.45,146.89,041217,,,A*72
15 50 35.155623862
15 50 35.268643713 $GPVTG,146.89,T,,M,0.45,N,0.83,K,A*35
15 50 35.383951540
15 50 35.498278377 $GPGSA,A,3,16,26,03,22,01,23,31,,,,,,1.42,1.13,0.87*0B
15 50 35.620636133 ÿÿÿÿÿÿÿ$GPRMC,235023.000,A,3401.8822,N,11725.0140,W,0.42,141.84,041217,,,A*75
15 50 35.739071928 $GPVTG,141.84,T,,M,0.42,N,0.77,K,A*33
15 50 35.856726732 0140,W,0.42,141.84,041217,,,A*75
15 50 35.972623553 $GPGGA,235024.000,3401.8822,N,11725.0139,W,1,07,1.13,304.2,M,-32.8,M,,*54
15 50 36.471844476 $GPGSA,A,3,16,26,03,22,01,23,31,,,,,,1.42,1.13,0.87*0B
15 50 36.590006274 4.2,M,-32.8,M,,*54
15 50 36.707528079 $GPGSV,4,1,13,03,79,282,17,22,72,178,17,48,47,206,26,23,46,310,21*7D
15 50 36.824044894 ,*54
15 50 36.939476720 $GPGSV,4,2,13,26,45,090,24,16,40,136,21,31,26,045,21,01,21,215,17*75
15 50 37.056764527 ,*54
15 50 37.177121303 $GPGSV,4,3,13,09,17,292,,14,13,084,,07,06,233,,06,04,323,*72
15 50 37.292595129 5,17*75
15 50 37.409512940 ,*54
15 50 37.526653748 $GPGSV,4,4,13,11,02,208,17*45
15 50 37.645258542 ,084,,07,06,233,,06,04,323,*72
15 50 37.762264352 5,17*75
15 50 37.877739178 ,*54
15 50 37.993912996 $GPRMC,235024.000,A,3401.8822,N,11725.0139,W,0.45,146.97,041217,,,A*7E
15 50 38.110138814 54
15 50 38.223301663 $GPVTG,146.97,T,,M,0.45,N,0.84,K,A*3D
15 50 38.339279484 0139,W,0.45,146.97,041217,,,A*7E
15 50 38.455997297 54
15 50 38.571089126 $GPGGA,235023.000,3401.8822,N,11725.0140,W,1,07,1.13,304.2,M,-32.8,M,,*5D
15 50 39.075624995 $GPGGA,235026.000,3401.8819,N,11725.0138,W,1,07,1.13,304.2,M,-32.8,M,,*5F
15 50 39.582216843
15 50 39.715750485 $GPGSA,A,3,16,26,03,22,01,23,31,,,,,,1.42,1.13,0.87*0B
15 50 39.832670296
15 50 39.947570127 $GPRMC,235026.000,A,3401.8819,N,11725.0138,W,0.43,143.96,041217,,,A*77
15 50 40.064565938
15 50 40.182625737 $GPVTG,143.96,T,,M,0.43,N,0.79,K,A*3D
15 50 40.297964564
15 50 40.412222402 $GPGGA,235025.000,3401.8820,N,11725.0139,W,1,07,1.13,304.2,M,-32.8,M,,*57
15 50 40.909604343 $GPGSA,A,3,16,26,03,22,01,23,31,,,,,,1.42,1.13,0.87*0B
15 50 41.025554164 4.2,M,-32.8,M,,*57
15 50 41.140897991 $GPRMC,235025.000,A,3401.8820,N,11725.0139,W,0.45,146.89,041217,,,A*72
15 50 41.256552815 57
15 50 41.371916642 $GPVTG,146.89,T,,M,0.45,N,0.83,K,A*35
15 50 41.489634444 0139,W,0.45,146.89,041217,,,A*72
15 50 41.605743264 57
15 50 41.725372047 $GPGSA,A,3,16,26,03,22,01,23,31,,,,,,1.42,1.13,0.87*0B
15 50 41.842208859 9,041217,,,A*72
15 50 41.957905682 57
15 50 42.071909523 $GPRMC,235023.000,A,3401.8822,N,11725.0140,W,0.42,141.84,041217,,,A*75
15 50 42.187319349 57
15 50 42.300557197 $GPVTG,141.84,T,,M,0.42,N,0.77,K,A*33
15 50 42.418159001 0140,W,0.42,141.84,041217,,,A*75
15 50 42.534076822 57
15 50 42.651374629 $GPGGA,235024.000,3401.8822,N,11725.0139,W,1,07,1.13,304.2,M,-32.8,M,,*54
15 50 43.150163557 $GPGSA,A,3,16,26,03,22,01,23,31,,,,,,1.42,1.13,0.87*0B
15 50 43.266422374 4.2,M,-32.8,M,,*54
15 50 43.383032188 $GPGSV,4,1,13,03,79,282,17,22,72,178,17,48,47,206,26,23,46,310,21*7D
15 50 43.500187997 ,*54
15 50 43.617375805 $GPGSV,4,2,13,26,45,090,24,16,40,136,21,31,26,045,21,01,21,215,17*75
15 50 43.734693612 ,*54
15 50 43.850038439 $GPGSV,4,3,13,09,17,292,,14,13,084,,07,06,233,,06,04,323,*72
15 50 43.966709252 5,17*75
15 50 44.081931080 ,*54
15 50 44.197433906 $GPGSV,4,4,13,11,02,208,17*45
15 50 44.312565735 ,084,,07,06,233,,06,04,323,*72
15 50 44.428783553 5,17*75
15 50 44.544960371 ,*54
15 50 44.669318107 $GPRMC,235024.000,A,3401.8822,N,11725.0139,W,0.45,146.97,041217,,,A*7E
15 50 44.786506915 54
15 50 44.901425746 $GPGGA,235027.000,3401.8818,N,11725.0137,W,1,07,1.13,304.2,M,-32.8,M,,*50
15 50 45.395291723
15 50 45.509815559 $GPGSA,A,3,16,26,03,22,01,23,31,,,,,,1.42,1.13,0.87*0B
15 50 45.625584381
15 50 45.739507223 $GPRMC,235027.000,A,3401.8818,N,11725.0137,W,0.37,144.54,041217,,,A*72
15 50 45.855224046
15 50 45.968142898 $GPVTG,144.54,T,,M,0.37,N,0.69,K,A*36
15 50 46.082474735
15 50 46.199717542 $GPVTG,146.97,T,,M,0.45,N,0.84,K,A*3D
15 50 46.316221358 ÿÿÿÿÿÿÿÿÿÿÿÿÿÿÿÿÿÿÿÿÿÿÿÿ$GPGGA,235023.000,3401.8822,N,11725.0140,W,1,07,1.13,304.2,M,-32.8,M,,*5D
15 50 46.437037129 $GPGGA,235026.000,3401.8819,N,11725.0138,W,1,07,1.13,304.2,M,-32.8,M,,*5F
15 50 46.935474060 $GPGSA,A,3,16,26,03,22,01,23,31,,,,,,1.42,1.13,0.87*0B
15 50 47.052759867 4.2,M,-32.8,M,,*5F
15 50 47.169161683 $GPRMC,235026.000,A,3401.8819,N,11725.0138,W,0.43,143.96,041217,,,A*77
15 50 47.284785507 5F
15 50 47.399539340 $GPVTG,143.96,T,,M,0.43,N,0.79,K,A*3D
15 50 47.517372142 0138,W,0.43,143.96,041217,,,A*77
15 50 47.638462910 5F
15 50 47.752803747 $GPGGA,235025.000,3401.8820,N,11725.0139,W,1,07,1.13,304.2,M,-32.8,M,,*57
15 50 48.245756734 $GPGSA,A,3,16,26,03,22,01,23,31,,,,,,1.42,1.13,0.87*0B
15 50 48.362346548 4.2,M,-32.8,M,,*57
15 50 48.481799333 $GPRMC,235025.000,A,3401.8820,N,11725.0139,W,0.45,146.89,041217,,,A*72
15 50 48.598928142 57
15 50 48.714052971 $GPVTG,146.89,T,,M,0.45,N,0.83,K,A*35
15 50 48.831168780 0139,W,0.45,146.89,041217,,,A*72
15 50 48.947598596 57
15 50 49.061302440 $GPGSA,A,3,16,26,03,22,01,23,31,,,,,,1.42,1.13,0.87*0B
15 50 49.187326158 9,041217,,,A*72
15 50 49.302087991 57
15 50 49.416956823 $GPRMC,235023.000,A,3401.8822,N,11725.0140,W,0.42,141.84,041217,,,A*75
15 50 49.533927633 57
15 50 49.648818465 $GPVTG,141.84,T,,M,0.42,N,0.77,K,A*33
15 50 49.769204240 0140,W,0.42,141.84,041217,,,A*75
15 50 49.885968053 57
15 50 50.000772885 $GPGGA,235028.000,3401.8818,N,11725.0136,W,1,07,1.13,304.2,M,-32.8,M,,*5E
15 50 50.497385835
15 50 50.611903670 $GPGSA,A,3,16,26,03,22,01,23,31,,,,,,1.42,1.13,0.87*0B
15 50 50.732792441
15 50 50.846692282 $GPRMC,235028.000,A,3401.8818,N,11725.0136,W,0.29,147.69,041217,,,A*7E
15 50 50.962464105
15 50 51.075373956 $GPVTG,147.69,T,,M,0.29,N,0.54,K,A*3A
15 50 51.189932791
15 50 51.302744644 $GPGGA,235024.000,3401.8822,N,11725.0139,W,1,07,1.13,304.2,M,-32.8,M,,*54
15 50 51.803417552 $GPGSA,A,3,16,26,03,22,01,23,31,,,,,,1.42,1.13,0.87*0B
15 50 51.920629360 4.2,M,-32.8,M,,*54
15 50 52.036309184 $GPGSV,4,1,13,03,79,282,17,22,72,178,17,48,47,206,26,23,46,310,21*7D
15 50 52.157225954 ,*54
15 50 52.272416782 $GPGSV,4,2,13,26,45,090,24,16,40,136,21,31,26,045,21,01,21,215,17*75
15 50 52.390657580 ,*54
15 50 52.509474372 $GPGSV,4,3,13,09,17,292,,14,13,084,,07,06,233,,06,04,323,*72
15 50 52.627267174 5,17*75
15 50 52.743538991 ,*54
15 50 52.860423802 $GPGSV,4,4,13,11,02,208,17*45
15 50 52.976928617 ,084,,07,06,233,,06,04,323,*72
15 50 53.093781429 5,17*75
15 50 53.208620261 ,*54
15 50 53.324416083 $GPRMC,235024.000,A,3401.8822,N,11725.0139,W,0.45,146.97,041217,,,A*7E
15 50 53.441374894 54
15 50 53.556868719 $GPGGA,235027.000,3401.8818,N,11725.0137,W,1,07,1.13,304.2,M,-32.8,M,,*50
15 50 54.055698646 $GPGSA,A,3,16,26,03,22,01,23,31,,,,,,1.42,1.13,0.87*0B
15 50 54.175169431 4.2,M,-32.8,M,,*50
15 50 54.290902254 $GPRMC,235027.000,A,3401.8818,N,11725.0137,W,0.37,144.54,041217,,,A*72
15 50 54.408301060 50
15 50 54.525050873 $GPVTG,144.54,T,,M,0.37,N,0.69,K,A*36
15 50 54.642531678 0137,W,0.37,144.54,041217,,,A*72
15 50 54.762011463 50
15 50 54.877429289 $GPVTG,146.97,T,,M,0.45,N,0.84,K,A*3D
15 50 54.994702097 0137,W,0.37,144.54,041217,,,A*72
15 50 55.111189912 50
15 50 55.231065693 $GPGGA,235023.000,3401.8822,N,11725.0140,W,1,07,1.13,304.2,M,-32.8,M,,*5D
15 50 55.728971629 $GPGGA,235026.000,3401.8819,N,11725.0138,W,1,07,1.13,304.2,M,-32.8,M,,*5F
15 50 56.258745241 $GPGGA,235029.000,3401.8817,N,11725.0136,W,1,07,1.13,304.2,M,-32.8,M,,*50
15 50 56.814095593
15 50 56.933130382 $GPGSA,A,3,16,26,03,22,01,23,31,,,,,,1.42,1.13,0.87*0B
15 50 57.048925205
15 50 57.162037054 $GPGSV,4,1,13,03,79,282,17,22,72,178,17,48,47,206,,23,46,310,18*73
15 50 57.277596879
15 50 57.390995726 $GPGSV,4,2,13,26,46,090,23,16,40,136,20,31,26,045,20,01,21,215,15*73
15 50 57.507478541
15 50 57.621517382 $GPGSV,4,3,13,09,17,292,,14,13,084,,07,06,233,,06,04,323,*72
15 50 57.738098196
15 50 57.851672041 $GPGSV,4,4,13,11,02,208,17*45
15 50 57.969240845
15 50 58.083193686 $GPRMC,235029.000,A,3401.8817,N,11725.0136,W,0.22,150.18,041217,,,A*7B
15 50 58.206402433
15 50 58.319171286 $GPVTG,150.18,T,,M,0.22,N,0.40,K,A*34
15 50 58.435495103
15 50 58.549752941 $GPGSA,A,3,16,26,03,22,01,23,31,,,,,,1.42,1.13,0.87*0B
15 50 58.667142747 ÿÿÿÿÿÿÿ$GPRMC,235026.000,A,3401.8819,N,11725.0138,W,0.43,143.96,041217,,,A*77
15 50 58.786024538 $GPVTG,143.96,T,,M,0.43,N,0.79,K,A*3D
15 50 58.903081348 0138,W,0.43,143.96,041217,,,A*77
15 50 59.020128158 $GPGGA,235025.000,3401.8820,N,11725.0139,W,1,07,1.13,304.2,M,-32.8,M,,*57
15 50 59.555533712 $GPGSA,A,3,16,26,03,22,01,23,31,,,,,,1.42,1.13,0.87*0B
15 50 59.683413412 4.2,M,-32.8,M,,*57
15 50 59.805550170 $GPGGA,235030.000,3401.8816,N,11725.0136,W,1,07,1.13,304.2,M,-32.8,M,,*59
15 51 00.332509810
15 51 00.460521509 $GPGSA,A,3,16,26,03,22,01,23,31,,,,,,1.42,1.13,0.87*0B
15 51 00.577631318
15 51 00.691213162 $GPRMC,235030.000,A,3401.8816,N,11725.0136,W,0.16,158.04,041217,,,A*70
15 51 00.807542979
15 51 00.919941836 $GPVTG,158.04,T,,M,0.16,N,0.29,K,A*39
15 51 01.061759394
15 51 01.178992202 $GPRMC,235025.000,A,3401.8820,N,11725.0139,W,0.45,146.89,041217,,,A*72
15 51 01.297012001 $GPVTG,146.89,T,,M,0.45,N,0.83,K,A*35
15 51 01.414153810 0139,W,0.45,146.89,041217,,,A*72
15 51 01.531311619 $GPGSA,A,3,16,26,03,22,01,23,31,,,,,,1.42,1.13,0.87*0B
15 51 01.648466427 9,041217,,,A*72
15 51 01.765797234 $GPGGA,235031.000,3401.8816,N,11725.0136,W,1,07,1.13,304.2,M,-32.8,M,,*58
15 51 02.303931761
15 51 02.419240588 $GPGSA,A,3,16,26,03,22,01,23,31,,,,,,1.42,1.13,0.87*0B
15 51 02.535373407
15 51 02.654358197 $GPRMC,235031.000,A,3401.8816,N,11725.0136,W,0.13,190.09,041217,,,A*7D
15 51 02.769885022
15 51 02.883069871 $GPVTG,190.09,T,,M,0.13,N,0.25,K,A*39
15 51 02.998662695
15 51 03.112073542 $GPRMC,235023.000,A,3401.8822,N,11725.0140,W,0.42,141.84,041217,,,A*75
15 51 03.228358359 $GPVTG,141.84,T,,M,0.42,N,0.77,K,A*33
15 51 03.344541178 0140,W,0.42,141.84,041217,,,A*75
15 51 03.462458979 $GPGGA,235032.000,3401.8816,N,11725.0136,W,1,07,1.13,304.2,M,-32.8,M,,*5B
15 51 03.993459578
15 51 04.115403338 $GPGSA,A,3,16,26,03,22,01,23,31,,,,,,1.42,1.13,0.87*0B
15 51 04.235414118
15 51 04.348741965 $GPRMC,235032.000,A,3401.8816,N,11725.0136,W,0.20,210.58,041217,,,A*71
15 51 04.465315779
15 51 04.579092622 $GPVTG,210.58,T,,M,0.20,N,0.36,K,A*34
15 51 04.695553438
15 51 04.811603258 $GPGGA,235028.000,3401.8818,N,11725.0136,W,1,07,1.13,304.2,M,-32.8,M,,*5E
15 51 05.342169862 $GPGSA,A,3,16,26,03,22,01,23,31,,,,,,1.42,1.13,0.87*0B
15 51 05.472420537 4.2,M,-32.8,M,,*5E
15 51 05.589298348 $GPRMC,235028.000,A,3401.8818,N,11725.0136,W,0.29,147.69,041217,,,A*7E
15 51 05.711166109 5E
15 51 05.825943942 $GPVTG,147.69,T,,M,0.29,N,0.54,K,A*3A
15 51 05.942909752 0136,W,0.29,147.69,041217,,,A*7E
15 51 06.058928572 5E
15 51 06.172633416 $GPGGA,235033.000,3401.8815,N,11725.0136,W,1,07,1.13,304.2,M,-32.8,M,,*59
15 51 06.711646934
15 51 06.832659703 $GPGSA,A,3,16,26,03,22,01,23,31,,,,,,1.42,1.13,0.87*0B
15 51 06.947866532
15 51 07.060923382 $GPRMC,235033.000,A,3401.8815,N,11725.0136,W,0.30,221.23,041217,,,A*7C
15 51 07.180837162
15 51 07.294023011 $GPVTG,221.23,T,,M,0.30,N,0.56,K,A*3D
15 51 07.410111831
15 51 07.524689665 $GPGGA,235024.000,3401.8822,N,11725.0139,W,1,07,1.13,304.2,M,-32.8,M,,*54
15 51 08.064039180 $GPGSA,A,3,16,26,03,22,01,23,31,,,,,,1.42,1.13,0.87*0B
15 51 08.182514975 4.2,M,-32.8,M,,*54
15 51 08.298202799 $GPGSV,4,1,13,03,79,282,17,22,72,178,17,48,47,206,26,23,46,310,21*7D
15 51 08.415694604 ,*54
15 51 08.533092410 $GPGGA,235034.000,3401.8815,N,11725.0137,W,1,07,1.13,304.2,M,-32.8,M,,*5F
15 51 09.080800839
15 51 09.194442684 $GPGSA,A,3,16,26,03,22,01,23,31,,,,,,1.42,1.13,0.87*0B
15 51 09.309352515
15 51 09.423137358 $GPGSV,4,1,13,03,79,282,17,22,72,178,16,48,47,206,,23,46,310,18*72
15 51 09.539526174
15 51 09.654178008 $GPGSV,4,2,13,26,46,090,22,16,40,136,19,31,26,045,20,01,21,215,15*78
15 51 09.769919831
15 51 09.888485625 $GPGSV,4,3,13,09,17,292,,14,13,084,,07,06,233,,06,04,323,*72
15 51 10.004781442
15 51 10.118373287 $GPGSV,4,4,13,11,02,208,18*4A
15 51 10.237852072
15 51 10.350779924 $GPRMC,235034.000,A,3401.8815,N,11725.0137,W,0.38,227.77,041217,,,A*75
15 51 10.467260739
15 51 10.581707575 $GPVTG,227.77,T,,M,0.38,N,0.70,K,A*36
15 51 10.700661365
15 51 10.815844194 $GPGSV,4,2,13,26,45,090,24,16,40,136,21,31,26,045,21,01,21,215,17*75
15 51 10.932809004 $GPGSV,4,3,13,09,17,292,,14,13,084,,07,06,233,,06,04,323,*72
15 51 11.050038812 5,17*75
15 51 11.165712636 $GPGSV,4,4,13,11,02,208,17*45
15 51 11.280855465 ,084,,07,06,233,,06,04,323,*72
15 51 11.397201281 5,17*75
15 51 11.513903095 $GPGGA,235035.000,3401.8814,N,11725.0138,W,1,07,1.13,304.2,M,-32.8,M,,*50
15 51 12.060635534
15 51 12.174279378 $GPGSA,A,3,16,26,03,22,01,23,31,,,,,,1.42,1.13,0.87*0B
15 51 12.289401208
15 51 12.403610046 $GPRMC,235035.000,A,3401.8814,N,11725.0138,W,0.43,232.04,041217,,,A*76
15 51 12.520119861
15 51 12.634552697 $GPVTG,232.04,T,,M,0.43,N,0.80,K,A*35
15 51 12.750778515
15 51 12.864738356 $GPRMC,235024.000,A,3401.8822,N,11725.0139,W,0.45,146.97,041217,,,A*7E
15 51 12.981730167 $GPGGA,235027.000,3401.8818,N,11725.0137,W,1,07,1.13,304.2,M,-32.8,M,,*50
15 51 13.521252680 $GPGSA,A,3,16,26,03,22,01,23,31,,,,,,1.42,1.13,0.87*0B
15 51 13.643897432 4.2,M,-32.8,M,,*50
15 51 13.760985242 $GPRMC,235027.000,A,3401.8818,N,11725.0137,W,0.37,144.54,041217,,,A*72
15 51 13.877824053 50
15 51 13.993143880 $GPGGA,235036.000,3401.8813,N,11725.0139,W,1,07,1.13,304.2,M,-32.8,M,,*55
15 51 14.528528436
15 51 14.649639204 $GPGSA,A,3,16,26,03,22,01,23,31,,,,,,1.42,1.13,0.87*0B
15 51 14.770922970
15 51 14.888628773 $GPRMC,235036.000,A,3401.8813,N,11725.0139,W,0.50,227.19,041217,,,A*79
15 51 15.004921591
15 51 15.117855442 $GPVTG,227.19,T,,M,0.50,N,0.93,K,A*3D
15 51 15.232713274
15 51 15.345929122 $GPVTG,144.54,T,,M,0.37,N,0.69,K,A*36
15 51 15.464332918 ÿÿÿÿÿÿÿÿÿÿÿÿÿÿÿÿÿÿÿÿÿÿÿÿ$GPVTG,146.97,T,,M,0.45,N,0.84,K,A*3D
15 51 15.584288698 ÿÿÿÿÿÿÿÿÿÿÿÿÿÿÿÿÿÿÿÿÿÿÿÿ$GPGGA,235023.000,3401.8822,N,11725.0140,W,1,07,1.13,304.2,M,-32.8,M,,*5D
15 51 15.703867482 $GPGGA,235037.000,3401.8812,N,11725.0140,W,1,07,1.13,304.2,M,-32.8,M,,*5B
15 51 16.250077927
15 51 16.364170767 $GPGSA,A,3,16,26,03,22,01,23,31,,,,,,1.42,1.13,0.87*0B
15 51 16.480428584
15 51 16.594920420 $GPRMC,235037.000,A,3401.8812,N,11725.0140,W,0.55,231.80,041217,,,A*75
15 51 16.711331236
15 51 16.824159089 $GPVTG,231.80,T,,M,0.55,N,1.02,K,A*36
15 51 16.939413917
15 51 17.052176770 $GPGGA,235026.000,3401.8819,N,11725.0138,W,1,07,1.13,304.2,M,-32.8,M,,*5F
15 51 17.591106289 $GPGGA,235029.000,3401.8817,N,11725.0136,W,1,07,1.13,304.2,M,-32.8,M,,*50
15 51 18.134243765 $GPGSA,A,3,16,26,03,22,01,23,31,,,,,,1.42,1.13,0.87*0B
15 51 18.256470522 4.2,M,-32.8,M,,*50
15 51 18.372313344 $GPGGA,235038.000,3401.8811,N,11725.0142,W,1,07,1.13,304.2,M,-32.8,M,,*55
15 51 18.893456044
15 51 19.027369682 $GPGSA,A,3,16,26,03,22,01,23,31,,,,,,1.42,1.13,0.87*0B
15 51 19.143089505
15 51 19.260752308 $GPRMC,235038.000,A,3401.8811,N,11725.0142,W,0.55,235.02,041217,,,A*75
15 51 19.376609130
15 51 19.491236964 $GPVTG,235.02,T,,M,0.55,N,1.03,K,A*39
15 51 19.607742779
15 51 19.721844619 $GPGSV,4,1,13,03,79,282,17,22,72,178,17,48,47,206,,23,46,310,18*73
15 51 19.839467423 $GPGSV,4,2,13,26,46,090,23,16,40,136,20,31,26,045,20,01,21,215,15*73
15 51 19.959504202 $GPGSV,4,3,13,09,17,292,,14,13,084,,07,06,233,,06,04,323,*72
15 51 20.077236005 5,15*73
15 51 20.194193815 $GPGGA,235039.000,3401.8810,N,11725.0144,W,1,07,1.13,304.2,M,-32.8,M,,*53
15 51 20.721057457
15 51 20.852981115 $GPGSA,A,3,16,26,03,22,01,23,31,,,,,,1.42,1.13,0.87*0B
15 51 20.967827947
15 51 21.080513801 $GPGSV,4,1,13,03,79,281,16,22,72,178,16,48,47,206,28,23,46,310,18*7A
15 51 21.195987627
15 51 21.309089477 $GPGSV,4,2,13,26,46,090,22,16,40,136,19,31,26,045,20,01,21,215,16*7B
15 51 21.427401273
15 51 21.544093087 $GPGSV,4,3,13,09,17,292,,14,13,084,,07,06,233,,06,04,323,*72
15 51 21.660121906
15 51 21.774424744 $GPGSV,4,4,13,11,02,208,19*4B
15 51 21.889304576
15 51 22.002529424 $GPRMC,235039.000,A,3401.8810,N,11725.0144,W,0.60,243.89,041217,,,A*77
15 51 22.117982250
15 51 22.235264057 $GPVTG,243.89,T,,M,0.60,N,1.11,K,A*3E
15 51 22.350693883
15 51 22.465122720 $GPGSV,4,4,13,11,02,208,17*45
15 51 22.582932521 ÿÿÿÿÿÿÿÿÿÿÿÿÿÿÿÿÿÿÿÿÿÿÿÿÿÿÿÿÿÿÿÿ$GPRMC,235029.000,A,3401.8817,N,11725.0136,W,0.22,150.18,041217,,,A*7B
15 51 22.703009300 $GPVTG,150.18,T,,M,0.22,N,0.40,K,A*34
15 51 22.820026110 0136,W,0.22,150.18,041217,,,A*7B
15 51 22.937115919 $GPGSA,A,3,16,26,03,22,01,23,31,,,,,,1.42,1.13,0.87*0B
15 51 23.054022730 8,041217,,,A*7B
15 51 23.169781553 $GPGGA,235040.000,3401.8811,N,11725.0149,W,1,07,1.13,304.2,M,-32.8,M,,*51
15 51 23.703906121
15 51 23.828498854 $GPGSA,A,3,16,26,03,22,01,23,31,,,,,,1.42,1.13,0.87*0B
15 51 23.944847671
15 51 24.057528525 $GPRMC,235040.000,A,3401.8811,N,11725.0149,W,0.64,248.30,041217,,,A*78
15 51 24.172911351
15 51 24.285705204 $GPVTG,248.30,T,,M,0.64,N,1.19,K,A*3B
15 51 24.404496996
15 51 24.520578815 $GPRMC,235026.000,A,3401.8819,N,11725.0138,W,0.43,143.96,041217,,,A*77
15 51 24.638209619 $GPVTG,143.96,T,,M,0.43,N,0.79,K,A*3D
15 51 24.755353428 0138,W,0.43,143.96,041217,,,A*77
15 51 24.872626235 $GPGGA,235041.000,3401.8811,N,11725.0153,W,1,07,1.13,304.2,M,-32.8,M,,*5B
15 51 25.414595723
15 51 25.537972468 $GPGSA,A,3,16,26,03,22,01,23,31,,,,,,1.42,1.13,0.87*0B
15 51 25.654558283
15 51 25.767932130 $GPRMC,235041.000,A,3401.8811,N,11725.0153,W,0.66,252.17,041217,,,A*7E
15 51 25.883861951
15 51 25.996781802 $GPVTG,252.17,T,,M,0.66,N,1.21,K,A*3C
15 51 26.111930631
15 51 26.225456477 $GPGGA,235025.000,3401.8820,N,11725.0139,W,1,07,1.13,304.2,M,-32.8,M,,*57
15 51 26.762856011 $GPGSA,A,3,16,26,03,22,01,23,31,,,,,,1.42,1.13,0.87*0B
15 51 26.892123696 4.2,M,-32.8,M,,*57
15 51 27.008088517 $GPGGA,235030.000,3401.8816,N,11725.0136,W,1,07,1.13,304.2,M,-32.8,M,,*59
15 51 27.544031067 $GPGSA,A,3,16,26,03,22,01,23,31,,,,,,1.42,1.13,0.87*0B
15 51 27.666424822 4.2,M,-32.8,M,,*59
15 51 27.783262634 $GPGGA,235042.000,3401.8810,N,11725.0159,W,1,07,1.13,304.2,M,-32.8,M,,*53
15 51 28.317309202
15 51 28.440614948 $GPGSA,A,3,16,26,03,22,01,23,31,,,,,,1.42,1.13,0.87*0B
15 51 28.557417760
15 51 28.671988595 $GPRMC,235042.000,A,3401.8810,N,11725.0159,W,0.69,253.63,041217,,,A*7B
15 51 28.788105414
15 51 28.900605270 $GPVTG,253.63,T,,M,0.69,N,1.29,K,A*39
15 51 29.015862098
15 51 29.129186945 $GPRMC,235030.000,A,3401.8816,N,11725.0136,W,0.16,158.04,041217,,,A*70
15 51 29.245053767 $GPVTG,158.04,T,,M,0.16,N,0.29,K,A*39
15 51 29.361421583 0136,W,0.16,158.04,041217,,,A*70
15 51 29.480523372 $GPRMC,235025.000,A,3401.8820,N,11725.0139,W,0.45,146.89,041217,,,A*72
15 51 29.597675181 $GPVTG,146.89,T,,M,0.45,N,0.83,K,A*35
15 51 29.719534941 0139,W,0.45,146.89,041217,,,A*72
15 51 29.836439752 $GPGGA,235043.000,3401.8809,N,11725.0165,W,1,07,1.13,304.2,M,-32.8,M,,*55
15 51 30.374739278
15 51 30.495405051 $GPGSA,A,3,16,26,03,22,01,23,31,,,,,,1.42,1.13,0.87*0B
15 51 30.611530870
15 51 30.725575710 $GPRMC,235043.000,A,3401.8809,N,11725.0165,W,0.76,253.19,041217,,,A*7E
15 51 30.841773528
15 51 30.954982377 $GPVTG,253.19,T,,M,0.76,N,1.40,K,A*35
15 51 31.070427203
15 51 31.187453013 $GPGSA,A,3,16,26,03,22,01,23,31,,,,,,1.42,1.13,0.87*0B
15 51 31.303172836 ÿÿÿÿÿÿÿ$GPGGA,235031.000,3401.8816,N,11725.0136,W,1,07,1.13,304.2,M,-32.8,M,,*58
15 51 31.421647631 $GPGSA,A,3,16,26,03,22,01,23,31,,,,,,1.42,1.13,0.87*0B
15 51 31.538706440 4.2,M,-32.8,M,,*58
15 51 31.655623251 $GPGGA,235044.000,3401.8809,N,11725.0173,W,1,07,1.13,304.2,M,-32.8,M,,*55
15 51 32.183461883
15 51 32.307927617 $GPGSA,A,3,16,26,03,22,01,23,31,,,,,,1.42,1.13,0.87*0B
15 51 32.423996437
15 51 32.539140266 $GPGSV,4,1,13,03,79,281,16,22,72,178,16,48,47,206,26,23,46,310,18*74
15 51 32.657289064
15 51 32.775920858 $GPGSV,4,2,13,26,46,090,22,16,40,136,19,31,26,045,20,01,21,215,16*7B
15 51 32.891007687
15 51 33.003426544 $GPGSV,4,3,13,09,17,292,,14,13,084,,07,06,233,,06,04,323,*72
15 51 33.118955369
15 51 33.231779222 $GPGSV,4,4,13,11,02,208,18*4A
15 51 33.346902051
15 51 33.461160889 $GPRMC,235044.000,A,3401.8809,N,11725.0173,W,0.81,254.59,041217,,,A*75
15 51 33.577707703
15 51 33.691903542 $GPVTG,254.59,T,,M,0.81,N,1.51,K,A*3E
15 51 33.808403357
15 51 33.922357198 $GPRMC,235031.000,A,3401.8816,N,11725.0136,W,0.13,190.09,041217,,,A*7D
15 51 34.039690005 $GPVTG,190.09,T,,M,0.13,N,0.25,K,A*39
15 51 34.155349829 0136,W,0.13,190.09,041217,,,A*7D
15 51 34.275812604 $GPRMC,235023.000,A,3401.8822,N,11725.0140,W,0.42,141.84,041217,,,A*75
15 51 34.393180410 $GPVTG,141.84,T,,M,0.42,N,0.77,K,A*33
15 51 34.510660215 0140,W,0.42,141.84,041217,,,A*75
15 51 34.627814024 $GPGGA,235045.000,3401.8807,N,11725.0182,W,1,07,1.13,304.2,M,-32.8,M,,*54
15 51 35.163908572
15 51 35.280617385 $GPGSA,A,3,16,26,03,22,01,23,31,,,,,,1.42,1.13,0.87*0B
15 51 35.400070170
15 51 35.514385007 $GPRMC,235045.000,A,3401.8807,N,11725.0182,W,0.92,252.31,041217,,,A*7E
15 51 35.631030821
15 51 35.749283618 $GPVTG,252.31,T,,M,0.92,N,1.70,K,A*37
15 51 35.864283449
15 51 35.977609296 $GPGGA,235032.000,3401.8816,N,11725.0136,W,1,07,1.13,304.2,M,-32.8,M,,*5B
15 51 36.512570856 $GPGSA,A,3,16,26,03,22,01,23,31,,,,,,1.42,1.13,0.87*0B
15 51 36.639939560 4.2,M,-32.8,M,,*5B
15 51 36.757010370 $GPGGA,235046.000,3401.8806,N,11725.0190,W,1,07,1.13,304.2,M,-32.8,M,,*55
15 51 37.293923909
15 51 37.413175696 $GPGSA,A,3,16,26,03,22,01,23,31,,,,,,1.42,1.13,0.87*0B
15 51 37.529095517
15 51 37.642753361 $GPRMC,235046.000,A,3401.8806,N,11725.0190,W,0.94,251.31,041217,,,A*7A
15 51 37.759885170
15 51 37.873028020 $GPVTG,251.31,T,,M,0.94,N,1.73,K,A*31
15 51 37.988043850
15 51 38.101272698 $GPRMC,235032.000,A,3401.8816,N,11725.0136,W,0.20,210.58,041217,,,A*71
15 51 38.217225519 $GPVTG,210.58,T,,M,0.20,N,0.36,K,A*34
15 51 38.332119351 0136,W,0.20,210.58,041217,,,A*71
15 51 38.449033162 $GPGGA,235028.000,3401.8818,N,11725.0136,W,1,07,1.13,304.2,M,-32.8,M,,*5E
15 51 38.994927610 $GPGSA,A,3,16,26,03,22,01,23,31,,,,,,1.42,1.13,0.87*0B
15 51 39.118407354 4.2,M,-32.8,M,,*5E
15 51 39.238407134 $GPRMC,235028.000,A,3401.8818,N,11725.0136,W,0.29,147.69,041217,,,A*7E
15 51 39.356419933 5E
15 51 39.472931748 $GPGGA,235047.000,3401.8804,N,11725.0195,W,1,07,1.13,304.2,M,-32.8,M,,*53
15 51 40.033722045
15 51 40.151772845 $GPGSA,A,3,16,26,03,22,01,23,31,,,,,,1.42,1.13,0.87*0B
15 51 40.271376628
15 51 40.385510467 $GPRMC,235047.000,A,3401.8804,N,11725.0195,W,0.95,250.50,041217,,,A*7B
15 51 40.505614246
15 51 40.619841084 $GPVTG,250.50,T,,M,0.95,N,1.76,K,A*33
15 51 40.736045902
15 51 40.849757746 $GPVTG,147.69,T,,M,0.29,N,0.54,K,A*3A
15 51 40.966367560 ÿÿÿÿÿÿÿÿÿÿÿÿÿÿÿÿÿÿÿÿÿÿÿÿ$GPGGA,235033.000,3401.8815,N,11725.0136,W,1,07,1.13,304.2,M,-32.8,M,,*59
15 51 41.084896355 $GPGSA,A,3,16,26,03,22,01,23,31,,,,,,1.42,1.13,0.87*0B
15 51 41.200557178 4.2,M,-32.8,M,,*59
15 51 41.316701997 $GPGGA,235048.000,3401.8802,N,11725.0200,W,1,07,1.13,304.2,M,-32.8,M,,*55
15 51 41.863635435
15 51 41.977757274 $GPGSA,A,3,16,26,03,22,01,23,31,,,,,,1.42,1.13,0.87*0B
15 51 42.093678095
15 51 42.206901944 $GPRMC,235048.000,A,3401.8802,N,11725.0200,W,0.97,247.88,041217,,,A*7C
15 51 42.322201771
15 51 42.436152612 $GPVTG,247.88,T,,M,0.97,N,1.80,K,A*3B
15 51 42.552195432
15 51 42.667053264 $GPRMC,235033.000,A,3401.8815,N,11725.0136,W,0.30,221.23,041217,,,A*7C
15 51 42.784253072 $GPVTG,221.23,T,,M,0.30,N,0.56,K,A*3D
15 51 42.900160893 0136,W,0.30,221.23,041217,,,A*7C
15 51 43.016811707 $GPGGA,235024.000,3401.8822,N,11725.0139,W,1,07,1.13,304.2,M,-32.8,M,,*54
15 51 43.561744165 $GPGSA,A,3,16,26,03,22,01,23,31,,,,,,1.42,1.13,0.87*0B
15 51 43.679526967 4.2,M,-32.8,M,,*54
15 51 43.795912783 $GPGGA,235049.000,3401.8802,N,11725.0206,W,1,07,1.13,304.2,M,-32.8,M,,*52
15 51 44.321272440
15 51 44.448367148 $GPGSA,A,3,16,26,03,22,01,23,31,,,,,,1.42,1.13,0.87*0B
15 51 44.565107960
15 51 44.679454798 $GPGSV,4,1,13,03,79,281,16,22,72,178,17,48,47,206,25,23,46,310,19*77
15 51 44.800816563
15 51 44.914571406 $GPGSV,4,2,13,26,46,090,22,16,40,136,19,31,26,045,20,01,21,215,17*7A
15 51 45.030974223
15 51 45.144732066 $GPGSV,4,3,13,09,17,292,,14,13,084,,07,06,233,,06,04,323,*72
15 51 45.261916874
15 51 45.376435709 $GPGSV,4,4,13,11,02,208,18*4A
15 51 45.492513529
15 51 45.609660337 $GPRMC,235049.000,A,3401.8802,N,11725.0206,W,0.98,251.28,041217,,,A*79
15 51 45.725908155
15 51 45.839021005 $GPVTG,251.28,T,,M,0.98,N,1.82,K,A*3B
15 51 45.955002825
15 51 46.069626659 $GPGSV,4,1,13,03,79,282,17,22,72,178,17,48,47,206,26,23,46,310,21*7D
15 51 46.185491481 $GPGGA,235034.000,3401.8815,N,11725.0137,W,1,07,1.13,304.2,M,-32.8,M,,*5F
15 51 46.724826996 $GPGSA,A,3,16,26,03,22,01,23,31,,,,,,1.42,1.13,0.87*0B
15 51 46.849616727 4.2,M,-32.8,M,,*5F
15 51 46.965930544 $GPGGA,235050.000,3401.8802,N,11725.0211,W,1,07,1.13,304.2,M,-32.8,M,,*5C
15 51 47.503404078
15 51 47.619680895 $GPGSA,A,3,16,26,03,22,01,23,31,,,,,,1.42,1.13,0.87*0B
15 51 47.740323668
15 51 47.853827514 $GPRMC,235050.000,A,3401.8802,N,11725.0211,W,0.97,252.96,041217,,,A*7E
15 51 47.969349339
15 51 48.082738186 $GPVTG,252.96,T,,M,0.97,N,1.80,K,A*30
15 51 48.197670017
15 51 48.310670868 $GPGSV,4,1,13,03,79,282,17,22,72,178,16,48,47,206,,23,46,310,18*72
15 51 48.428532669 $GPGSV,4,2,13,26,46,090,22,16,40,136,19,31,26,045,20,01,21,215,15*78
15 51 48.546528469 $GPGSV,4,3,13,09,17,292,,14,13,084,,07,06,233,,06,04,323,*72
15 51 48.664163273 5,15*78
15 51 48.781223082 $GPGGA,235051.000,3401.8802,N,11725.0216,W,1,07,1.13,304.2,M,-32.8,M,,*5A
15 51 49.323655566
15 51 49.439338389 $GPGSA,A,3,16,26,03,22,01,23,31,,,,,,1.42,1.13,0.87*0B
15 51 49.555960203
15 51 49.670741036 $GPRMC,235051.000,A,3401.8802,N,11725.0216,W,0.98,253.47,041217,,,A*7A
15 51 49.786973854
15 51 49.901375690 $GPVTG,253.47,T,,M,0.98,N,1.82,K,A*30
15 51 50.017430510
15 51 50.130112364 $GPGSV,4,4,13,11,02,208,18*4A
15 51 50.246721178 ÿÿÿÿÿÿÿÿÿÿÿÿÿÿÿÿÿÿÿÿÿÿÿÿÿÿÿÿÿÿÿÿ$GPRMC,235034.000,A,3401.8815,N,11725.0137,W,0.38,227.77,041217,,,A*75
15 51 50.366377961 $GPVTG,227.77,T,,M,0.38,N,0.70,K,A*36
15 51 50.483358771 0137,W,0.38,227.77,041217,,,A*75
15 51 50.600724578 $GPGGA,235052.000,3401.8802,N,11725.0219,W,1,07,1.13,304.2,M,-32.8,M,,*56
15 51 51.143721055
15 51 51.261264860 $GPGSA,A,3,16,26,03,22,01,23,31,,,,,,1.42,1.13,0.87*0B
15 51 51.376502688
15 51 51.490901524 $GPRMC,235052.000,A,3401.8802,N,11725.0219,W,0.93,255.54,041217,,,A*79
15 51 51.607429339
15 51 51.721186182 $GPVTG,255.54,T,,M,0.93,N,1.72,K,A*30
15 51 51.836931005
15 51 51.949711858 $GPGSV,4,2,13,26,45,090,24,16,40,136,21,31,26,045,21,01,21,215,17*75
15 51 52.066935666 $GPGSV,4,3,13,09,17,292,,14,13,084,,07,06,233,,06,04,323,*72
15 51 52.182895487 5,17*75
15 51 52.303312262 $GPGSV,4,4,13,11,02,208,17*45
15 51 52.420760068 ,084,,07,06,233,,06,04,323,*72
15 51 52.537687878 5,17*75
15 51 52.654687689 $GPGGA,235035.000,3401.8814,N,11725.0138,W,1,07,1.13,304.2,M,-32.8,M,,*50
15 51 53.192785216 $GPGSA,A,3,16,26,03,22,01,23,31,,,,,,1.42,1.13,0.87*0B
15 51 53.311275011 4.2,M,-32.8,M,,*50
15 51 53.428444819 $GPGGA,235053.000,3401.8801,N,11725.0221,W,1,07,1.13,304.2,M,-32.8,M,,*5F
15 51 53.972619285
15 51 54.086531127 $GPGSA,A,3,16,26,03,22,01,23,31,,,,,,1.42,1.13,0.87*0B
15 51 54.201841954
15 51 54.315313800 $GPRMC,235053.000,A,3401.8801,N,11725.0221,W,0.86,257.68,041217,,,A*79
15 51 54.431629617
15 51 54.545899455 $GPVTG,257.68,T,,M,0.86,N,1.59,K,A*30
15 51 54.663448259
15 51 54.777753097 $GPRMC,235035.000,A,3401.8814,N,11725.0138,W,0.43,232.04,041217,,,A*76
15 51 54.895608898 $GPVTG,232.04,T,,M,0.43,N,0.80,K,A*35
15 51 55.012964705 0138,W,0.43,232.04,041217,,,A*76
15 51 55.130183513 $GPGGA,235054.000,3401.8801,N,11725.0225,W,1,07,1.13,304.2,M,-32.8,M,,*5C
15 51 55.667969043
15 51 55.792748774 $GPGSA,A,3,16,26,03,22,01,23,31,,,,,,1.42,1.13,0.87*0B
15 51 55.909171590
15 51 56.022121441 $GPGSV,4,1,13,03,79,281,16,22,72,178,17,48,47,206,24,23,46,310,19*76
15 51 56.138276260
15 51 56.251322110 $GPGSV,4,2,13,26,46,090,22,16,40,136,19,31,26,045,21,01,21,215,13*7F
15 51 56.367695927
15 51 56.481909765 $GPGSV,4,3,13,09,17,292,,14,13,084,,07,06,233,,06,04,323,*72
15 51 56.598405581
15 51 56.716616378 $GPGSV,4,4,13,11,02,208,19*4B
15 51 56.832727198
15 51 56.946264043 $GPRMC,235054.000,A,3401.8801,N,11725.0225,W,0.85,259.19,041217,,,A*71
15 51 57.062001866
15 51 57.174475722 $GPVTG,259.19,T,,M,0.85,N,1.57,K,A*35
15 51 57.288977557
15 51 57.402457403 $GPRMC,235024.000,A,3401.8822,N,11725.0139,W,0.45,146.97,041217,,,A*7E
15 51 57.520594202 $GPGGA,235027.000,3401.8818,N,11725.0137,W,1,07,1.13,304.2,M,-32.8,M,,*50
15 51 58.054345774 $GPGSA,A,3,16,26,03,22,01,23,31,,,,,,1.42,1.13,0.87*0B
15 51 58.177830518 4.2,M,-32.8,M,,*50
15 51 58.298658289 $GPRMC,235027.000,A,3401.8818,N,11725.0137,W,0.37,144.54,041217,,,A*72
15 51 58.415347102 50
15 51 58.530316933 $GPGGA,235055.000,3401.8799,N,11725.0228,W,1,07,1.13,304.2,M,-32.8,M,,*5E
15 51 59.062388522
15 51 59.182839297 $GPGSA,A,3,16,26,03,22,01,23,31,,,,,,1.42,1.13,0.87*0B
15 51 59.298015125
15 51 59.412190964 $GPRMC,235055.000,A,3401.8799,N,11725.0228,W,0.84,258.06,041217,,,A*7D
15 51 59.528867777
15 51 59.643770609 $GPVTG,258.06,T,,M,0.84,N,1.55,K,A*39
15 51 59.764929377
15 51 59.879385213 $GPGGA,235036.000,3401.8813,N,11725.0139,W,1,07,1.13,304.2,M,-32.8,M,,*55
15 52 00.420272712 $GPGSA,A,3,16,26,03,22,01,23,31,,,,,,1.42,1.13,0.87*0B
15 52 00.538276512 4.2,M,-32.8,M,,*55
15 52 00.655291322 $GPRMC,235036.000,A,3401.8813,N,11725.0139,W,0.50,227.19,041217,,,A*79
15 52 00.771149143 55
15 52 00.887312962 $GPGGA,235056.000,3401.8797,N,11725.0231,W,1,07,1.13,304.2,M,-32.8,M,,*5B
15 52 01.443399307
15 52 01.573848980 $GPGSA,A,3,16,26,03,22,01,23,31,,,,,,1.42,1.13,0.87*0B
15 52 01.689352805
15 52 01.802574654 $GPRMC,235056.000,A,3401.8797,N,11725.0231,W,0.84,251.54,041217,,,A*76
15 52 01.918910471
15 52 02.031772323 $GPVTG,251.54,T,,M,0.84,N,1.55,K,A*37
15 52 02.146988151
15 52 02.259759004 $GPVTG,227.19,T,,M,0.50,N,0.93,K,A*3D
15 52 02.380215779 ÿÿÿÿÿÿÿÿÿÿÿÿÿÿÿÿÿÿÿÿÿÿÿÿ$GPVTG,144.54,T,,M,0.37,N,0.69,K,A*36
15 52 02.500005561 ÿÿÿÿÿÿÿÿÿÿÿÿÿÿÿÿÿÿÿÿÿÿÿÿ$GPVTG,146.97,T,,M,0.45,N,0.84,K,A*3D
15 52 02.619664344 ÿÿÿÿÿÿÿÿÿÿÿÿÿÿÿÿÿÿÿÿÿÿÿÿ$GPGGA,235057.000,3401.8793,N,11725.0234,W,1,07,1.13,304.2,M,-32.8,M,,*5B
15 52 02.743457085
15 52 02.857647923 $GPGSA,A,3,16,26,03,22,01,23,31,,,,,,1.42,1.13,0.87*0B
15 52 02.974410736
15 52 03.088108580 $GPRMC,235057.000,A,3401.8793,N,11725.0234,W,0.84,247.27,041217,,,A*75
15 52 03.203166409
15 52 03.319298228 $GPVTG,247.27,T,,M,0.84,N,1.55,K,A*34
15 52 03.437710024
15 52 03.552456857 $GPGGA,235023.000,3401.8822,N,11725.0140,W,1,07,1.13,304.2,M,-32.8,M,,*5D
15 52 04.092596364 $GPGGA,235037.000,3401.8812,N,11725.0140,W,1,07,1.13,304.2,M,-32.8,M,,*5B
15 52 04.629558903 $GPGSA,A,3,16,26,03,22,01,23,31,,,,,,1.42,1.13,0.87*0B
15 52 04.758836588 4.2,M,-32.8,M,,*5B
15 52 04.876565391 $GPGGA,235058.000,3401.8793,N,11725.0237,W,1,07,1.13,304.2,M,-32.8,M,,*57
15 52 05.406730999
15 52 05.534583699 $GPGSA,A,3,16,26,03,22,01,23,31,,,,,,1.42,1.13,0.87*0B
15 52 05.650386521
15 52 05.768002325 $GPRMC,235058.000,A,3401.8793,N,11725.0237,W,0.79,247.29,041217,,,A*75
15 52 05.883972145
15 52 05.999914966 $GPVTG,247.29,T,,M,0.79,N,1.47,K,A*3B
15 52 06.114706799
15 52 06.227574651 $GPRMC,235037.000,A,3401.8812,N,11725.0140,W,0.55,231.80,041217,,,A*75
15 52 06.343931468 $GPVTG,231.80,T,,M,0.55,N,1.02,K,A*36
15 52 06.464480242 0140,W,0.55,231.80,041217,,,A*75
15 52 06.585372012 $GPGGA,235026.000,3401.8819,N,11725.0138,W,1,07,1.13,304.2,M,-32.8,M,,*5F
15 52 07.123963535 $GPGGA,235029.000,3401.8817,N,11725.0136,W,1,07,1.13,304.2,M,-32.8,M,,*50
15 52 07.664050042 $GPGSA,A,3,16,26,03,22,01,23,31,,,,,,1.42,1.13,0.87*0B
15 52 07.789732764 4.2,M,-32.8,M,,*50
15 52 07.906546576 $GPGGA,235059.000,3401.8791,N,11725.0235,W,1,07,1.13,304.2,M,-32.8,M,,*56
15 52 08.436195189
15 52 08.560846921 $GPGSA,A,3,16,26,03,22,01,23,31,,,,,,1.42,1.13,0.87*0B
15 52 08.677356736
15 52 08.795387536 $GPGSV,3,1,12,03,79,281,16,22,71,177,17,23,46,310,19,26,46,090,22*7E
15 52 08.911261358
15 52 09.024246209 $GPGSV,3,2,12,16,40,136,18,31,26,045,19,01,21,215,13,09,17,292,*7A
15 52 09.139532036
15 52 09.252575886 $GPGSV,3,3,12,14,13,084,,07,06,233,,06,04,323,,11,02,208,19*72
15 52 09.367556717
15 52 09.481553558 $GPRMC,235059.000,A,3401.8791,N,11725.0235,W,0.67,238.37,041217,,,A*7C
15 52 09.598685366
15 52 09.712781206 $GPVTG,238.37,T,,M,0.67,N,1.24,K,A*36
15 52 09.829510019
15 52 09.944144853 $GPGGA,235038.000,3401.8811,N,11725.0142,W,1,07,1.13,304.2,M,-32.8,M,,*55
15 52 10.486280339 $GPGSA,A,3,16,26,03,22,01,23,31,,,,,,1.42,1.13,0.87*0B
15 52 10.609779083 4.2,M,-32.8,M,,*55
15 52 10.725847903 $GPRMC,235038.000,A,3401.8811,N,11725.0142,W,0.55,235.02,041217,,,A*75
15 52 10.841718725 55
15 52 10.956398558 $GPGGA,235100.000,3401.8787,N,11725.0234,W,1,07,1.13,304.2,M,-32.8,M,,*5D
15 52 11.486684165
15 52 11.612612885 $GPGSA,A,3,16,26,03,22,01,23,31,,,,,,1.42,1.13,0.87*0B
15 52 11.734147649
15 52 11.847813493 $GPRMC,235100.000,A,3401.8787,N,11725.0234,W,0.69,229.54,041217,,,A*7C
15 52 11.964081310
15 52 12.077432157 $GPVTG,229.54,T,,M,0.69,N,1.27,K,A*3E
15 52 12.192179990
15 52 12.305395839 $GPVTG,235.02,T,,M,0.55,N,1.03,K,A*39
15 52 12.424032632 ÿÿÿÿÿÿÿÿÿÿÿÿÿÿÿÿÿÿÿÿÿÿÿÿ$GPGSV,4,1,13,03,79,282,17,22,72,178,17,48,47,206,,23,46,310,18*73
15 52 12.543826414 $GPGGA,235101.000,3401.8784,N,11725.0231,W,1,07,1.13,304.2,M,-32.8,M,,*5A
15 52 13.082925931
15 52 13.197062771 $GPGSA,A,3,16,26,03,22,01,23,31,,,,,,1.42,1.13,0.87*0B
15 52 13.317152549
15 52 13.431854383 $GPRMC,235101.000,A,3401.8784,N,11725.0231,W,0.63,220.40,041217,,,A*7D
15 52 13.548382198
15 52 13.663189030 $GPVTG,220.40,T,,M,0.63,N,1.17,K,A*3B
15 52 13.779470847
15 52 13.892567697 $GPGSV,4,2,13,26,46,090,23,16,40,136,20,31,26,045,20,01,21,215,15*73
15 52 14.010520498 $GPGSV,4,3,13,09,17,292,,14,13,084,,07,06,233,,06,04,323,*72
15 52 14.127133312 5,15*73
15 52 14.242909134 $GPGGA,235039.000,3401.8810,N,11725.0144,W,1,07,1.13,304.2,M,-32.8,M,,*53
15 52 14.781032661 $GPGSA,A,3,16,26,03,22,01,23,31,,,,,,1.42,1.13,0.87*0B
15 52 14.909361356 4.2,M,-32.8,M,,*53
15 52 15.027110159 $GPGSV,4,1,13,03,79,281,16,22,72,178,16,48,47,206,28,23,46,310,18*7A
15 52 15.143166978 ,*53
15 52 15.258812802 $GPGGA,235102.000,3401.8783,N,11725.0227,W,1,07,1.13,304.2,M,-32.8,M,,*59
15 52 15.803127267
15 52 15.917151107 $GPGSA,A,3,16,26,03,22,01,23,31,,,,,,1.42,1.13,0.87*0B
15 52 16.032971929
15 52 16.149827741 $GPRMC,235102.000,A,3401.8783,N,11725.0227,W,0.54,205.60,041217,,,A*7F
15 52 16.269173527
15 52 16.383027369 $GPVTG,205.60,T,,M,0.54,N,1.00,K,A*3C
15 52 16.499018189
15 52 16.613221028 $GPGSV,4,2,13,26,46,090,22,16,40,136,19,31,26,045,20,01,21,215,16*7B
15 52 16.730854832 $GPGSV,4,3,13,09,17,292,,14,13,084,,07,06,233,,06,04,323,*72
15 52 16.848122639 5,16*7B
15 52 16.964369457 $GPGSV,4,4,13,11,02,208,19*4B
15 52 17.079981281 ,084,,07,06,233,,06,04,323,*72
15 52 17.195479106 5,16*7B
15 52 17.311710924 $GPGGA,235103.000,3401.8782,N,11725.0224,W,1,07,1.13,304.2,M,-32.8,M,,*5A
15 52 17.854311406
15 52 17.972106208 $GPGSA,A,3,16,26,03,22,01,23,31,,,,,,1.42,1.13,0.87*0B
15 52 18.087237037
15 52 18.199734893 $GPRMC,235103.000,A,3401.8782,N,11725.0224,W,0.48,202.45,041217,,,A*71
15 52 18.315136719
15 52 18.428749564 $GPVTG,202.45,T,,M,0.48,N,0.89,K,A*31
15 52 18.545224379
15 52 18.660342208 $GPRMC,235039.000,A,3401.8810,N,11725.0144,W,0.60,243.89,041217,,,A*77
15 52 18.778584006 $GPVTG,243.89,T,,M,0.60,N,1.11,K,A*3E
15 52 18.894968822 0144,W,0.60,243.89,041217,,,A*77
15 52 19.011550637 $GPGSV,4,4,13,11,02,208,17*45
15 52 19.127258460 ,K,A*3E
15 52 19.242630287 0144,W,0.60,243.89,041217,,,A*77
15 52 19.363712055 $GPGGA,235104.000,3401.8781,N,11725.0222,W,1,07,1.13,304.2,M,-32.8,M,,*58
15 52 19.902076580
15 52 20.019874382 $GPGSA,A,3,16,26,03,22,01,23,31,,,,,,1.42,1.13,0.87*0B
15 52 20.134874212
15 52 20.248340058 $GPGSV,3,1,12,03,79,281,16,22,71,177,17,23,46,310,19,26,46,089,22*76
15 52 20.364436878
15 52 20.478952713 $GPGSV,3,2,12,16,40,136,19,31,26,045,20,01,21,215,15,09,17,292,*77
15 52 20.595384529
15 52 20.709878364 $GPGSV,3,3,12,14,13,084,,07,06,233,,06,04,323,,11,02,208,20*78
15 52 20.831492128
15 52 20.945834965 $GPRMC,235104.000,A,3401.8781,N,11725.0222,W,0.44,199.44,041217,,,A*7F
15 52 21.062776775
15 52 21.178337600 $GPVTG,199.44,T,,M,0.44,N,0.81,K,A*35
15 52 21.292785436
15 52 21.406677278 $GPRMC,235029.000,A,3401.8817,N,11725.0136,W,0.22,150.18,041217,,,A*7B
15 52 21.523855086 $GPVTG,150.18,T,,M,0.22,N,0.40,K,A*34
15 52 21.640954895 0136,W,0.22,150.18,041217,,,A*7B
15 52 21.758795697 $GPGSA,A,3,16,26,03,22,01,23,31,,,,,,1.42,1.13,0.87*0B
15 52 21.875396511 8,041217,,,A*7B
15 52 21.990726338 $GPGGA,235040.000,3401.8811,N,11725.0149,W,1,07,1.13,304.2,M,-32.8,M,,*51
15 52 22.532690826 $GPGGA,235105.000,3401.8782,N,11725.0217,W,1,07,1.13,304.2,M,-32.8,M,,*5C
15 52 23.073714324
15 52 23.187607166 $GPGSA,A,3,16,26,03,22,01,23,31,,,,,,1.42,1.13,0.87*0B
15 52 23.302381998
15 52 23.417150831 $GPRMC,235105.000,A,3401.8782,N,11725.0217,W,0.33,188.03,041217,,,A*78
15 52 23.533854644
15 52 23.649056473 $GPVTG,188.03,T,,M,0.33,N,0.61,K,A*38
15 52 23.770500238
15 52 23.884187081 $GPGSA,A,3,16,26,03,22,01,23,31,,,,,,1.42,1.13,0.87*0B
15 52 24.001081893 ÿÿÿÿÿÿÿ$GPRMC,235040.000,A,3401.8811,N,11725.0149,W,0.64,248.30,041217,,,A*78
15 52 24.117866705 $GPVTG,248.30,T,,M,0.64,N,1.19,K,A*3B
15 52 24.233328531 0149,W,0.64,248.30,041217,,,A*78
15 52 24.349873345 $GPGGA,235106.000,3401.8781,N,11725.0217,W,1,07,1.13,304.2,M,-32.8,M,,*5C
15 52 24.891984832
15 52 25.008970642 $GPGSA,A,3,16,26,03,22,01,23,31,,,,,,1.42,1.13,0.87*0B
15 52 25.124584466
15 52 25.237171321 $GPRMC,235106.000,A,3401.8781,N,11725.0217,W,0.28,173.13,041217,,,A*77
15 52 25.357604097
15 52 25.476297889 $GPVTG,173.13,T,,M,0.28,N,0.52,K,A*37
15 52 25.592548707
15 52 25.706775546 $GPRMC,235026.000,A,3401.8819,N,11725.0138,W,0.43,143.96,041217,,,A*77
15 52 25.824649347 $GPVTG,143.96,T,,M,0.43,N,0.79,K,A*3D
15 52 25.941808155 0138,W,0.43,143.96,041217,,,A*77
15 52 26.058751966 $GPGGA,235107.000,3401.8780,N,11725.0217,W,1,07,1.13,304.2,M,-32.8,M,,*5C
15 52 26.600116460
15 52 26.717087271 $GPGSA,A,3,16,26,03,22,01,23,31,,,,,,1.42,1.13,0.87*0B
15 52 26.837549045
15 52 26.950584896 $GPRMC,235107.000,A,3401.8780,N,11725.0217,W,0.24,158.45,041217,,,A*71
15 52 27.066414718
15 52 27.178997573 $GPVTG,158.45,T,,M,0.24,N,0.44,K,A*36
15 52 27.294022403
15 52 27.408372240 $GPGGA,235041.000,3401.8811,N,11725.0153,W,1,07,1.13,304.2,M,-32.8,M,,*5B
15 52 27.942487808 $GPGSA,A,3,16,26,03,22,01,23,31,,,,,,1.42,1.13,0.87*0B
15 52 28.065727555 4.2,M,-32.8,M,,*5B
15 52 28.181410378 $GPRMC,235041.000,A,3401.8811,N,11725.0153,W,0.66,252.17,041217,,,A*7E
15 52 28.302282149 5B
15 52 28.416938983 $GPVTG,252.17,T,,M,0.66,N,1.21,K,A*3C
15 52 28.534331789 0153,W,0.66,252.17,041217,,,A*7E
15 52 28.650562607 5B
15 52 28.765282440 $GPGGA,235108.000,3401.8780,N,11725.0217,W,1,07,1.13,304.2,M,-32.8,M,,*53
15 52 29.294266060
15 52 29.416603816 $GPGSA,A,3,16,26,03,22,01,23,31,,,,,,1.42,1.13,0.87*0B
15 52 29.532827634
15 52 29.648038462 $GPRMC,235108.000,A,3401.8780,N,11725.0217,W,0.17,161.35,041217,,,A*73
15 52 29.768870234
15 52 29.883785065 $GPVTG,161.35,T,,M,0.17,N,0.32,K,A*3A
15 52 29.999864884
15 52 30.112794736 $GPGGA,235025.000,3401.8820,N,11725.0139,W,1,07,1.13,304.2,M,-32.8,M,,*57
15 52 30.645005323 $GPGSA,A,3,16,26,03,22,01,23,31,,,,,,1.42,1.13,0.87*0B
15 52 30.772940022 4.2,M,-32.8,M,,*57
15 52 30.888992842 $GPGGA,235030.000,3401.8816,N,11725.0136,W,1,07,1.13,304.2,M,-32.8,M,,*59
15 52 31.428369356 $GPGGA,235109.000,3401.8779,N,11725.0217,W,1,07,1.13,304.2,M,-32.8,M,,*54
15 52 31.963441915
15 52 32.090972618 $GPGSA,A,3,16,26,03,22,01,23,31,,,,,,1.42,1.13,0.87*0B
15 52 32.206502443
15 52 32.319645292 $GPGSV,3,1,12,03,79,281,15,22,71,177,18,23,46,310,19,26,46,089,21*79
15 52 32.439146077
15 52 32.553938909 $GPGSV,3,2,12,16,40,136,19,31,25,045,20,01,21,215,15,09,17,292,*74
15 52 32.670705722
15 52 32.790154507 $GPGSV,3,3,12,14,13,084,,07,06,233,,06,04,323,,11,02,208,19*72
15 52 32.906268326
15 52 33.019325176 $GPRMC,235109.000,A,3401.8779,N,11725.0217,W,0.16,118.91,041217,,,A*75
15 52 33.135020999
15 52 33.247798853 $GPVTG,118.91,T,,M,0.16,N,0.30,K,A*39
15 52 33.363082680
15 52 33.478991501 $GPGSA,A,3,16,26,03,22,01,23,31,,,,,,1.42,1.13,0.87*0B
15 52 33.596051311 ÿÿÿÿÿÿÿ$GPGGA,235042.000,3401.8810,N,11725.0159,W,1,07,1.13,304.2,M,-32.8,M,,*53
15 52 33.713931112 $GPGSA,A,3,16,26,03,22,01,23,31,,,,,,1.42,1.13,0.87*0B
15 52 33.831247919 4.2,M,-32.8,M,,*53
15 52 33.948043731 $GPGGA,235110.000,3401.8779,N,11725.0216,W,1,07,1.13,304.2,M,-32.8,M,,*5D
15 52 34.485651263
15 52 34.606549034 $GPGSA,A,3,16,26,03,22,01,23,31,,,,,,1.42,1.13,0.86*0A
15 52 34.722695853
15 52 34.837313687 $GPRMC,235110.000,A,3401.8779,N,11725.0216,W,0.12,104.99,041217,,,A*7D
15 52 34.953942501
15 52 35.067110350 $GPVTG,104.99,T,,M,0.12,N,0.22,K,A*3B
15 52 35.181739184
15 52 35.294744035 $GPRMC,235042.000,A,3401.8810,N,11725.0159,W,0.69,253.63,041217,,,A*7B
15 52 35.411438848 $GPVTG,253.63,T,,M,0.69,N,1.29,K,A*39
15 52 35.529053652 0159,W,0.69,253.63,041217,,,A*7B
15 52 35.645724465 $GPRMC,235030.000,A,3401.8816,N,11725.0136,W,0.16,158.04,041217,,,A*70
15 52 35.763072272 $GPVTG,158.04,T,,M,0.16,N,0.29,K,A*39
15 52 35.885109031 0136,W,0.16,158.04,041217,,,A*70
15 52 36.002535837 $GPRMC,235025.000,A,3401.8820,N,11725.0139,W,0.45,146.89,041217,,,A*72
15 52 36.121618625 $GPGGA,235111.000,3401.8779,N,11725.0216,W,1,07,1.13,304.2,M,-32.8,M,,*5C
15 52 36.655282198
15 52 36.778846941 $GPGSA,A,3,16,26,03,22,01,23,31,,,,,,1.42,1.13,0.86*0A
15 52 36.894878761
15 52 37.010631584 $GPRMC,235111.000,A,3401.8779,N,11725.0216,W,0.15,66.97,041217,,,A*40
15 52 37.125717414
15 52 37.238905263 $GPVTG,66.97,T,,M,0.15,N,0.29,K,A*0C
15 52 37.358838043
15 52 37.473055881 $GPVTG,146.89,T,,M,0.45,N,0.83,K,A*35
15 52 37.592863663 ÿÿÿÿÿÿÿÿÿÿÿÿÿÿÿÿÿÿÿÿÿÿÿÿ$GPGGA,235043.000,3401.8809,N,11725.0165,W,1,07,1.13,304.2,M,-32.8,M,,*55
15 52 37.714864422 $GPGGA,235112.000,3401.8779,N,11725.0215,W,1,07,1.13,304.2,M,-32.8,M,,*5C
15 52 38.253555943
15 52 38.368325776 $GPGSA,A,3,16,26,03,22,01,23,31,,,,,,1.42,1.13,0.86*0A
15 52 38.484621594
15 52 38.599200428 $GPRMC,235112.000,A,3401.8779,N,11725.0215,W,0.14,49.67,041217,,,A*43
15 52 38.715763243
15 52 38.833338047 $GPVTG,49.67,T,,M,0.14,N,0.26,K,A*00
15 52 38.952160839
15 52 39.066787673 $GPGSA,A,3,16,26,03,22,01,23,31,,,,,,1.42,1.13,0.87*0B
15 52 39.184316478 ÿÿÿÿÿÿÿ$GPRMC,235043.000,A,3401.8809,N,11725.0165,W,0.76,253.19,041217,,,A*7E
15 52 39.302942271 $GPVTG,253.19,T,,M,0.76,N,1.40,K,A*35
15 52 39.423654043 0165,W,0.76,253.19,041217,,,A*7E
15 52 39.543153828 $GPGSA,A,3,16,26,03,22,01,23,31,,,,,,1.42,1.13,0.87*0B
15 52 39.681646420 9,041217,,,A*7E
15 52 39.799133225 $GPGGA,235113.000,3401.8780,N,11725.0215,W,1,07,1.13,304.2,M,-32.8,M,,*5B
15 52 40.337349751
15 52 40.461382490 $GPGSA,A,3,16,26,03,22,01,23,31,,,,,,1.42,1.13,0.86*0A
15 52 40.577319311
15 52 40.691109153 $GPRMC,235113.000,A,3401.8780,N,11725.0215,W,0.13,47.98,041217,,,A*4D
15 52 40.808715957
15 52 40.921470811 $GPVTG,47.98,T,,M,0.13,N,0.23,K,A*0C
15 52 41.037077635
15 52 41.149981487 $GPGGA,235031.000,3401.8816,N,11725.0136,W,1,07,1.13,304.2,M,-32.8,M,,*58
15 52 41.681094085 $GPGSA,A,3,16,26,03,22,01,23,31,,,,,,1.42,1.13,0.87*0B
15 52 41.812323750 4.2,M,-32.8,M,,*58
15 52 41.929037563 $GPGGA,235044.000,3401.8809,N,11725.0173,W,1,07,1.13,304.2,M,-32.8,M,,*55
15 52 42.463927124 $GPGGA,235114.000,3401.8780,N,11725.0214,W,1,07,1.13,304.2,M,-32.8,M,,*5D
15 52 43.003724634
15 52 43.122892422 $GPGSA,A,3,16,26,03,22,01,23,31,,,,,,1.42,1.13,0.86*0A
15 52 43.237994251
15 52 43.355583055 $GPGSV,3,1,12,03,79,280,18,22,71,177,19,23,46,310,19,26,46,089,22*77
15 52 43.472957862
15 52 43.587114701 $GPGSV,3,2,12,16,40,136,19,31,25,045,19,01,20,215,15,09,17,292,*7F
15 52 43.703181520
15 52 43.817601357 $GPGSV,3,3,12,14,13,084,,07,06,233,,06,04,323,,11,02,208,23*7B
15 52 43.934396169
15 52 44.047524018 $GPRMC,235114.000,A,3401.8780,N,11725.0214,W,0.07,32.14,041217,,,A*48
15 52 44.162628848
15 52 44.275681698 $GPVTG,32.14,T,,M,0.07,N,0.14,K,A*0B
15 52 44.390405531
15 52 44.504426371 $GPGSA,A,3,16,26,03,22,01,23,31,,,,,,1.42,1.13,0.87*0B
15 52 44.621587180 ÿÿÿÿÿÿÿ$GPGSV,4,1,13,03,79,281,16,22,72,178,16,48,47,206,26,23,46,310,18*74
15 52 44.739825977 $GPGSV,4,2,13,26,46,090,22,16,40,136,19,31,26,045,20,01,21,215,16*7B
15 52 44.861893736 $GPGGA,235115.000,3401.8780,N,11725.0214,W,1,07,1.13,304.2,M,-32.8,M,,*5C
15 52 45.397421290
15 52 45.518786055 $GPGSA,A,3,16,26,03,22,01,23,31,,,,,,1.42,1.13,0.86*0A
15 52 45.635192871
15 52 45.748071723 $GPRMC,235115.000,A,3401.8780,N,11725.0214,W,0.07,67.15,041217,,,A*48
15 52 45.864178543
15 52 45.977208393 $GPVTG,67.15,T,,M,0.07,N,0.14,K,A*0A
15 52 46.092194224
15 52 46.205637070 $GPGSV,4,3,13,09,17,292,,14,13,084,,07,06,233,,06,04,323,*72
15 52 46.327378832 ÿ$GPGSV,4,4,13,11,02,208,18*4A
15 52 46.444829637 ,084,,07,06,233,,06,04,323,*72
15 52 46.562699439 ÿ$GPRMC,235044.000,A,3401.8809,N,11725.0173,W,0.81,254.59,041217,,,A*75
15 52 46.680203244 $GPVTG,254.59,T,,M,0.81,N,1.51,K,A*3E
15 52 46.798347042 0173,W,0.81,254.59,041217,,,A*75
15 52 46.915315852 $GPRMC,235031.000,A,3401.8816,N,11725.0136,W,0.13,190.09,041217,,,A*7D
15 52 47.033233653 $GPVTG,190.09,T,,M,0.13,N,0.25,K,A*39
15 52 47.152459441 0136,W,0.13,190.09,041217,,,A*7D
15 52 47.268768258 $GPGGA,235116.000,3401.8780,N,11725.0214,W,1,07,1.13,304.2,M,-32.8,M,,*5F
15 52 47.799931856
15 52 47.927972554 $GPGSA,A,3,16,26,03,22,01,23,31,,,,,,1.42,1.13,0.86*0A
15 52 48.043797376
15 52 48.157105223 $GPRMC,235116.000,A,3401.8780,N,11725.0214,W,0.10,126.27,041217,,,A*78
15 52 48.272128054
15 52 48.386878887 $GPVTG,126.27,T,,M,0.10,N,0.18,K,A*35
15 52 48.503295703
15 52 48.618224534 $GPRMC,235023.000,A,3401.8822,N,11725.0140,W,0.42,141.84,041217,,,A*75
15 52 48.736572330 $GPVTG,141.84,T,,M,0.42,N,0.77,K,A*33
15 52 48.855523120 0140,W,0.42,141.84,041217,,,A*75
15 52 48.971038946 $GPGGA,235117.000,3401.8780,N,11725.0214,W,1,07,1.13,304.2,M,-32.8,M,,*5E
15 52 49.505424511
15 52 49.630474239 $GPGSA,A,3,16,26,03,22,01,23,31,,,,,,1.42,1.13,0.86*0A
15 52 49.747101053
15 52 49.860974895 $GPRMC,235117.000,A,3401.8780,N,11725.0214,W,0.09,109.41,041217,,,A*7C
15 52 49.977068714
15 52 50.090575560 $GPVTG,109.41,T,,M,0.09,N,0.16,K,A*3E
15 52 50.205558390
15 52 50.318855238 $GPGGA,235045.000,3401.8807,N,11725.0182,W,1,07,1.13,304.2,M,-32.8,M,,*54
15 52 50.855104784 $GPGSA,A,3,16,26,03,22,01,23,31,,,,,,1.42,1.13,0.87*0B
15 52 50.981654497 4.2,M,-32.8,M,,*54
15 52 51.098240312 $GPGGA,235118.000,3401.8780,N,11725.0213,W,1,07,1.13,304.2,M,-32.8,M,,*56
15 52 51.633644867
15 52 51.751946663 $GPGSA,A,3,16,26,03,22,01,23,31,,,,,,1.42,1.13,0.86*0A
15 52 51.868168481
15 52 51.980859335 $GPRMC,235118.000,A,3401.8780,N,11725.0213,W,0.07,76.17,041217,,,A*40
15 52 52.096662158
15 52 52.214008964 $GPVTG,76.17,T,,M,0.07,N,0.13,K,A*0F
15 52 52.333764746
15 52 52.448699577 $GPRMC,235045.000,A,3401.8807,N,11725.0182,W,0.92,252.31,041217,,,A*7E
15 52 52.565948385 $GPVTG,252.31,T,,M,0.92,N,1.70,K,A*37
15 52 52.682961195 0182,W,0.92,252.31,041217,,,A*7E
15 52 52.800562999 $GPGGA,235032.000,3401.8816,N,11725.0136,W,1,07,1.13,304.2,M,-32.8,M,,*5B
15 52 53.330680608 $GPGGA,235119.000,3401.8780,N,11725.0213,W,1,07,1.13,304.2,M,-32.8,M,,*57
15 52 53.886433956
15 52 53.999459806 $GPGSA,A,3,16,26,03,22,01,23,31,,,,,,1.42,1.13,0.86*0A
15 52 54.114870632
15 52 54.228029481 $GPGSV,3,1,12,03,79,280,19,22,71,177,19,23,46,310,19,26,46,089,22*76
15 52 54.343673305
15 52 54.458742135 $GPGSV,3,2,12,16,40,136,19,31,25,045,20,01,20,215,14,09,17,292,*74
15 52 54.575588947
15 52 54.690451779 $GPGSV,3,3,12,14,13,084,,07,06,233,,06,04,323,,11,02,208,23*7B
15 52 54.806907594
15 52 54.920814436 $GPRMC,235119.000,A,3401.8780,N,11725.0213,W,0.08,68.60,041217,,,A*41
15 52 55.037311251
15 52 55.153059074 $GPVTG,68.60,T,,M,0.08,N,0.15,K,A*09
15 52 55.268127904
15 52 55.386027704 $GPGSA,A,3,16,26,03,22,01,23,31,,,,,,1.42,1.13,0.87*0B
15 52 55.503213513 ÿÿÿÿÿÿÿ$GPGGA,235046.000,3401.8806,N,11725.0190,W,1,07,1.13,304.2,M,-32.8,M,,*55
15 52 55.621384311 $GPGSA,A,3,16,26,03,22,01,23,31,,,,,,1.42,1.13,0.87*0B
15 52 55.738335121 4.2,M,-32.8,M,,*55
15 52 55.855429931 $GPRMC,235046.000,A,3401.8806,N,11725.0190,W,0.94,251.31,041217,,,A*7A
15 52 55.972056745 55
15 52 56.085822588 $GPVTG,251.31,T,,M,0.94,N,1.73,K,A*31
15 52 56.201147415 0190,W,0.94,251.31,041217,,,A*7A
15 52 56.316692240 55
15 52 56.432109066 $GPGGA,235120.000,3401.8780,N,11725.0213,W,1,07,1.13,304.2,M,-32.8,M,,*5D
15 52 56.966393632
15 52 57.088686388 $GPGSA,A,3,16,26,03,22,01,23,31,,,,,,1.42,1.13,0.86*0A
15 52 57.203825217
15 52 57.320500031 $GPRMC,235120.000,A,3401.8780,N,11725.0213,W,0.16,90.62,041217,,,A*41
15 52 57.436799848
15 52 57.550962687 $GPVTG,90.62,T,,M,0.16,N,0.30,K,A*04
15 52 57.667156505
15 52 57.781920338 $GPRMC,235032.000,A,3401.8816,N,11725.0136,W,0.20,210.58,041217,,,A*71
15 52 57.899384143 $GPVTG,210.58,T,,M,0.20,N,0.36,K,A*34
15 52 58.016375954 0136,W,0.20,210.58,041217,,,A*71
15 52 58.131467783 $GPGGA,235121.000,3401.8780,N,11725.0212,W,1,07,1.13,304.2,M,-32.8,M,,*5D
15 52 58.673162274
15 52 58.790056085 $GPGSA,A,3,16,26,03,22,01,23,31,,,,,,1.42,1.13,0.86*0A
15 52 58.905599910
15 52 59.018121766 $GPRMC,235121.000,A,3401.8780,N,11725.0212,W,0.28,95.74,041217,,,A*4E
15 52 59.133013597
15 52 59.246144447 $GPVTG,95.74,T,,M,0.28,N,0.52,K,A*0F
15 52 59.362090268
15 52 59.476704102 $GPGGA,235028.000,3401.8818,N,11725.0136,W,1,07,1.13,304.2,M,-32.8,M,,*5E
15 53 00.022812548 $GPGSA,A,3,16,26,03,22,01,23,31,,,,,,1.42,1.13,0.87*0B
15 53 00.138725369 4.2,M,-32.8,M,,*5E
15 53 00.254681190 $GPRMC,235028.000,A,3401.8818,N,11725.0136,W,0.29,147.69,041217,,,A*7E
15 53 00.371325004 5E
15 53 00.486211835 $GPGGA,235122.000,3401.8780,N,11725.0211,W,1,07,1.13,304.2,M,-32.8,M,,*5D
15 53 01.027930326
15 53 01.166209919 $GPGSA,A,3,16,26,03,22,01,23,31,,,,,,1.42,1.13,0.86*0A
15 53 01.281069751
15 53 01.399685545 $GPRMC,235122.000,A,3401.8780,N,11725.0211,W,0.29,95.98,041217,,,A*4D
15 53 01.515806364
15 53 01.630063202 $GPVTG,95.98,T,,M,0.29,N,0.54,K,A*0A
15 53 01.746150021
15 53 01.859800866 $GPGGA,235047.000,3401.8804,N,11725.0195,W,1,07,1.13,304.2,M,-32.8,M,,*53
15 53 02.400832363 $GPGSA,A,3,16,26,03,22,01,23,31,,,,,,1.42,1.13,0.87*0B
15 53 02.519277159 4.2,M,-32.8,M,,*53
15 53 02.636709964 $GPRMC,235047.000,A,3401.8804,N,11725.0195,W,0.95,250.50,041217,,,A*7B
15 53 02.753743774 53
15 53 02.872589565 $GPVTG,250.50,T,,M,0.95,N,1.76,K,A*33
15 53 02.988825383 0195,W,0.95,250.50,041217,,,A*7B
15 53 03.104740204 53
15 53 03.218560047 $GPVTG,147.69,T,,M,0.29,N,0.54,K,A*3A
15 53 03.334933863 0195,W,0.95,250.50,041217,,,A*7B
15 53 03.451240680 53
15 53 03.566263511 $GPGGA,235033.000,3401.8815,N,11725.0136,W,1,07,1.13,304.2,M,-32.8,M,,*59
15 53 04.103838043 $GPGGA,235123.000,3401.8780,N,11725.0210,W,1,07,1.13,304.2,M,-32.8,M,,*5D
15 53 04.639557595
15 53 04.766116308 $GPGSA,A,3,16,26,03,22,01,23,31,,,,,,1.42,1.13,0.86*0A
15 53 04.882388126
15 53 04.996416966 $GPRMC,235123.000,A,3401.8780,N,11725.0210,W,0.29,101.63,041217,,,A*75
15 53 05.111755793
15 53 05.224748644 $GPVTG,101.63,T,,M,0.29,N,0.54,K,A*32
15 53 05.340083471
15 53 05.454755305 $GPGSA,A,3,16,26,03,22,01,23,31,,,,,,1.42,1.13,0.87*0B
15 53 05.572497107 ÿÿÿÿÿÿÿ$GPGGA,235048.000,3401.8802,N,11725.0200,W,1,07,1.13,304.2,M,-32.8,M,,*55
15 53 05.690798904 $GPGGA,235124.000,3401.8780,N,11725.0209,W,1,07,1.13,304.2,M,-32.8,M,,*52
15 53 06.233693383
15 53 06.347850222 $GPGSA,A,3,16,26,03,22,01,23,31,,,,,,1.42,1.13,0.86*0A
15 53 06.463948041
15 53 06.581198848 $GPGSV,3,1,12,03,79,280,18,22,71,177,20,23,46,310,19,26,46,089,22*7D
15 53 06.698364657
15 53 06.812090500 $GPGSV,3,2,12,16,40,136,20,31,25,045,20,01,20,215,16,09,17,292,*7C
15 53 06.928841313
15 53 07.042534157 $GPGSV,3,3,12,14,13,085,,07,06,233,,06,04,323,,11,02,207,23*75
15 53 07.157412988
15 53 07.270312840 $GPRMC,235124.000,A,3401.8780,N,11725.0209,W,0.27,96.71,041217,,,A*48
15 53 07.391202611
15 53 07.508642416 $GPVTG,96.71,T,,M,0.27,N,0.51,K,A*05
15 53 07.624346240
15 53 07.737279091 $GPGSA,A,3,16,26,03,22,01,23,31,,,,,,1.42,1.13,0.87*0B
15 53 07.854666897 ÿÿÿÿÿÿÿ$GPRMC,235048.000,A,3401.8802,N,11725.0200,W,0.97,247.88,041217,,,A*7C
15 53 07.972338700 $GPVTG,247.88,T,,M,0.97,N,1.80,K,A*3B
15 53 08.087702527 0200,W,0.97,247.88,041217,,,A*7C
15 53 08.203401351 $GPRMC,235033.000,A,3401.8815,N,11725.0136,W,0.30,221.23,041217,,,A*7C
15 53 08.319873166 $GPVTG,221.23,T,,M,0.30,N,0.56,K,A*3D
15 53 08.437270972 0136,W,0.30,221.23,041217,,,A*7C
15 53 08.554249782 $GPGGA,235125.000,3401.8780,N,11725.0208,W,1,07,1.13,304.2,M,-32.8,M,,*52
15 53 09.093640297
15 53 09.210820105 $GPGSA,A,3,16,26,03,22,01,23,31,,,,,,1.42,1.13,0.86*0A
15 53 09.325834935
15 53 09.440056774 $GPRMC,235125.000,A,3401.8780,N,11725.0208,W,0.25,96.39,041217,,,A*46
15 53 09.556688587
15 53 09.670868426 $GPVTG,96.39,T,,M,0.25,N,0.47,K,A*0C
15 53 09.786628249
15 53 09.903737058 $GPGGA,235024.000,3401.8822,N,11725.0139,W,1,07,1.13,304.2,M,-32.8,M,,*54
15 53 10.440505599 $GPGSA,A,3,16,26,03,22,01,23,31,,,,,,1.42,1.13,0.87*0B
15 53 10.566950313 4.2,M,-32.8,M,,*54
15 53 10.683311130 $GPGGA,235126.000,3401.8780,N,11725.0207,W,1,07,1.13,304.2,M,-32.8,M,,*5E
15 53 11.214280730
15 53 11.336762484 $GPGSA,A,3,16,26,03,22,01,23,31,,,,,,1.42,1.13,0.86*0A
15 53 11.453886293
15 53 11.568279129 $GPRMC,235126.000,A,3401.8780,N,11725.0207,W,0.24,99.53,041217,,,A*48
15 53 11.685545937
15 53 11.798468788 $GPVTG,99.53,T,,M,0.24,N,0.44,K,A*0D
15 53 11.919293560
15 53 12.032654407 $GPGGA,235049.000,3401.8802,N,11725.0206,W,1,07,1.13,304.2,M,-32.8,M,,*52
15 53 12.574162899 $GPGSA,A,3,16,26,03,22,01,23,31,,,,,,1.42,1.13,0.87*0B
15 53 12.693825682 4.2,M,-32.8,M,,*52
15 53 12.813327467 $GPGSV,4,1,13,03,79,281,16,22,72,178,17,48,47,206,25,23,46,310,19*77
15 53 12.930749273 ,*52
15 53 13.047241088 $GPGGA,235127.000,3401.8779,N,11725.0206,W,1,07,1.13,304.2,M,-32.8,M,,*58
15 53 13.577375697
15 53 13.705344395 $GPGSA,A,3,16,26,03,22,01,23,31,,,,,,1.42,1.13,0.86*0A
15 53 13.821583213
15 53 13.935521054 $GPRMC,235127.000,A,3401.8779,N,11725.0206,W,0.33,109.28,041217,,,A*7C
15 53 14.051805872
15 53 14.164962721 $GPVTG,109.28,T,,M,0.33,N,0.62,K,A*3B
15 53 14.279620555
15 53 14.394170390 $GPGSV,4,2,13,26,46,090,22,16,40,136,19,31,26,045,20,01,21,215,17*7A
15 53 14.511853193 $GPGSV,4,3,13,09,17,292,,14,13,084,,07,06,233,,06,04,323,*72
15 53 14.628986002 5,17*7A
15 53 14.745747814 $GPGSV,4,4,13,11,02,208,18*4A
15 53 14.867982571 ,084,,07,06,233,,06,04,323,*72
15 53 14.986635364 5,17*7A
15 53 15.103899172 $GPRMC,235049.000,A,3401.8802,N,11725.0206,W,0.98,251.28,041217,,,A*79
15 53 15.219734994 $GPGGA,235128.000,3401.8779,N,11725.0205,W,1,07,1.13,304.2,M,-32.8,M,,*54
15 53 15.752498575
15 53 15.876294316 $GPGSA,A,3,16,26,03,22,01,23,31,,,,,,1.42,1.13,0.86*0A
15 53 15.990917151
15 53 16.107834962 $GPRMC,235128.000,A,3401.8779,N,11725.0205,W,0.38,114.31,041217,,,A*7F
15 53 16.224649774
15 53 16.342231578 $GPVTG,114.31,T,,M,0.38,N,0.70,K,A*37
15 53 16.460216378
15 53 16.574722213 $GPVTG,251.28,T,,M,0.98,N,1.82,K,A*3B
15 53 16.694128999 ÿÿÿÿÿÿÿÿÿÿÿÿÿÿÿÿÿÿÿÿÿÿÿÿ$GPGSV,4,1,13,03,79,282,17,22,72,178,17,48,47,206,26,23,46,310,21*7D
15 53 16.814589774 $GPGGA,235034.000,3401.8815,N,11725.0137,W,1,07,1.13,304.2,M,-32.8,M,,*5F
15 53 17.352354305 $GPGGA,235129.000,3401.8779,N,11725.0204,W,1,07,1.13,304.2,M,-32.8,M,,*54
15 53 17.891614820
15 53 18.019396521 $GPGSA,A,3,16,26,03,22,01,23,31,,,,,,1.42,1.13,0.86*0A
15 53 18.134452351
15 53 18.247924197 $GPGSV,3,1,12,03,79,280,18,22,71,177,20,23,46,310,19,26,46,089,21*7E
15 53 18.364008016
15 53 18.478102856 $GPGSV,3,2,12,16,40,135,21,31,25,045,20,01,20,215,15,09,17,292,*7D
15 53 18.595235664
15 53 18.709858499 $GPGSV,3,3,12,14,13,085,,07,06,233,,06,04,323,,11,02,207,23*75
15 53 18.825979318
15 53 18.939383164 $GPRMC,235129.000,A,3401.8779,N,11725.0204,W,0.44,124.77,041217,,,A*75
15 53 19.055343985
15 53 19.168132838 $GPVTG,124.77,T,,M,0.44,N,0.81,K,A*33
15 53 19.282869671
15 53 19.400704473 $GPGSA,A,3,16,26,03,22,01,23,31,,,,,,1.42,1.13,0.87*0B
15 53 19.518971270 ÿÿÿÿÿÿÿ$GPGGA,235050.000,3401.8802,N,11725.0211,W,1,07,1.13,304.2,M,-32.8,M,,*5C
15 53 19.638328056 $GPGSA,A,3,16,26,03,22,01,23,31,,,,,,1.42,1.13,0.87*0B
15 53 19.759209827 4.2,M,-32.8,M,,*5C
15 53 19.876695632 $GPRMC,235050.000,A,3401.8802,N,11725.0211,W,0.97,252.96,041217,,,A*7E
15 53 19.993133448 5C
15 53 20.110164258 $GPVTG,252.96,T,,M,0.97,N,1.80,K,A*30
