12 50 29.676019778 ñ$GPGGA,205029.000,3437.7896,N,11733.2913,W,2,10,0.94,870.9,M,-31.2,M,0000,0000*5B
12 50 29.811457819
12 50 29.914538089 $GPGSA,A,3,11,31,10,32,22,08,25,03,01,14,,,1.22,0.94,0.78*0B
12 50 30.020368339
12 50 30.126148590 $GPRMC,205029.000,A,3437.7896,N,11733.2913,W,0.06,73.16,091217,,,D*41
12 50 30.253034692
12 50 30.355121969 $GPVTG,73.16,T,,M,0.06,N,0.12,K,D*0E
12 50 30.458889234
12 50 30.561862505 $GPGSA,A,3,11,31,10,32,22,08,25,03,01,14,,,1.22,0.94,0.78*0B
12 50 30.667936754 ,870.9,M,-31.2,M,0000,0000*5B
12 50 30.774448000 $GPRMC,205029.000,A,3437.7896,N,11733.2913,W,0.06,73.16,091217,,,D*41
12 50 30.880860246 -31.2,M,0000,0000*5B
12 50 30.992138458 $GPVTG,73.16,T,,M,0.06,N,0.12,K,D*0E
12 50 31.098402706 .2913,W,0.06,73.16,091217,,,D*41
12 50 31.230475771 -31.2,M,0000,0000*5B
12 50 31.337316014 $GPGSA,A,3,11,31,10,32,22,08,25,03,01,14,,,1.22,0.94,0.78*0B
12 50 31.444773253 7,,,D*41
12 50 31.558007451 -31.2,M,0000,0000*5B
12 50 31.665009694 $GPRMC,205029.000,A,3437.7896,N,11733.2913,W,0.06,73.16,091217,,,D*41
12 50 31.772070935 -31.2,M,0000,0000*5B
12 50 31.878841179 $GPGGA,205030.000,3437.7896,N,11733.2913,W,2,09,1.05,870.9,M,-31.2,M,0000,0000*52
12 50 32.358775781
12 50 32.468036007 $GPGSA,A,3,11,10,32,22,08,25,03,01,14,,,,1.34,1.05,0.84*04
12 50 32.574762252
12 50 32.679023513 $GPRMC,205030.000,A,3437.7896,N,11733.2913,W,0.06,121.70,091217,,,D*7F
12 50 32.792040713
12 50 32.896102976 $GPVTG,121.70,T,,M,0.06,N,0.11,K,D*3B
12 50 33.002254224
12 50 33.106307488 $GPVTG,73.16,T,,M,0.06,N,0.12,K,D*0E
12 50 33.213622728 ÿÿÿÿÿÿÿÿÿÿÿÿÿÿÿÿÿÿÿÿÿÿÿÿÿ
12 50 33.337494851 $GPGSA,A,3,11,31,10,32,22,08,25,03,01,14,,,1.22,0.94,0.78*0B
12 50 33.448508065 ÿ
12 50 33.553471321 $GPRMC,205029.000,A,3437.7896,N,11733.2913,W,0.06,73.16,091217,,,D*41
12 50 33.661472557 $GPGGA,205030.000,3437.7896,N,11733.2913,W,2,09,1.05,870.9,M,-31.2,M,0000,0000*52
12 50 34.118777318 $GPGSA,A,3,11,10,32,22,08,25,03,01,14,,,,1.34,1.05,0.84*04
12 50 34.226792553 M,-31.2,M,0000,0000*52
12 50 34.334147793 $GPRMC,205030.000,A,3437.7896,N,11733.2913,W,0.06,121.70,091217,,,D*7F
12 50 34.464616869 00,0000*52
12 50 34.571652112 $GPVTG,121.70,T,,M,0.06,N,0.11,K,D*3B
12 50 34.679520348 2913,W,0.06,121.70,091217,,,D*7F
12 50 34.787431584 00,0000*52
12 50 34.894945822 $GPVTG,73.16,T,,M,0.06,N,0.12,K,D*0E
12 50 35.002072064
12 50 35.106531324 2913,W,0.06,121.70,091217,,,D*7F
12 50 35.220452517 00,0000*52
12 50 35.327903756 $GPGSA,A,3,11,31,10,32,22,08,25,03,01,14,,,1.22,0.94,0.78*0B
12 50 35.462210805 17,,,D*7F
12 50 35.569221048 00,0000*52
12 50 35.677025284 $GPRMC,205029.000,A,3437.7896,N,11733.2913,W,0.06,73.16,091217,,,D*41
12 50 35.790489481
12 50 35.895268739 00,0000*52
12 50 36.002890977 $GPGGA,205031.000,3437.7896,N,11733.2912,W,2,10,0.94,870.9,M,-31.2,M,0000,0000*53
12 50 36.109312223
12 50 36.213529485 $GPGSA,A,3,11,10,32,22,08,25,03,01,31,14,,,1.22,0.94,0.78*0B
12 50 36.319976732
12 50 36.424529991 $GPRMC,205031.000,A,3437.7896,N,11733.2912,W,0.08,192.34,091217,,,D*79
12 50 36.553477078
12 50 36.657327343 $GPVTG,192.34,T,,M,0.08,N,0.14,K,D*38
12 50 36.830627116
12 50 37.003176894 $GPGGA,205030.000,3437.7896,N,11733.2913,W,2,09,1.05,870.9,M,-31.2,M,0000,0000*52
12 50 37.457646676 $GPGSA,A,3,11,10,32,22,08,25,03,01,14,,,,1.34,1.05,0.84*04
12 50 37.587742754 M,-31.2,M,0000,0000*52
12 50 37.694680997 $GPRMC,205030.000,A,3437.7896,N,11733.2913,W,0.06,121.70,091217,,,D*7F
12 50 37.802462234 00,0000*52
12 50 37.909280478 $GPVTG,121.70,T,,M,0.06,N,0.11,K,D*3B
12 50 38.016331720 2913,W,0.06,121.70,091217,,,D*7F
12 50 38.123248962 00,0000*52
12 50 38.230439203 $GPVTG,73.16,T,,M,0.06,N,0.12,K,D*0E
12 50 38.336889450
12 50 38.444735686 2913,W,0.06,121.70,091217,,,D*7F
12 50 38.551168932 00,0000*52
12 50 38.680228019 $GPGSA,A,3,11,31,10,32,22,08,25,03,01,14,,,1.22,0.94,0.78*0B
12 50 38.787637258 17,,,D*7F
12 50 38.894334502 00,0000*52
12 50 39.001732742 $GPRMC,205029.000,A,3437.7896,N,11733.2913,W,0.06,73.16,091217,,,D*41
12 50 39.108335987
12 50 39.214402236 00,0000*52
12 50 39.321391478 $GPGGA,205031.000,3437.7896,N,11733.2912,W,2,10,0.94,870.9,M,-31.2,M,0000,0000*53
12 50 39.429717711 $GPGSA,A,3,11,10,32,22,08,25,03,01,31,14,,,1.22,0.94,0.78*0B
12 50 39.537206950 -31.2,M,0000,0000*53
12 50 39.645990180 $GPRMC,205031.000,A,3437.7896,N,11733.2912,W,0.08,192.34,091217,,,D*79
12 50 39.776808254 00,0000*53
12 50 39.886640476 $GPVTG,192.34,T,,M,0.08,N,0.14,K,D*38
12 50 39.998553683 2912,W,0.08,192.34,091217,,,D*79
12 50 40.108664904 00,0000*53
12 50 40.215354148 $GPGGA,205030.000,3437.7896,N,11733.2913,W,2,09,1.05,870.9,M,-31.2,M,0000,0000*52
12 50 40.326307363 $GPGGA,205032.000,3437.7896,N,11733.2913,W,2,10,0.94,870.9,M,-31.2,M,0000,0000*51
12 50 40.433951600
12 50 40.537981864 $GPGSA,A,3,11,10,32,22,08,25,03,01,31,14,,,1.22,0.94,0.78*0B
12 50 40.646671094
12 50 40.774054192 $GPRMC,205032.000,A,3437.7896,N,11733.2913,W,0.07,146.87,091217,,,D*75
12 50 40.880532438
12 50 40.984743700 $GPVTG,146.87,T,,M,0.07,N,0.13,K,D*31
12 50 41.091122947
12 50 41.197309195 $GPGSA,A,3,11,10,32,22,08,25,03,01,14,,,,1.34,1.05,0.84*04
12 50 41.303790441 ÿÿÿ
12 50 41.409130695 $GPRMC,205030.000,A,3437.7896,N,11733.2913,W,0.06,121.70,091217,,,D*7F
12 50 41.520996903 $GPVTG,121.70,T,,M,0.06,N,0.11,K,D*3B
12 50 41.631120123 2913,W,0.06,121.70,091217,,,D*7F
12 50 41.738095366 $GPVTG,73.16,T,,M,0.06,N,0.12,K,D*0E
12 50 41.866885454
12 50 41.970886717 2913,W,0.06,121.70,091217,,,D*7F
12 50 42.077988959 $GPGSA,A,3,11,31,10,32,22,08,25,03,01,14,,,1.22,0.94,0.78*0B
12 50 42.184764203 17,,,D*7F
12 50 42.293705431 $GPRMC,205029.000,A,3437.7896,N,11733.2913,W,0.06,73.16,091217,,,D*41
12 50 42.398969686
12 50 42.502225955 $GPGGA,205031.000,3437.7896,N,11733.2912,W,2,10,0.94,870.9,M,-31.2,M,0000,0000*53
12 50 42.982814552 $GPGSA,A,3,11,10,32,22,08,25,03,01,31,14,,,1.22,0.94,0.78*0B
12 50 43.089827794 -31.2,M,0000,0000*53
12 50 43.199255019 $GPRMC,205031.000,A,3437.7896,N,11733.2912,W,0.08,192.34,091217,,,D*79
12 50 43.305369268 00,0000*53
12 50 43.413891499 $GPVTG,192.34,T,,M,0.08,N,0.14,K,D*38
12 50 43.520339745 2912,W,0.08,192.34,091217,,,D*79
12 50 43.626688992 00,0000*53
12 50 43.733841234 $GPGGA,205030.000,3437.7896,N,11733.2913,W,2,09,1.05,870.9,M,-31.2,M,0000,0000*52
12 50 43.842276466 $GPGGA,205033.000,3437.7895,N,11733.2912,W,2,10,0.94,870.9,M,-31.2,M,0000,0000*52
12 50 43.971197553
12 50 44.075297816 $GPGSA,A,3,11,10,32,22,08,25,03,01,31,14,,,1.22,0.94,0.78*0B
12 50 44.184484043
12 50 44.291504285 $GPGSV,4,1,14,14,63,022,16,31,62,142,25,48,46,205,31,32,45,043,29*7F
12 50 44.397651533
12 50 44.507939752 $GPGSV,4,2,14,01,44,303,27,11,38,273,30,22,35,310,22,10,29,102,26*79
12 50 44.671336595
12 50 44.783749799 $GPGSV,4,3,14,03,15,304,14,25,09,074,34,08,07,231,19,23,02,250,*77
12 50 44.889913047
12 50 45.016719150 $GPGSV,4,4,14,18,02,113,20,26,01,157,27*75
12 50 45.122545400
12 50 45.225460671 $GPRMC,205033.000,A,3437.7895,N,11733.2912,W,0.09,55.83,091217,,,D*4F
12 50 45.330233930
12 50 45.432896203 $GPVTG,55.83,T,,M,0.09,N,0.17,K,D*0C
12 50 45.537946459
12 50 45.642083721 $GPGGA,205032.000,3437.7896,N,11733.2913,W,2,10,0.94,870.9,M,-31.2,M,0000,0000*51
12 50 46.125686297 $GPGSA,A,3,11,10,32,22,08,25,03,01,31,14,,,1.22,0.94,0.78*0B
12 50 46.274558243 -31.2,M,0000,0000*51
12 50 46.403710328 $GPRMC,205032.000,A,3437.7896,N,11733.2913,W,0.07,146.87,091217,,,D*75
12 50 46.510412573 00,0000*51
12 50 46.616911818 $GPVTG,146.87,T,,M,0.07,N,0.13,K,D*31
12 50 46.724726055 2913,W,0.07,146.87,091217,,,D*75
12 50 46.832594291 00,0000*51
12 50 46.939739533 $GPGSA,A,3,11,10,32,22,08,25,03,01,14,,,,1.34,1.05,0.84*04
12 50 47.071006603 1217,,,D*75
12 50 47.176953853 00,0000*51
12 50 47.282548105 $GPRMC,205030.000,A,3437.7896,N,11733.2913,W,0.06,121.70,091217,,,D*7F
12 50 47.388888352 00,0000*51
12 50 47.498678575 $GPVTG,121.70,T,,M,0.06,N,0.11,K,D*3B
12 50 47.605380819 2913,W,0.06,121.70,091217,,,D*7F
12 50 47.711856065 00,0000*51
12 50 47.821791287 $GPVTG,73.16,T,,M,0.06,N,0.12,K,D*0E
12 50 47.930681516
12 50 48.035011777 2913,W,0.06,121.70,091217,,,D*7F
12 50 48.163764865 00,0000*51
12 50 48.293834944 $GPGSA,A,3,11,31,10,32,22,08,25,03,01,14,,,1.22,0.94,0.78*0B
12 50 48.443150887 17,,,D*7F
12 50 48.548060144 00,0000*51
12 50 48.654979387 $GPRMC,205029.000,A,3437.7896,N,11733.2913,W,0.06,73.16,091217,,,D*41
12 50 48.761961629
12 50 48.865091899 00,0000*51
12 50 48.976217112 $GPGGA,205031.000,3437.7896,N,11733.2912,W,2,10,0.94,870.9,M,-31.2,M,0000,0000*53
12 50 49.083915350 $GPGSA,A,3,11,10,32,22,08,25,03,01,31,14,,,1.22,0.94,0.78*0B
12 50 49.273911004 -31.2,M,0000,0000*53
12 50 49.384225223 $GPRMC,205031.000,A,3437.7896,N,11733.2912,W,0.08,192.34,091217,,,D*79
12 50 49.490697469 00,0000*53
12 50 49.597054716 $GPVTG,192.34,T,,M,0.08,N,0.14,K,D*38
12 50 49.704266957 2912,W,0.08,192.34,091217,,,D*79
12 50 49.811240199 00,0000*53
12 50 49.918229442 $GPGGA,205034.000,3437.7896,N,11733.2912,W,2,10,0.94,870.9,M,-31.2,M,0000,0000*56
12 50 50.025005686
12 50 50.128501953 $GPGSA,A,3,11,10,32,22,08,25,03,01,31,14,,,1.22,0.94,0.78*0B
12 50 50.256645045
12 50 50.359596316 $GPRMC,205034.000,A,3437.7896,N,11733.2912,W,0.20,63.69,091217,,,D*41
12 50 50.468588545
12 50 50.570799821 $GPVTG,63.69,T,,M,0.20,N,0.37,K,D*04
12 50 50.677202067
12 50 50.781365330 $GPGGA,205030.000,3437.7896,N,11733.2913,W,2,09,1.05,870.9,M,-31.2,M,0000,0000*52
12 50 51.238977089 $GPGGA,205033.000,3437.7895,N,11733.2912,W,2,10,0.94,870.9,M,-31.2,M,0000,0000*52
12 50 51.356765255 $GPGSA,A,3,11,10,32,22,08,25,03,01,31,14,,,1.22,0.94,0.78*0B
12 50 51.462671505 -31.2,M,0000,0000*52
12 50 51.569149751 $GPGSV,4,1,14,14,63,022,16,31,62,142,25,48,46,205,31,32,45,043,29*7F
12 50 51.676525991 0000,0000*52
12 50 51.785521219 $GPGSV,4,2,14,01,44,303,27,11,38,273,30,22,35,310,22,10,29,102,26*79
12 50 51.894781446 0000,0000*52
12 50 52.006189657 $GPGSV,4,3,14,03,15,304,14,25,09,074,34,08,07,231,19,23,02,250,*77
12 50 52.113084900 9
12 50 52.217405161 0000,0000*52
12 50 52.345603253 $GPGSV,4,4,14,18,02,113,20,26,01,157,27*75
12 50 52.451300505 07,231,19,23,02,250,*77
12 50 52.556236762 9
12 50 52.660471024 0000,0000*52
12 50 52.767473266 $GPRMC,205033.000,A,3437.7895,N,11733.2912,W,0.09,55.83,091217,,,D*4F
12 50 52.874696507 000,0000*52
12 50 52.981180753 $GPVTG,55.83,T,,M,0.09,N,0.17,K,D*0C
12 50 53.088361994 .2912,W,0.09,55.83,091217,,,D*4F
12 50 53.193731248 000,0000*52
12 50 53.302454478 $GPGGA,205032.000,3437.7896,N,11733.2913,W,2,10,0.94,870.9,M,-31.2,M,0000,0000*51
12 50 53.431488564 $GPGSA,A,3,11,10,32,22,08,25,03,01,31,14,,,1.22,0.94,0.78*0B
12 50 53.541243787 -31.2,M,0000,0000*51
12 50 53.647828032 $GPRMC,205032.000,A,3437.7896,N,11733.2913,W,0.07,146.87,091217,,,D*75
12 50 53.755673269 00,0000*51
12 50 53.887792333 $GPVTG,146.87,T,,M,0.07,N,0.13,K,D*31
12 50 54.029396330 2913,W,0.07,146.87,091217,,,D*75
12 50 54.136340573 00,0000*51
12 50 54.242926818 $GPGGA,205035.000,3437.7896,N,11733.2911,W,2,10,0.94,870.9,M,-31.2,M,0000,0000*54
12 50 54.349284065
12 50 54.516698880 $GPGSA,A,3,11,31,10,32,22,08,25,03,01,14,,,1.22,0.94,0.78*0B
12 50 54.622645130
12 50 54.726559394 $GPRMC,205035.000,A,3437.7896,N,11733.2911,W,0.26,115.25,091217,,,D*7D
12 50 54.833160639
12 50 54.936247909 $GPVTG,115.25,T,,M,0.26,N,0.47,K,D*3D
12 50 55.046322129
12 50 55.149167401 $GPGSA,A,3,11,10,32,22,08,25,03,01,14,,,,1.34,1.05,0.84*04
12 50 55.254340656 ÿÿÿ
12 50 55.357653925 $GPRMC,205030.000,A,3437.7896,N,11733.2913,W,0.06,121.70,091217,,,D*7F
12 50 55.485657019 $GPVTG,121.70,T,,M,0.06,N,0.11,K,D*3B
12 50 55.591636268 2913,W,0.06,121.70,091217,,,D*7F
12 50 55.698517511 $GPVTG,73.16,T,,M,0.06,N,0.12,K,D*0E
12 50 55.804529761
12 50 55.908272026 2913,W,0.06,121.70,091217,,,D*7F
12 50 56.015329268 $GPGSA,A,3,11,31,10,32,22,08,25,03,01,14,,,1.22,0.94,0.78*0B
12 50 56.122183511 17,,,D*7F
12 50 56.228880756 $GPRMC,205029.000,A,3437.7896,N,11733.2913,W,0.06,73.16,091217,,,D*41
12 50 56.334578007
12 50 56.437356279 $GPGGA,205031.000,3437.7896,N,11733.2912,W,2,10,0.94,870.9,M,-31.2,M,0000,0000*53
12 50 56.919921862 $GPGSA,A,3,11,10,32,22,08,25,03,01,31,14,,,1.22,0.94,0.78*0B
12 50 57.026882105 -31.2,M,0000,0000*53
12 50 57.135713334 $GPRMC,205031.000,A,3437.7896,N,11733.2912,W,0.08,192.34,091217,,,D*79
12 50 57.241641584 00,0000*53
12 50 57.347165837 $GPVTG,192.34,T,,M,0.08,N,0.14,K,D*38
12 50 57.453124087 2912,W,0.08,192.34,091217,,,D*79
12 50 57.580886182 00,0000*53
12 50 57.690566405 $GPGGA,205036.000,3437.7895,N,11733.2911,W,2,10,0.94,870.9,M,-31.2,M,0000,0000*54
12 50 57.797561648
12 50 57.901563911 $GPGSA,A,3,11,31,10,32,22,08,25,03,01,14,,,1.22,0.94,0.78*0B
12 50 58.015491105
12 50 58.119598367 $GPRMC,205036.000,A,3437.7895,N,11733.2911,W,0.18,141.17,091217,,,D*70
12 50 58.225949614
12 50 58.328544888 $GPVTG,141.17,T,,M,0.18,N,0.34,K,D*34
12 50 58.433192147
12 50 58.535769421 $GPGGA,205034.000,3437.7896,N,11733.2912,W,2,10,0.94,870.9,M,-31.2,M,0000,0000*56
12 50 59.008281075 $GPGSA,A,3,11,10,32,22,08,25,03,01,31,14,,,1.22,0.94,0.78*0B
12 50 59.154982036 -31.2,M,0000,0000*56
12 50 59.321519857 $GPRMC,205034.000,A,3437.7896,N,11733.2912,W,0.20,63.69,091217,,,D*41
12 50 59.427649105 000,0000*56
12 50 59.542925289 $GPVTG,63.69,T,,M,0.20,N,0.37,K,D*04
12 50 59.663858432 .2912,W,0.20,63.69,091217,,,D*41
12 50 59.783888583 000,0000*56
12 50 59.892937810 $GPGGA,205030.000,3437.7896,N,11733.2913,W,2,09,1.05,870.9,M,-31.2,M,0000,0000*52
12 51 00.001926039 $GPGGA,205037.000,3437.7895,N,11733.2910,W,2,10,0.94,870.9,M,-31.2,M,0000,0000*54
12 51 00.107963288
12 51 00.212235549 $GPGSA,A,3,11,31,10,32,22,08,25,03,01,14,,,1.22,0.94,0.78*0B
12 51 00.318788795
12 51 00.421921065 $GPRMC,205037.000,A,3437.7895,N,11733.2910,W,0.25,163.18,091217,,,D*71
12 51 00.538805237
12 51 00.643130498 $GPVTG,163.18,T,,M,0.25,N,0.46,K,D*30
12 51 00.771702588
12 51 00.875694851 $GPGGA,205033.000,3437.7895,N,11733.2912,W,2,10,0.94,870.9,M,-31.2,M,0000,0000*52
12 51 01.365150386 $GPGSA,A,3,11,10,32,22,08,25,03,01,31,14,,,1.22,0.94,0.78*0B
12 51 01.474001615 -31.2,M,0000,0000*52
12 51 01.579904865 $GPGSV,4,1,14,14,63,022,16,31,62,142,25,48,46,205,31,32,45,043,29*7F
12 51 01.689631088 0000,0000*52
12 51 01.839088030 $GPGSV,4,2,14,01,44,303,27,11,38,273,30,22,35,310,22,10,29,102,26*79
12 51 01.992725942 0000,0000*52
12 51 02.099463186 $GPGGA,205038.000,3437.7894,N,11733.2910,W,2,10,0.94,870.9,M,-31.2,M,0000,0000*5A
12 51 02.205601434
12 51 02.308629705 $GPGSA,A,3,11,31,10,32,22,08,25,03,01,14,,,1.22,0.94,0.78*0B
12 51 02.413726961
12 51 02.520273206 $GPGSV,4,1,14,14,63,022,14,31,62,142,24,48,46,205,30,32,45,043,28*7C
12 51 02.626226456
12 51 02.734935686 $GPGSV,4,2,14,01,44,303,28,11,38,273,29,22,36,310,21,10,29,102,25*7D
12 51 02.864174771
12 51 02.968010036 $GPGSV,4,3,14,03,15,304,14,25,09,074,34,08,07,231,18,23,02,250,*76
12 51 03.074158284
12 51 03.177131555 $GPGSV,4,4,14,18,02,113,18,26,01,157,26*7F
12 51 03.285624787
12 51 03.388405059 $GPRMC,205038.000,A,3437.7894,N,11733.2910,W,0.32,173.66,091217,,,D*71
12 51 03.558383855
12 51 03.662470118 $GPVTG,173.66,T,,M,0.32,N,0.60,K,D*3A
12 51 03.768882365
12 51 03.887130527 $GPGSV,4,3,14,03,15,304,14,25,09,074,34,08,07,231,19,23,02,250,*77
12 51 04.007938672 $GPGSV,4,4,14,18,02,113,20,26,01,157,27*75
12 51 04.116061906 º´$¤;$GPGGA,205039.000,3437.7893,N,11733.2910,W,2,10,0.94,870.9,M,-31.2,M,0000,0000*5C
12 51 04.223502145
12 51 04.327526409 $GPGSA,A,3,11,31,10,32,22,08,25,03,01,14,,,1.22,0.94,0.78*0B
12 51 04.434019655
12 51 04.546799856 $GPRMC,205039.000,A,3437.7893,N,11733.2910,W,0.30,162.67,091217,,,D*74
12 51 04.653709099
12 51 04.760367344 $GPVTG,162.67,T,,M,0.30,N,0.56,K,D*3C
12 51 04.866460593
12 51 04.992956697 $GPRMC,205033.000,A,3437.7895,N,11733.2912,W,0.09,55.83,091217,,,D*4F
12 51 05.169166449 $GPVTG,55.83,T,,M,0.09,N,0.17,K,D*0C
12 51 05.275456697 .2912,W,0.09,55.83,091217,,,D*4F
12 51 05.381766944 $GPGGA,205032.000,3437.7896,N,11733.2913,W,2,10,0.94,870.9,M,-31.2,M,0000,0000*51
12 51 05.837009720 $GPGSA,A,3,11,10,32,22,08,25,03,01,31,14,,,1.22,0.94,0.78*0B
12 51 05.944354960 -31.2,M,0000,0000*51
12 51 06.112541769 $GPRMC,205032.000,A,3437.7896,N,11733.2913,W,0.07,146.87,091217,,,D*75
12 51 06.261782712 00,0000*51
12 51 06.369289951 $GPGGA,205040.000,3437.7893,N,11733.2910,W,2,10,0.94,870.9,M,-31.2,M,0000,0000*52
12 51 06.474946203
12 51 06.577722475 $GPGSA,A,3,11,31,10,32,22,08,25,03,01,14,,,1.22,0.94,0.78*0B
12 51 06.684185721
12 51 06.788650982 $GPRMC,205040.000,A,3437.7893,N,11733.2910,W,0.28,173.50,091217,,,D*77
12 51 06.895469225
12 51 07.004016457 $GPVTG,173.50,T,,M,0.28,N,0.52,K,D*35
12 51 07.133156542
12 51 07.236197812 $GPVTG,146.87,T,,M,0.07,N,0.13,K,D*31
12 51 07.341240069 ÿÿÿÿÿÿÿÿÿÿÿÿÿÿÿÿÿÿÿÿÿÿÿÿ
12 51 07.445124333 $GPGGA,205035.000,3437.7896,N,11733.2911,W,2,10,0.94,870.9,M,-31.2,M,0000,0000*54
12 51 07.895403145 $GPGSA,A,3,11,31,10,32,22,08,25,03,01,14,,,1.22,0.94,0.78*0B
12 51 08.002810384 -31.2,M,0000,0000*54
12 51 08.131820470 $GPRMC,205035.000,A,3437.7896,N,11733.2911,W,0.26,115.25,091217,,,D*7D
12 51 08.238259717 00,0000*54
12 51 08.344042968 $GPVTG,115.25,T,,M,0.26,N,0.47,K,D*3D
12 51 08.449557221 2911,W,0.26,115.25,091217,,,D*7D
12 51 08.559598441 00,0000*54
12 51 08.666551684 $GPGGA,205041.000,3437.7892,N,11733.2910,W,2,10,0.94,870.9,M,-31.2,M,0000,0000*52
12 51 08.773831924
12 51 08.877878188 $GPGSA,A,3,11,31,10,32,22,08,25,03,01,14,,,1.22,0.94,0.78*0B
12 51 08.984323434
12 51 09.088595696 $GPRMC,205041.000,A,3437.7892,N,11733.2910,W,0.31,173.11,091217,,,D*7A
12 51 09.218050779
12 51 09.321878044 $GPVTG,173.11,T,,M,0.31,N,0.58,K,D*32
12 51 09.428172291
12 51 09.530990563 $GPGSA,A,3,11,10,32,22,08,25,03,01,14,,,,1.34,1.05,0.84*04
12 51 09.640284789 ÿÿÿ
12 51 09.745057047 $GPRMC,205030.000,A,3437.7896,N,11733.2913,W,0.06,121.70,091217,,,D*7F
12 51 09.852866284 $GPVTG,121.70,T,,M,0.06,N,0.11,K,D*3B
12 51 09.964212495 2913,W,0.06,121.70,091217,,,D*7F
12 51 10.071667734 $GPVTG,73.16,T,,M,0.06,N,0.12,K,D*0E
12 51 10.179899968
12 51 10.303501093 2913,W,0.06,121.70,091217,,,D*7F
12 51 10.409821340 $GPGGA,205042.000,3437.7891,N,11733.2909,W,2,10,0.94,870.9,M,-31.2,M,0000,0000*5A
12 51 10.858829160
12 51 10.962334427 $GPGSA,A,3,11,31,10,32,22,08,25,03,01,14,,,1.22,0.94,0.78*0B
12 51 11.068417676
12 51 11.170995950 $GPRMC,205042.000,A,3437.7891,N,11733.2909,W,0.26,148.84,091217,,,D*70
12 51 11.298384048
12 51 11.400669324 $GPVTG,148.84,T,,M,0.26,N,0.48,K,D*31
12 51 11.509551553
12 51 11.613445817 $GPGSA,A,3,11,31,10,32,22,08,25,03,01,14,,,1.22,0.94,0.78*0B
12 51 11.719684065 ÿ
12 51 11.824097325 $GPRMC,205029.000,A,3437.7896,N,11733.2913,W,0.06,73.16,091217,,,D*41
12 51 11.931846562 $GPGGA,205031.000,3437.7896,N,11733.2912,W,2,10,0.94,870.9,M,-31.2,M,0000,0000*53
12 51 12.400727242 $GPGSA,A,3,11,10,32,22,08,25,03,01,31,14,,,1.22,0.94,0.78*0B
12 51 12.506789491 -31.2,M,0000,0000*53
12 51 12.613200738 $GPGGA,205043.000,3437.7890,N,11733.2909,W,2,10,0.94,870.9,M,-31.2,M,0000,0000*5A
12 51 12.722907961
12 51 12.826969224 $GPGSA,A,3,11,31,10,32,22,08,25,03,01,14,,,1.22,0.94,0.78*0B
12 51 12.977797156
12 51 13.123058127 $GPGSV,4,1,14,14,63,022,14,31,62,142,23,48,46,205,29,32,45,043,28*73
12 51 13.228201383
12 51 13.333198639 $GPGSV,4,2,14,01,44,303,26,11,38,273,29,22,36,310,21,10,29,102,25*73
12 51 13.458531752
12 51 13.560650029 $GPGSV,4,3,14,03,15,304,13,25,09,074,34,08,07,231,18,23,02,250,*71
12 51 13.666782277
12 51 13.770782541 $GPGSV,4,4,14,18,02,113,18,26,01,157,26*7F
12 51 13.876523792
12 51 13.980461056 $GPRMC,205043.000,A,3437.7890,N,11733.2909,W,0.24,149.93,091217,,,D*75
12 51 14.087058301
12 51 14.190370570 $GPVTG,149.93,T,,M,0.24,N,0.44,K,D*38
12 51 14.296180820
12 51 14.421705932 $GPRMC,205031.000,A,3437.7896,N,11733.2912,W,0.08,192.34,091217,,,D*79
12 51 14.532250149 $GPVTG,192.34,T,,M,0.08,N,0.14,K,D*38
12 51 14.642646367 2912,W,0.08,192.34,091217,,,D*79
12 51 14.749188613 $GPGGA,205036.000,3437.7895,N,11733.2911,W,2,10,0.94,870.9,M,-31.2,M,0000,0000*54
12 51 15.198582430 $GPGSA,A,3,11,31,10,32,22,08,25,03,01,14,,,1.22,0.94,0.78*0B
12 51 15.307231661 -31.2,M,0000,0000*54
12 51 15.413473909 $GPGGA,205044.000,3437.7890,N,11733.2908,W,2,10,0.94,870.9,M,-31.2,M,0000,0000*5C
12 51 15.541226004
12 51 15.645107269 $GPGSA,A,3,11,31,10,32,22,08,25,03,01,14,,,1.22,0.94,0.78*0B
12 51 15.751276517
12 51 15.855087782 $GPRMC,205044.000,A,3437.7890,N,11733.2908,W,0.24,149.89,091217,,,D*78
12 51 15.960800033
12 51 16.068868268 $GPVTG,149.89,T,,M,0.24,N,0.44,K,D*33
12 51 16.174211522
12 51 16.276630797 $GPRMC,205036.000,A,3437.7895,N,11733.2911,W,0.18,141.17,091217,,,D*70
12 51 16.382336048 $GPVTG,141.17,T,,M,0.18,N,0.34,K,D*34
12 51 16.509630147 2911,W,0.18,141.17,091217,,,D*70
12 51 16.615971394 $GPGGA,205034.000,3437.7896,N,11733.2912,W,2,10,0.94,870.9,M,-31.2,M,0000,0000*56
12 51 17.065886208 $GPGSA,A,3,11,10,32,22,08,25,03,01,31,14,,,1.22,0.94,0.78*0B
12 51 17.173077449 °$GPGGA,205045.000,3437.7889,N,11733.2908,W,2,10,0.94,870.9,M,-31.2,M,0000,0000*55
12 51 17.278460703
12 51 17.380986977 $GPGSA,A,3,11,31,10,32,22,08,25,03,01,14,,,1.22,0.94,0.78*0B
12 51 17.490952198
12 51 17.617785300 $GPRMC,205045.000,A,3437.7889,N,11733.2908,W,0.27,141.41,091217,,,D*7E
12 51 17.724145547
12 51 17.849132662 $GPVTG,141.41,T,,M,0.27,N,0.50,K,D*39
12 51 18.014514491
12 51 18.119100750 $GPRMC,205034.000,A,3437.7896,N,11733.2912,W,0.20,63.69,091217,,,D*41
12 51 18.225161999 $GPVTG,63.69,T,,M,0.20,N,0.37,K,D*04
12 51 18.331004250 .2912,W,0.20,63.69,091217,,,D*41
12 51 18.437017499 $GPGGA,205030.000,3437.7896,N,11733.2913,W,2,09,1.05,870.9,M,-31.2,M,0000,0000*52
12 51 18.908857158 $GPGGA,205046.000,3437.7889,N,11733.2907,W,2,10,0.94,870.8,M,-31.2,M,0000,0000*58
12 51 19.039824230
12 51 19.149444454 $GPGSA,A,3,11,31,10,32,22,08,25,03,01,14,,,1.22,0.94,0.78*0B
12 51 19.255821701
12 51 19.359964964 $GPRMC,205046.000,A,3437.7889,N,11733.2907,W,0.25,155.27,091217,,,D*75
12 51 19.466417210
12 51 19.569025483 $GPVTG,155.27,T,,M,0.25,N,0.47,K,D*38
12 51 19.700780550
12 51 19.805323810 $GPGGA,205037.000,3437.7895,N,11733.2910,W,2,10,0.94,870.9,M,-31.2,M,0000,0000*54
12 51 20.255342623 $GPGSA,A,3,11,31,10,32,22,08,25,03,01,14,,,1.22,0.94,0.78*0B
12 51 20.361943868 -31.2,M,0000,0000*54
12 51 20.469517107 $GPRMC,205037.000,A,3437.7895,N,11733.2910,W,0.25,163.18,091217,,,D*71
12 51 20.580675320 00,0000*54
12 51 20.697996489 $GPVTG,163.18,T,,M,0.25,N,0.46,K,D*30
12 51 20.817664641 2910,W,0.25,163.18,091217,,,D*71
12 51 20.924210887 00,0000*54
12 51 21.031518127 $GPGGA,205047.000,3437.7888,N,11733.2907,W,2,10,0.94,870.8,M,-31.2,M,0000,0000*58
12 51 21.138608369
12 51 21.241546640 $GPGSA,A,3,11,31,10,32,22,08,25,03,01,14,,,1.22,0.94,0.78*0B
12 51 21.346924894
12 51 21.449898165 $GPRMC,205047.000,A,3437.7888,N,11733.2907,W,0.24,186.77,091217,,,D*7F
12 51 21.555087420
12 51 21.659109683 $GPVTG,186.77,T,,M,0.24,N,0.45,K,D*30
12 51 21.788498767
12 51 21.892712029 $GPGGA,205033.000,3437.7895,N,11733.2912,W,2,10,0.94,870.9,M,-31.2,M,0000,0000*52
12 51 22.345695821 $GPGSA,A,3,11,10,32,22,08,25,03,01,31,14,,,1.22,0.94,0.78*0B
12 51 22.452195067 -31.2,M,0000,0000*52
12 51 22.560660299 $GPGSV,4,1,14,14,63,022,16,31,62,142,25,48,46,205,31,32,45,043,29*7F
12 51 22.668483536 0000,0000*52
12 51 22.775785776 $GPGGA,205048.000,3437.7887,N,11733.2907,W,2,10,0.94,870.8,M,-31.2,M,0000,0000*58
12 51 22.905551857
12 51 23.009784119 $GPGSA,A,3,11,31,10,32,22,08,25,03,01,14,,,1.22,0.94,0.78*0B
12 51 23.116151366
12 51 23.219567633 $GPGSV,4,1,14,14,63,022,12,31,62,141,23,48,46,205,29,32,45,043,28*76
12 51 23.324626890
12 51 23.427411162 $GPGSV,4,2,14,01,44,303,26,11,38,273,28,22,36,310,20,10,29,102,25*73
12 51 23.537106385
12 51 23.640886650 $GPGSV,4,3,14,03,15,304,16,25,09,074,33,08,07,231,17,23,02,250,*7C
12 51 23.747460895
12 51 23.868099041 $GPGSV,4,4,14,18,02,113,17,26,01,157,25*73
12 51 23.981554238
12 51 24.085901499 $GPRMC,205048.000,A,3437.7887,N,11733.2907,W,0.17,205.28,091217,,,D*7D
12 51 24.192647743
12 51 24.296695006 $GPVTG,205.28,T,,M,0.17,N,0.31,K,D*31
12 51 24.402352258
12 51 24.505016531 $GPGSV,4,2,14,01,44,303,27,11,38,273,30,22,35,310,22,10,29,102,26*79
12 51 24.612252772 $GPGGA,205038.000,3437.7894,N,11733.2910,W,2,10,0.94,870.9,M,-31.2,M,0000,0000*5A
12 51 25.093765362 $GPGSA,A,3,11,31,10,32,22,08,25,03,01,14,,,1.22,0.94,0.78*0B
12 51 25.200356607 -31.2,M,0000,0000*5A
12 51 25.307591848 $GPGSV,4,1,14,14,63,022,14,31,62,142,24,48,46,205,30,32,45,043,28*7C
12 51 25.413698097 0000,0000*5A
12 51 25.519326349 $GPGGA,205049.000,3437.7887,N,11733.2907,W,2,10,0.94,870.8,M,-31.2,M,0000,0000*59
12 51 25.626207592
12 51 25.729819858 $GPGSA,A,3,11,31,10,32,22,08,25,03,01,14,,,1.22,0.94,0.78*0B
12 51 25.835863107
12 51 25.951614288 $GPRMC,205049.000,A,3437.7887,N,11733.2907,W,0.14,205.53,091217,,,D*73
12 51 26.068067463
12 51 26.172121726 $GPVTG,205.53,T,,M,0.14,N,0.26,K,D*38
12 51 26.278190975
12 51 26.380684249 $GPGSV,4,2,14,01,44,303,28,11,38,273,29,22,36,310,21,10,29,102,25*7D
12 51 26.491682463 $GPGSV,4,3,14,03,15,304,14,25,09,074,34,08,07,231,18,23,02,250,*76
12 51 26.597681713 D
12 51 26.702205973 $GPGSV,4,4,14,18,02,113,18,26,01,157,26*7F
12 51 26.810211208 07,231,18,23,02,250,*76
12 51 26.916311457 D
12 51 27.043804554 $GPRMC,205038.000,A,3437.7894,N,11733.2910,W,0.32,173.66,091217,,,D*71
12 51 27.150931795 $GPVTG,173.66,T,,M,0.32,N,0.60,K,D*3A
12 51 27.257256042 2910,W,0.32,173.66,091217,,,D*71
12 51 27.362465297 $GPGSV,4,3,14,03,15,304,14,25,09,074,34,08,07,231,19,23,02,250,*77
12 51 27.468152549 *71
12 51 27.573925800 $GPGGA,205050.000,3437.7886,N,11733.2908,W,2,10,0.94,870.8,M,-31.2,M,0000,0000*5F
12 51 28.027139591
12 51 28.153535696 $GPGSA,A,3,11,31,10,32,22,08,25,03,01,14,,,1.22,0.94,0.78*0B
12 51 28.260426939
12 51 28.363291211 $GPRMC,205050.000,A,3437.7886,N,11733.2908,W,0.20,236.89,091217,,,D*75
12 51 28.468744464
12 51 28.572351730 $GPVTG,236.89,T,,M,0.20,N,0.38,K,D*37
12 51 28.678165981
12 51 28.782318243 $GPGSV,4,4,14,18,02,113,20,26,01,157,27*75
12 51 28.890271479 ÿÿÿÿÿÿÿÿÿÿÿÿÿÿÿÿÿÿÿ
12 51 28.995441734 $GPGSA,A,3,11,31,10,32,22,08,25,03,01,14,,,1.22,0.94,0.78*0B
12 51 29.108983930 $GPGGA,205051.000,3437.7886,N,11733.2908,W,2,10,0.94,870.8,M,-31.2,M,0000,0000*5E
12 51 29.232298057
12 51 29.336629318 $GPGSA,A,3,11,31,10,32,22,08,25,03,01,14,,,1.22,0.94,0.78*0B
12 51 29.442860566
12 51 29.550367805 $GPRMC,205051.000,A,3437.7886,N,11733.2908,W,0.12,176.66,091217,,,D*73
12 51 29.656625052
12 51 29.762621302 $GPVTG,176.66,T,,M,0.12,N,0.22,K,D*3B
12 51 29.868793550
12 51 29.973276810 $GPRMC,205039.000,A,3437.7893,N,11733.2910,W,0.30,162.67,091217,,,D*74
12 51 30.080499051 $GPVTG,162.67,T,,M,0.30,N,0.56,K,D*3C
12 51 30.209275139 2910,W,0.30,162.67,091217,,,D*74
12 51 30.315445387 $GPRMC,205033.000,A,3437.7895,N,11733.2912,W,0.09,55.83,091217,,,D*4F
12 51 30.420356644
12 51 30.523496914 $GPVTG,55.83,T,,M,0.09,N,0.17,K,D*0C
12 51 30.630792154 .2912,W,0.09,55.83,091217,,,D*4F
12 51 30.736750404
12 51 30.841306664 $GPGGA,205032.000,3437.7896,N,11733.2913,W,2,10,0.94,870.9,M,-31.2,M,0000,0000*51
12 51 31.317822289 $GPGSA,A,3,11,10,32,22,08,25,03,01,31,14,,,1.22,0.94,0.78*0B
12 51 31.425626526 -31.2,M,0000,0000*51
12 51 31.531238778 $GPGGA,205052.000,3437.7886,N,11733.2908,W,2,10,0.94,870.8,M,-31.2,M,0000,0000*5D
12 51 31.637334027
12 51 31.741631288 $GPGSA,A,3,11,31,10,32,22,08,25,03,01,14,,,1.22,0.94,0.78*0B
12 51 31.849667523
12 51 31.953697787 $GPRMC,205052.000,A,3437.7886,N,11733.2908,W,0.20,174.71,091217,,,D*75
12 51 32.059480038
12 51 32.163279303 $GPVTG,174.71,T,,M,0.20,N,0.37,K,D*3A
12 51 32.290276403
12 51 32.393378673 $GPRMC,205032.000,A,3437.7896,N,11733.2913,W,0.07,146.87,091217,,,D*75
12 51 32.504136889 $GPGGA,205040.000,3437.7893,N,11733.2910,W,2,10,0.94,870.9,M,-31.2,M,0000,0000*52
12 51 32.956690684 $GPGSA,A,3,11,31,10,32,22,08,25,03,01,14,,,1.22,0.94,0.78*0B
12 51 33.064414922 -31.2,M,0000,0000*52
12 51 33.172880154 $GPGGA,205053.000,3437.7885,N,11733.2908,W,2,10,0.94,870.8,M,-31.2,M,0000,0000*5F
12 51 33.280161394
12 51 33.403085524 $GPGSA,A,3,11,31,10,32,22,08,25,03,01,14,,,1.22,0.94,0.78*0B
12 51 33.508381778
12 51 33.612280042 $GPGSV,4,1,14,14,63,022,14,31,62,141,23,48,46,205,29,32,45,043,28*70
12 51 33.718400291
12 51 33.822901551 $GPGSV,4,2,14,01,44,303,26,11,38,273,28,22,36,310,21,10,29,102,25*72
12 51 33.929581795
12 51 34.038073027 $GPGSV,4,3,14,03,15,304,13,25,09,074,33,08,07,231,18,23,02,250,*76
12 51 34.145224268
12 51 34.249539530 $GPGSV,4,4,14,18,02,113,16,26,01,157,25*72
12 51 34.378626616
12 51 34.481882885 $GPRMC,205053.000,A,3437.7885,N,11733.2908,W,0.18,186.96,091217,,,D*78
12 51 34.587682135
12 51 34.691880398 $GPVTG,186.96,T,,M,0.18,N,0.34,K,D*36
12 51 34.802115617
12 51 34.906050881 $GPRMC,205040.000,A,3437.7893,N,11733.2910,W,0.28,173.50,091217,,,D*77
12 51 35.013842118 $GPVTG,173.50,T,,M,0.28,N,0.52,K,D*35
12 51 35.121109358 2910,W,0.28,173.50,091217,,,D*77
12 51 35.227243607 $GPVTG,146.87,T,,M,0.07,N,0.13,K,D*31
12 51 35.332819859 2910,W,0.28,173.50,091217,,,D*77
12 51 35.461375949 $GPGGA,205035.000,3437.7896,N,11733.2911,W,2,10,0.94,870.9,M,-31.2,M,0000,0000*54
12 51 35.917199721 $GPGSA,A,3,11,31,10,32,22,08,25,03,01,14,,,1.22,0.94,0.78*0B
12 51 36.023881966 -31.2,M,0000,0000*54
12 51 36.130582210 $GPGGA,205054.000,3437.7885,N,11733.2908,W,2,10,0.94,870.8,M,-31.2,M,0000,0000*58
12 51 36.236621459
12 51 36.340275725 $GPGSA,A,3,11,31,10,32,22,08,25,03,01,14,,,1.22,0.94,0.78*0B
12 51 36.468849815
12 51 36.572072084 $GPRMC,205054.000,A,3437.7885,N,11733.2908,W,0.26,181.02,091217,,,D*78
12 51 36.678446331
12 51 36.782700592 $GPVTG,181.02,T,,M,0.26,N,0.49,K,D*3B
12 51 36.888731842
12 51 36.992786105 $GPRMC,205035.000,A,3437.7896,N,11733.2911,W,0.26,115.25,091217,,,D*7D
12 51 37.103926318 $GPVTG,115.25,T,,M,0.26,N,0.47,K,D*3D
12 51 37.210036566 2911,W,0.26,115.25,091217,,,D*7D
12 51 37.315335821 $GPGGA,205041.000,3437.7892,N,11733.2910,W,2,10,0.94,870.9,M,-31.2,M,0000,0000*52
12 51 37.787037481 $GPGSA,A,3,11,31,10,32,22,08,25,03,01,14,,,1.22,0.94,0.78*0B
12 51 37.894935717 -31.2,M,0000,0000*52
12 51 38.006578926 $GPGGA,205055.000,3437.7884,N,11733.2908,W,2,10,0.94,870.8,M,-31.2,M,0000,0000*58
12 51 38.115213157
12 51 38.218237427 $GPGSA,A,3,11,31,10,32,22,08,25,03,01,14,,,1.22,0.94,0.78*0B
12 51 38.323587681
12 51 38.426056956 $GPRMC,205055.000,A,3437.7884,N,11733.2908,W,0.25,194.07,091217,,,D*7A
12 51 38.558640017
12 51 38.662982278 $GPVTG,194.07,T,,M,0.25,N,0.46,K,D*36
12 51 38.769294525
12 51 38.873891785 $GPRMC,205041.000,A,3437.7892,N,11733.2910,W,0.31,173.11,091217,,,D*7A
12 51 38.981654021 $GPVTG,173.11,T,,M,0.31,N,0.58,K,D*32
12 51 39.088749263 2910,W,0.31,173.11,091217,,,D*7A
12 51 39.195503507 $GPGSA,A,3,11,10,32,22,08,25,03,01,14,,,,1.34,1.05,0.84*04
12 51 39.302804747 1217,,,D*7A
12 51 39.409201994 $GPRMC,205030.000,A,3437.7896,N,11733.2913,W,0.06,121.70,091217,,,D*7F
12 51 39.515233243 $GPVTG,121.70,T,,M,0.06,N,0.11,K,D*3B
12 51 39.644577327 2913,W,0.06,121.70,091217,,,D*7F
12 51 39.751361571 $GPGGA,205056.000,3437.7883,N,11733.2908,W,2,10,0.94,870.8,M,-31.2,M,0000,0000*5C
12 51 40.206987345
12 51 40.309595618 $GPGSA,A,3,11,31,10,32,22,08,25,03,01,14,,,1.22,0.94,0.78*0B
12 51 40.414794873
12 51 40.520299126 $GPRMC,205056.000,A,3437.7883,N,11733.2908,W,0.26,172.73,091217,,,D*76
12 51 40.635364311
12 51 40.753032478 $GPVTG,172.73,T,,M,0.26,N,0.48,K,D*30
12 51 40.859000728
12 51 40.962766993 $GPVTG,73.16,T,,M,0.06,N,0.12,K,D*0E
12 51 41.068980241 ÿÿÿÿÿÿÿÿÿÿÿÿÿÿÿÿÿÿÿÿÿÿÿÿÿ
12 51 41.173391502 $GPGGA,205042.000,3437.7891,N,11733.2909,W,2,10,0.94,870.9,M,-31.2,M,0000,0000*5A
12 51 41.625463301 $GPGSA,A,3,11,31,10,32,22,08,25,03,01,14,,,1.22,0.94,0.78*0B
12 51 41.757243367 -31.2,M,0000,0000*5A
12 51 41.864945605 $GPGGA,205057.000,3437.7883,N,11733.2908,W,2,10,0.94,870.8,M,-31.2,M,0000,0000*5D
12 51 41.971634849
12 51 42.075500114 $GPGSA,A,3,11,31,10,32,22,08,25,03,01,14,,,1.22,0.94,0.78*0B
12 51 42.180694369
12 51 42.283259643 $GPRMC,205057.000,A,3437.7883,N,11733.2908,W,0.30,173.24,091217,,,D*73
12 51 42.388525897
12 51 42.491508168 $GPVTG,173.24,T,,M,0.30,N,0.56,K,D*3B
12 51 42.596763423
12 51 42.700445689 $GPRMC,205042.000,A,3437.7891,N,11733.2909,W,0.26,148.84,091217,,,D*70
12 51 42.831405761 $GPVTG,148.84,T,,M,0.26,N,0.48,K,D*31
12 51 42.938438003 2909,W,0.26,148.84,091217,,,D*70
12 51 43.049669216 $GPGSA,A,3,11,31,10,32,22,08,25,03,01,14,,,1.22,0.94,0.78*0B
12 51 43.156964456 17,,,D*70
12 51 43.263577701 $GPRMC,205029.000,A,3437.7896,N,11733.2913,W,0.06,73.16,091217,,,D*41
12 51 43.368436958
12 51 43.471111231 $GPGGA,205031.000,3437.7896,N,11733.2912,W,2,10,0.94,870.9,M,-31.2,M,0000,0000*53
12 51 43.945293874 $GPGGA,205058.000,3437.7882,N,11733.2908,W,2,10,0.94,870.8,M,-31.2,M,0000,0000*53
12 51 44.052384115
12 51 44.158061367 $GPGSA,A,3,11,31,10,32,22,08,25,03,01,14,,,1.22,0.94,0.78*0B
12 51 44.264797611
12 51 44.368529877 $GPGSV,4,1,14,14,63,022,12,31,62,141,23,48,46,205,29,32,45,043,28*76
12 51 44.474074129
12 51 44.582184364 $GPGSV,4,2,14,01,44,303,26,11,38,273,28,22,36,310,21,10,29,102,25*72
12 51 44.688648610
12 51 44.792952871 $GPGSV,4,3,14,03,15,304,15,25,09,074,33,08,07,231,17,23,02,250,*7F
12 51 44.925364934
12 51 45.029560196 $GPGSV,4,4,14,18,02,113,16,26,01,157,25*72
12 51 45.135429446
12 51 45.238108719 $GPRMC,205058.000,A,3437.7882,N,11733.2908,W,0.40,198.80,091217,,,D*71
12 51 45.343241975
12 51 45.445813248 $GPVTG,198.80,T,,M,0.40,N,0.74,K,D*37
12 51 45.551209502
12 51 45.655225766 $GPGSA,A,3,11,10,32,22,08,25,03,01,31,14,,,1.22,0.94,0.78*0B
12 51 45.761639012 ÿ
12 51 45.868772253 $GPGGA,205043.000,3437.7890,N,11733.2909,W,2,10,0.94,870.9,M,-31.2,M,0000,0000*5A
12 51 46.342191901 $GPGSA,A,3,11,31,10,32,22,08,25,03,01,14,,,1.22,0.94,0.78*0B
12 51 46.448501148 -31.2,M,0000,0000*5A
12 51 46.554867395 $GPGGA,205059.000,3437.7881,N,11733.2909,W,2,10,0.94,870.8,M,-31.2,M,0000,0000*50
12 51 46.663929623
12 51 46.767855887 $GPGSA,A,3,11,31,10,32,22,08,25,03,01,14,,,1.22,0.94,0.78*0B
12 51 46.874032135
12 51 47.001513232 $GPRMC,205059.000,A,3437.7881,N,11733.2909,W,0.49,202.43,091217,,,D*74
12 51 47.107984479
12 51 47.211173748 $GPVTG,202.43,T,,M,0.49,N,0.90,K,D*3B
12 51 47.315806007
12 51 47.418554279 $GPGSV,4,1,14,14,63,022,14,31,62,142,23,48,46,205,29,32,45,043,28*73
12 51 47.529322495 $GPGSV,4,2,14,01,44,303,26,11,38,273,29,22,36,310,21,10,29,102,25*73
12 51 47.636750734 $GPGSV,4,3,14,03,15,304,13,25,09,074,34,08,07,231,18,23,02,250,*71
12 51 47.743733977 3
12 51 47.848293236 $GPGSV,4,4,14,18,02,113,18,26,01,157,26*7F
12 51 47.955943474 07,231,18,23,02,250,*71
12 51 48.084867561 3
12 51 48.189427821 $GPRMC,205043.000,A,3437.7890,N,11733.2909,W,0.24,149.93,091217,,,D*75
12 51 48.295584069 $GPVTG,149.93,T,,M,0.24,N,0.44,K,D*38
12 51 48.401513319 2909,W,0.24,149.93,091217,,,D*75
12 51 48.507810566 $GPGGA,205100.000,3437.7879,N,11733.2909,W,2,10,0.94,870.8,M,-31.2,M,0000,0000*5A
12 51 48.958213377
12 51 49.087444462 $GPGSA,A,3,11,31,10,32,22,08,25,03,01,14,,,1.22,0.94,0.78*0B
12 51 49.197250684
12 51 49.301549946 $GPRMC,205100.000,A,3437.7879,N,11733.2909,W,0.49,201.15,091217,,,D*7E
12 51 49.406867200
12 51 49.509454474 $GPVTG,201.15,T,,M,0.49,N,0.90,K,D*3B
12 51 49.614811728
12 51 49.718573993 $GPRMC,205031.000,A,3437.7896,N,11733.2912,W,0.08,192.34,091217,,,D*79
12 51 49.826410229 $GPVTG,192.34,T,,M,0.08,N,0.14,K,D*38
12 51 49.935275458 2912,W,0.08,192.34,091217,,,D*79
12 51 50.042008703 $GPGGA,205036.000,3437.7895,N,11733.2911,W,2,10,0.94,870.9,M,-31.2,M,0000,0000*54
12 51 50.512032374 $GPGSA,A,3,11,31,10,32,22,08,25,03,01,14,,,1.22,0.94,0.78*0B
12 51 50.624610577 -31.2,M,0000,0000*54
12 51 50.731690819 $GPGGA,205101.000,3437.7878,N,11733.2910,W,2,10,0.94,870.8,M,-31.2,M,0000,0000*52
12 51 50.838615062
12 51 50.942647325 $GPGSA,A,3,11,31,10,32,22,08,25,03,01,14,,,1.22,0.94,0.78*0B
12 51 51.048734574
12 51 51.152377840 $GPRMC,205101.000,A,3437.7878,N,11733.2910,W,0.53,205.34,091217,,,D*7A
12 51 51.279704938
12 51 51.382393211 $GPVTG,205.34,T,,M,0.53,N,0.98,K,D*3F
12 51 51.487148470
12 51 51.590961734 $GPGGA,205044.000,3437.7890,N,11733.2908,W,2,10,0.94,870.9,M,-31.2,M,0000,0000*5C
12 51 52.046811507 $GPGSA,A,3,11,31,10,32,22,08,25,03,01,14,,,1.22,0.94,0.78*0B
12 51 52.154085747 -31.2,M,0000,0000*5C
12 51 52.282787836 $GPRMC,205044.000,A,3437.7890,N,11733.2908,W,0.24,149.89,091217,,,D*78
12 51 52.388823085 00,0000*5C
12 51 52.494210338 $GPVTG,149.89,T,,M,0.24,N,0.44,K,D*33
12 51 52.601135581 2908,W,0.24,149.89,091217,,,D*78
12 51 52.707716827 00,0000*5C
12 51 52.814771069 $GPGGA,205102.000,3437.7877,N,11733.2911,W,2,10,0.94,870.8,M,-31.2,M,0000,0000*5F
12 51 52.921460313
12 51 53.025462577 $GPGSA,A,3,11,31,10,32,22,08,25,03,01,14,,,1.22,0.94,0.78*0B
12 51 53.131705824
12 51 53.235160092 $GPRMC,205102.000,A,3437.7877,N,11733.2911,W,0.46,197.82,091217,,,D*76
12 51 53.362672189
12 51 53.465478461 $GPVTG,197.82,T,,M,0.46,N,0.85,K,D*32
12 51 53.575469682
12 51 53.681735930 $GPRMC,205036.000,A,3437.7895,N,11733.2911,W,0.18,141.17,091217,,,D*70
12 51 53.789816164 $GPGGA,205109.000,3437.7867,N,11733.2912,W,2,10,0.94,870.8,M,-31.2,M,0000,0000*56
12 51 54.241802964
12 51 54.370216054 $GPGSA,A,3,11,31,10,32,22,08,25,03,01,14,,,1.22,0.94,0.78*0B
12 51 54.476802300
12 51 54.581256560 $GPRMC,205109.000,A,3437.7867,N,11733.2912,W,0.54,186.10,091217,,,D*77
12 51 54.687578807
12 51 54.792334065 $GPVTG,186.10,T,,M,0.54,N,0.99,K,D*37
12 51 54.898447314
12 51 55.005034559 $GPGSV,4,2,14,01,44,303,26,11,38,273,28,22,36,310,20,10,29,102,25*73
12 51 55.116651769 $GPGSV,4,3,14,03,15,304,16,25,09,074,33,08,07,231,17,23,02,250,*7C
12 51 55.225423999 3
12 51 55.330419255 $GPGSV,4,4,14,18,02,113,17,26,01,157,25*73
12 51 55.460395335 07,231,17,23,02,250,*7C
12 51 55.567052580 3
12 51 55.672140835 $GPRMC,205048.000,A,3437.7887,N,11733.2907,W,0.17,205.28,091217,,,D*7D
12 51 55.779830073 $GPVTG,205.28,T,,M,0.17,N,0.31,K,D*31
12 51 55.887154313 2907,W,0.17,205.28,091217,,,D*7D
12 51 55.995021549 $GPGGA,205110.000,3437.7866,N,11733.2912,W,2,10,0.94,870.8,M,-31.2,M,0000,0000*5F
12 51 56.470779180
12 51 56.580433404 $GPGSA,A,3,11,31,10,32,22,08,25,03,01,14,,,1.22,0.94,0.78*0B
12 51 56.687184648
12 51 56.791486909 $GPRMC,205110.000,A,3437.7866,N,11733.2912,W,0.51,194.15,091217,,,D*7D
12 51 56.897686157
12 51 57.001769420 $GPVTG,194.15,T,,M,0.51,N,0.95,K,D*38
12 51 57.107972668
12 51 57.212130931 $GPGSV,4,2,14,01,44,303,27,11,38,273,30,22,35,310,22,10,29,102,26*79
12 51 57.319726169 $GPGGA,205038.000,3437.7894,N,11733.2910,W,2,10,0.94,870.9,M,-31.2,M,0000,0000*5A
12 51 57.796185795 $GPGSA,A,3,11,31,10,32,22,08,25,03,01,14,,,1.22,0.94,0.78*0B
12 51 57.903463035 -31.2,M,0000,0000*5A
12 51 58.010446278 $GPGGA,205111.000,3437.7865,N,11733.2913,W,2,10,0.94,870.8,M,-31.2,M,0000,0000*5C
12 51 58.122336485
12 51 58.226492748 $GPGSA,A,3,11,31,10,32,22,08,25,03,01,14,,,1.22,0.94,0.78*0B
12 51 58.332638996
12 51 58.436972258 $GPRMC,205111.000,A,3437.7865,N,11733.2913,W,0.47,188.92,091217,,,D*7B
12 51 58.565946344
12 51 58.670057607 $GPVTG,188.92,T,,M,0.47,N,0.88,K,D*31
12 51 58.776775851
12 51 58.881319111 $GPGSV,4,1,14,14,63,022,14,31,62,142,24,48,46,205,30,32,45,043,28*7C
12 51 58.989468345 $GPGGA,205049.000,3437.7887,N,11733.2907,W,2,10,0.94,870.8,M,-31.2,M,0000,0000*59
12 51 59.442042141 $GPGSA,A,3,11,31,10,32,22,08,25,03,01,14,,,1.22,0.94,0.78*0B
12 51 59.555608336 -31.2,M,0000,0000*59
12 51 59.685539416 $GPRMC,205049.000,A,3437.7887,N,11733.2907,W,0.14,205.53,091217,,,D*73
12 51 59.800039606 00,0000*59
12 51 59.909957827 $GPGGA,205112.000,3437.7863,N,11733.2913,W,2,10,0.93,870.8,M,-31.2,M,0000,0000*5E
12 52 00.019294053
12 52 00.123152318 $GPGSA,A,3,11,31,10,32,22,08,25,03,01,14,,,1.21,0.93,0.78*0F
12 52 00.230208560
12 52 00.335219816 $GPRMC,205112.000,A,3437.7863,N,11733.2913,W,0.54,185.40,091217,,,D*7E
12 52 00.442013060
12 52 00.557854239 $GPVTG,185.40,T,,M,0.54,N,1.01,K,D*31
12 52 00.686922326
12 52 00.791257587 $GPVTG,205.53,T,,M,0.14,N,0.26,K,D*38
12 52 00.897055838 ÿÿÿÿÿÿÿÿÿÿÿÿÿÿÿÿÿÿÿÿÿÿÿÿ
12 52 01.009026045 $GPGSV,4,2,14,01,44,303,28,11,38,273,29,22,36,310,21,10,29,102,25*7D
12 52 01.149149052 $GPGSV,4,3,14,03,15,304,14,25,09,074,34,08,07,231,18,23,02,250,*76
12 52 01.255790297 D
12 52 01.360702554 $GPGSV,4,4,14,18,02,113,18,26,01,157,26*7F
12 52 01.467458798 07,231,18,23,02,250,*76
12 52 01.573732046 D
12 52 01.687168243 $GPGGA,205113.000,3437.7862,N,11733.2913,W,2,10,0.94,870.8,M,-31.2,M,0000,0000*59
12 52 02.154205936
12 52 02.258241199 $GPGSA,A,3,11,31,10,32,22,08,25,03,01,14,,,1.22,0.94,0.78*0B
12 52 02.366136435
12 52 02.470309697 $GPGSV,4,1,14,14,63,022,14,31,62,141,23,48,46,205,30,32,45,043,29*79
12 52 02.580586916
12 52 02.684509181 $GPGSV,4,2,14,01,44,303,27,11,38,273,29,22,36,310,21,10,29,102,25*72
12 52 02.814329261
12 52 02.918631523 $GPGSV,4,3,14,03,15,304,15,25,09,073,33,08,07,231,18,23,03,251,*77
12 52 03.025076769
12 52 03.129332031 $GPGSV,4,4,14,18,02,113,16,26,01,157,25*72
12 52 03.236079275
12 52 03.339932539 $GPRMC,205113.000,A,3437.7862,N,11733.2913,W,0.59,183.46,091217,,,D*73
12 52 03.446249787
12 52 03.549788053 $GPVTG,183.46,T,,M,0.59,N,1.09,K,D*34
12 52 03.656418298
12 52 03.760697560 $GPRMC,205038.000,A,3437.7894,N,11733.2910,W,0.32,173.66,091217,,,D*71
12 52 03.890802639 $GPVTG,173.66,T,,M,0.32,N,0.60,K,D*3A
12 52 03.997985880 2910,W,0.32,173.66,091217,,,D*71
12 52 04.109119093 $GPGSV,4,3,14,03,15,304,14,25,09,074,34,08,07,231,19,23,02,250,*77
12 52 04.216205334 *71
12 52 04.322931579 $GPGGA,205050.000,3437.7886,N,11733.2908,W,2,10,0.94,870.8,M,-31.2,M,0000,0000*5F
12 52 04.774227383 $GPGGA,205114.000,3437.7860,N,11733.2912,W,2,10,0.94,870.7,M,-31.2,M,0000,0000*52
12 52 04.905146456
12 52 05.008832722 $GPGSA,A,3,11,31,10,32,22,08,25,03,01,14,,,1.22,0.94,0.78*0B
12 52 05.119160941
12 52 05.223264203 $GPRMC,205114.000,A,3437.7860,N,11733.2912,W,0.59,180.91,091217,,,D*7E
12 52 05.329843449
12 52 05.433644714 $GPVTG,180.91,T,,M,0.59,N,1.10,K,D*35
12 52 05.539553964
12 52 05.647540199 $GPGSA,A,3,11,31,10,32,22,08,25,03,01,14,,,1.22,0.94,0.78*0B
12 52 05.754148444 ÿ
12 52 05.858789703 $GPRMC,205050.000,A,3437.7886,N,11733.2908,W,0.20,236.89,091217,,,D*75
12 52 05.989571777 $GPVTG,236.89,T,,M,0.20,N,0.38,K,D*37
12 52 06.096969017 2908,W,0.20,236.89,091217,,,D*75
12 52 06.204056258 $GPGSV,4,4,14,18,02,113,20,26,01,157,27*75
12 52 06.311479498 º³UA	B6
12 52 06.416427755 Úò°$GPGSA,A,3,11,31,10,32,22,08,25,03,01,14,,,1.22,0.94,0.78*0B
12 52 06.524862987 °$GPGGA,205115.000,3437.7860,N,11733.2912,W,2,10,0.93,870.6,M,-31.2,M,0000,0000*55
12 52 06.631455232
12 52 06.735379496 $GPGSA,A,3,11,31,10,32,22,08,25,03,01,14,,,1.21,0.93,0.78*0F
12 52 06.842160740
12 52 06.947870991 $GPRMC,205115.000,A,3437.7860,N,11733.2912,W,0.53,185.18,091217,,,D*71
12 52 07.079525059
12 52 07.183311324 $GPVTG,185.18,T,,M,0.53,N,0.98,K,D*3A
12 52 07.289336574
12 52 07.393162838 $GPGGA,205051.000,3437.7886,N,11733.2908,W,2,10,0.94,870.8,M,-31.2,M,0000,0000*5E
12 52 07.844188645 $GPGSA,A,3,11,31,10,32,22,08,25,03,01,14,,,1.22,0.94,0.78*0B
12 52 07.951655884 -31.2,M,0000,0000*5E
12 52 08.082736955 $GPRMC,205051.000,A,3437.7886,N,11733.2908,W,0.12,176.66,091217,,,D*73
12 52 08.190404193 00,0000*5E
12 52 08.297170437 $GPVTG,176.66,T,,M,0.12,N,0.22,K,D*3B
12 52 08.403979681 2908,W,0.12,176.66,091217,,,D*73
12 52 08.510722925 00,0000*5E
12 52 08.621832138 $GPGGA,205116.000,3437.7860,N,11733.2911,W,2,10,0.93,870.5,M,-31.2,M,0000,0000*56
12 52 08.728845380
12 52 08.833146642 $GPGSA,A,3,11,31,10,32,22,08,25,03,01,14,,,1.21,0.93,0.78*0F
12 52 08.939593888
12 52 09.043659151 $GPRMC,205116.000,A,3437.7860,N,11733.2911,W,0.46,176.23,091217,,,D*71
12 52 09.173700230
12 52 09.277691494 $GPVTG,176.23,T,,M,0.46,N,0.85,K,D*36
12 52 09.384071741
12 52 09.487340009 $GPRMC,205039.000,A,3437.7893,N,11733.2910,W,0.30,162.67,091217,,,D*74
12 52 09.593837255 $GPVTG,162.67,T,,M,0.30,N,0.56,K,D*3C
12 52 09.700502500 2910,W,0.30,162.67,091217,,,D*74
12 52 09.807393743 $GPRMC,205033.000,A,3437.7895,N,11733.2912,W,0.09,55.83,091217,,,D*4F
12 52 09.913767990
12 52 10.018072251 $GPVTG,55.83,T,,M,0.09,N,0.17,K,D*0C
12 52 10.154530285 .2912,W,0.09,55.83,091217,,,D*4F
12 52 10.259753540
12 52 10.362375813 $GPGGA,205117.000,3437.7860,N,11733.2911,W,2,10,0.94,870.4,M,-31.2,M,0000,0000*51
12 52 10.811977630
12 52 10.916050893 $GPGSA,A,3,11,31,10,32,22,08,25,03,01,14,,,1.22,0.94,0.78*0B
12 52 11.022331140
12 52 11.126160405 $GPRMC,205117.000,A,3437.7860,N,11733.2911,W,0.36,179.78,091217,,,D*76
12 52 11.253419504
12 52 11.356201776 $GPVTG,179.78,T,,M,0.36,N,0.66,K,D*3D
12 52 11.461434031
12 52 11.568548272 $GPGGA,205032.000,3437.7896,N,11733.2913,W,2,10,0.94,870.9,M,-31.2,M,0000,0000*51
12 52 12.020477072 $GPGSA,A,3,11,10,32,22,08,25,03,01,31,14,,,1.22,0.94,0.78*0B
12 52 12.127127317 -31.2,M,0000,0000*51
12 52 12.255472408 $GPGGA,205052.000,3437.7886,N,11733.2908,W,2,10,0.94,870.8,M,-31.2,M,0000,0000*5D
12 52 12.362071653 $GPGSA,A,3,11,31,10,32,22,08,25,03,01,14,,,1.22,0.94,0.78*0B
12 52 12.467713905 -31.2,M,0000,0000*5D
12 52 12.573326157 $GPGGA,205118.000,3437.7860,N,11733.2910,W,2,10,0.94,870.3,M,-31.2,M,0000,0000*58
12 52 12.679647404
12 52 12.783805667 $GPGSA,A,3,11,31,10,32,22,08,25,03,01,14,,,1.22,0.94,0.78*0B
12 52 12.889575918
12 52 12.993919179 $GPGSV,4,1,14,14,63,022,14,31,62,141,23,48,46,205,30,32,45,043,28*78
12 52 13.104417397
12 52 13.208299661 $GPGSV,4,2,14,01,44,303,27,11,38,273,28,22,36,310,21,10,29,102,25*73
12 52 13.338762737
12 52 13.441765008 $GPGSV,4,3,14,03,15,304,16,25,09,073,33,08,07,231,18,23,03,251,*74
12 52 13.546952263
12 52 13.650592529 $GPGSV,4,4,14,18,02,113,15,26,01,157,26*72
12 52 13.757211774
12 52 13.861416036 $GPRMC,205118.000,A,3437.7860,N,11733.2910,W,0.37,188.82,091217,,,D*72
12 52 13.967461285
12 52 14.071117551 $GPVTG,188.82,T,,M,0.37,N,0.68,K,D*39
12 52 14.177256800
12 52 14.281283063 $GPRMC,205052.000,A,3437.7886,N,11733.2908,W,0.20,174.71,091217,,,D*75
12 52 14.410893145 $GPVTG,174.71,T,,M,0.20,N,0.37,K,D*3A
12 52 14.516850395 2908,W,0.20,174.71,091217,,,D*75
12 52 14.627941609 $GPRMC,205032.000,A,3437.7896,N,11733.2913,W,0.07,146.87,091217,,,D*75
12 52 14.735197849 $GPGGA,205040.000,3437.7893,N,11733.2910,W,2,10,0.94,870.9,M,-31.2,M,0000,0000*52
12 52 15.188539639 $GPGSA,A,3,11,31,10,32,22,08,25,03,01,14,,,1.22,0.94,0.78*0B
12 52 15.294880886 -31.2,M,0000,0000*52
12 52 15.423618974 $GPGGA,205119.000,3437.7859,N,11733.2911,W,2,10,0.93,870.3,M,-31.2,M,0000,0000*55
12 52 15.529532224
12 52 15.634299482 $GPGSA,A,3,11,31,10,32,22,08,25,03,01,14,,,1.22,0.93,0.78*0C
12 52 15.742888714
12 52 15.847096976 $GPRMC,205119.000,A,3437.7859,N,11733.2911,W,0.37,200.36,091217,,,D*74
12 52 15.953302224
12 52 16.060558464 $GPVTG,200.36,T,,M,0.37,N,0.68,K,D*35
12 52 16.165215723
12 52 16.268843989 $GPGGA,205053.000,3437.7885,N,11733.2908,W,2,10,0.94,870.8,M,-31.2,M,0000,0000*5F
12 52 16.739749655 $GPGSA,A,3,11,31,10,32,22,08,25,03,01,14,,,1.22,0.94,0.78*0B
12 52 16.847345893 -31.2,M,0000,0000*5F
12 52 16.956541120 $GPGSV,4,1,14,14,63,022,14,31,62,141,23,48,46,205,29,32,45,043,28*70
12 52 17.064121358 0000,0000*5F
12 52 17.170967601 $GPGGA,205120.000,3437.7858,N,11733.2911,W,2,10,0.94,870.3,M,-31.2,M,0000,0000*59
12 52 17.276694853
12 52 17.379644124 $GPGSA,A,3,11,31,10,32,22,08,25,03,01,14,,,1.22,0.94,0.78*0B
12 52 17.500432268
12 52 17.614814458 $GPRMC,205120.000,A,3437.7858,N,11733.2911,W,0.29,193.61,091217,,,D*7B
12 52 17.721486703
12 52 17.825690965 $GPVTG,193.61,T,,M,0.29,N,0.54,K,D*3E
12 52 17.932336210
12 52 18.036215474 $GPGSV,4,2,14,01,44,303,26,11,38,273,28,22,36,310,21,10,29,102,25*72
12 52 18.143505715 $GPGSV,4,3,14,03,15,304,13,25,09,074,33,08,07,231,18,23,02,250,*76
12 52 18.249318965 2
12 52 18.353407228 $GPGSV,4,4,14,18,02,113,16,26,01,157,25*72
12 52 18.458815482 07,231,18,23,02,250,*76
12 52 18.587274572 2
12 52 18.692407828 $GPRMC,205053.000,A,3437.7885,N,11733.2908,W,0.18,186.96,091217,,,D*78
12 52 18.799449070 =›§'®$GPVTG,186.96,T,,M,0.18,N,0.34,K,D*36
12 52 18.906999308 2908,W,0.18,186.96,091217,,,D*78
12 52 19.014259549 =›§'®$GPGGA,205121.000,3437.7857,N,11733.2911,W,2,10,0.93,870.3,M,-31.2,M,0000,0000*50
12 52 19.125708760
12 52 19.229846022 $GPGSA,A,3,11,31,10,32,22,08,25,03,01,14,,,1.21,0.93,0.78*0F
12 52 19.336014270
12 52 19.439716536 $GPRMC,205121.000,A,3437.7857,N,11733.2911,W,0.30,180.93,091217,,,D*72
12 52 19.545355788
12 52 19.672249890 $GPVTG,180.93,T,,M,0.30,N,0.56,K,D*3B
12 52 19.778489137
12 52 19.882832398 $GPRMC,205040.000,A,3437.7893,N,11733.2910,W,0.28,173.50,091217,,,D*77
12 52 19.990200638 $GPVTG,173.50,T,,M,0.28,N,0.52,K,D*35
12 52 20.097090881 2910,W,0.28,173.50,091217,,,D*77
12 52 20.204756119 $GPVTG,146.87,T,,M,0.07,N,0.13,K,D*31
12 52 20.314631341 2910,W,0.28,173.50,091217,,,D*77
12 52 20.420124594 $GPGGA,205035.000,3437.7896,N,11733.2911,W,2,10,0.94,870.9,M,-31.2,M,0000,0000*54
12 52 20.898748205 $GPGGA,205122.000,3437.7856,N,11733.2911,W,2,10,0.93,870.3,M,-31.2,M,0000,0000*52
12 52 21.007754433
12 52 21.110567705 $GPGSA,A,3,11,31,10,32,22,08,25,03,01,14,,,1.21,0.93,0.78*0F
12 52 21.215488962
12 52 21.317888237 $GPRMC,205122.000,A,3437.7856,N,11733.2911,W,0.36,181.72,091217,,,D*78
12 52 21.423149491
12 52 21.526000763 $GPVTG,181.72,T,,M,0.36,N,0.66,K,D*30
12 52 21.632283010
12 52 21.759058113 $GPGSA,A,3,11,31,10,32,22,08,25,03,01,14,,,1.22,0.94,0.78*0B
12 52 21.865916356 ÿ
12 52 21.970334617 $GPGGA,205054.000,3437.7885,N,11733.2908,W,2,10,0.94,870.8,M,-31.2,M,0000,0000*58
12 52 22.424191403 $GPGSA,A,3,11,31,10,32,22,08,25,03,01,14,,,1.22,0.94,0.78*0B
12 52 22.531370644 -31.2,M,0000,0000*58
12 52 22.638429886 $GPRMC,205054.000,A,3437.7885,N,11733.2908,W,0.26,181.02,091217,,,D*78
12 52 22.746076124 00,0000*58
12 52 22.876268202 $GPGGA,205123.000,3437.7855,N,11733.2911,W,2,10,0.93,870.3,M,-31.2,M,0000,0000*50
12 52 22.983129445
12 52 23.086613712 $GPGSA,A,3,11,31,10,32,22,08,25,03,01,14,,,1.22,0.93,0.78*0C
12 52 23.191356971
12 52 23.330221987 $GPGSV,4,1,14,14,63,022,12,31,63,141,23,48,46,205,30,01,44,303,26*77
12 52 23.490670851
12 52 23.598029091 $GPGSV,4,2,14,32,44,044,28,11,38,273,28,22,36,310,21,10,29,102,25*7C
12 52 23.704503337
12 52 23.810554586 $GPGSV,4,3,14,03,15,304,13,25,09,073,33,08,07,231,18,23,03,251,*71
12 52 23.937924684
12 52 24.041849948 $GPGSV,4,4,14,18,02,113,14,26,01,157,26*73
12 52 24.147858198
12 52 24.251745462 $GPRMC,205123.000,A,3437.7855,N,11733.2911,W,0.23,192.97,091217,,,D*77
12 52 24.357544713
12 52 24.460457984 $GPVTG,192.97,T,,M,0.23,N,0.43,K,D*3A
12 52 24.566289235
12 52 24.670444497 $GPVTG,181.02,T,,M,0.26,N,0.49,K,D*3B
12 52 24.777897736 ÿÿÿÿÿÿÿÿÿÿÿÿÿÿÿÿÿÿÿÿÿÿÿÿ
12 52 24.903628846 $GPRMC,205035.000,A,3437.7896,N,11733.2911,W,0.26,115.25,091217,,,D*7D
12 52 25.013081071 $GPVTG,115.25,T,,M,0.26,N,0.47,K,D*3D
12 52 25.124285283 2911,W,0.26,115.25,091217,,,D*7D
12 52 25.229967535 $GPGGA,205041.000,3437.7892,N,11733.2910,W,2,10,0.94,870.9,M,-31.2,M,0000,0000*52
12 52 25.680909342 $GPGGA,205124.000,3437.7855,N,11733.2911,W,2,10,0.93,870.3,M,-31.2,M,0000,0000*57
12 52 25.788103583
12 52 25.893952833 $GPGSA,A,3,11,31,10,32,22,08,25,03,01,14,,,1.21,0.93,0.78*0F
12 52 26.022480923
12 52 26.126179189 $GPRMC,205124.000,A,3437.7855,N,11733.2911,W,0.23,210.88,091217,,,D*77
12 52 26.231104446
12 52 26.333724719 $GPVTG,210.88,T,,M,0.23,N,0.42,K,D*3C
12 52 26.438103980
12 52 26.540612254 $GPGSA,A,3,11,31,10,32,22,08,25,03,01,14,,,1.22,0.94,0.78*0B
12 52 26.651240471 ÿ
12 52 26.755563732 $GPGGA,205055.000,3437.7884,N,11733.2908,W,2,10,0.94,870.8,M,-31.2,M,0000,0000*58
12 52 27.227695389 $GPGSA,A,3,11,31,10,32,22,08,25,03,01,14,,,1.22,0.94,0.78*0B
12 52 27.333712638 -31.2,M,0000,0000*58
12 52 27.439491889 $GPRMC,205055.000,A,3437.7884,N,11733.2908,W,0.25,194.07,091217,,,D*7A
12 52 27.546263133 00,0000*58
12 52 27.653046377 $GPGGA,205125.000,3437.7854,N,11733.2912,W,2,10,0.93,870.3,M,-31.2,M,0000,0000*54
12 52 27.759627622
12 52 27.863588886 $GPGSA,A,3,11,31,10,32,22,08,25,03,01,14,,,1.22,0.93,0.78*0C
12 52 27.970111132
12 52 28.100823206 $GPRMC,205125.000,A,3437.7854,N,11733.2912,W,0.19,220.65,091217,,,D*7D
12 52 28.206127461
12 52 28.308992732 $GPVTG,220.65,T,,M,0.19,N,0.35,K,D*35
12 52 28.413941989
12 52 28.516283265 $GPVTG,194.07,T,,M,0.25,N,0.46,K,D*36
12 52 28.622642511 ÿÿÿÿÿÿÿÿÿÿÿÿÿÿÿÿÿÿÿÿÿÿÿÿ
12 52 28.727761767 $GPRMC,205041.000,A,3437.7892,N,11733.2910,W,0.31,173.11,091217,,,D*7A
12 52 28.835166007 $GPVTG,173.11,T,,M,0.31,N,0.58,K,D*32
12 52 28.942142249 2910,W,0.31,173.11,091217,,,D*7A
12 52 29.049456489 $GPGSA,A,3,11,10,32,22,08,25,03,01,14,,,,1.34,1.05,0.84*04
12 52 29.179362569 1217,,,D*7A
12 52 29.285918815 $GPRMC,205030.000,A,3437.7896,N,11733.2913,W,0.06,121.70,091217,,,D*7F
12 52 29.393552053 $GPVTG,121.70,T,,M,0.06,N,0.11,K,D*3B
12 52 29.499751301 2913,W,0.06,121.70,091217,,,D*7F
12 52 29.610841514 $GPGGA,205126.000,3437.7854,N,11733.2912,W,2,10,0.93,870.3,M,-31.2,M,0000,0000*57
12 52 30.062194318
12 52 30.187521430 $GPGSA,A,3,11,31,10,32,22,08,25,03,01,14,,,1.21,0.93,0.78*0F
12 52 30.292504687
12 52 30.398189939 $GPRMC,205126.000,A,3437.7854,N,11733.2912,W,0.18,236.09,091217,,,D*72
12 52 30.503344194
12 52 30.606474464 $GPVTG,236.09,T,,M,0.18,N,0.33,K,D*3F
12 52 30.713120709
12 52 30.817563969 $GPGGA,205056.000,3437.7883,N,11733.2908,W,2,10,0.94,870.8,M,-31.2,M,0000,0000*5C
12 52 31.294754590 $GPGSA,A,3,11,31,10,32,22,08,25,03,01,14,,,1.22,0.94,0.78*0B
12 52 31.400986838 -31.2,M,0000,0000*5C
12 52 31.507560083 $GPRMC,205056.000,A,3437.7883,N,11733.2908,W,0.26,172.73,091217,,,D*76
12 52 31.614555326 00,0000*5C
12 52 31.721634567 $GPVTG,172.73,T,,M,0.26,N,0.48,K,D*30
12 52 31.829279805 2908,W,0.26,172.73,091217,,,D*76
12 52 31.935925050 00,0000*5C
12 52 32.042631294 $GPGGA,205127.000,3437.7853,N,11733.2913,W,2,10,0.93,870.3,M,-31.2,M,0000,0000*50
12 52 32.149185540
12 52 32.274769651 $GPGSA,A,3,11,31,10,32,22,08,25,03,01,14,,,1.22,0.93,0.78*0C
12 52 32.379726907
12 52 32.482926177 $GPRMC,205127.000,A,3437.7853,N,11733.2913,W,0.18,245.49,091217,,,D*75
12 52 32.593522393
12 52 32.697395658 $GPVTG,245.49,T,,M,0.18,N,0.33,K,D*3F
12 52 32.803838904
12 52 32.907667169 $GPVTG,73.16,T,,M,0.06,N,0.12,K,D*0E
12 52 33.014277414 ÿÿÿÿÿÿÿÿÿÿÿÿÿÿÿÿÿÿÿÿÿÿÿÿÿ
12 52 33.119559669 $GPGGA,205042.000,3437.7891,N,11733.2909,W,2,10,0.94,870.9,M,-31.2,M,0000,0000*5A
12 52 33.590997330 $GPGSA,A,3,11,31,10,32,22,08,25,03,01,14,,,1.22,0.94,0.78*0B
12 52 33.697908573 -31.2,M,0000,0000*5A
12 52 33.806937801 $GPGGA,205128.000,3437.7853,N,11733.2913,W,2,10,0.93,870.3,M,-31.2,M,0000,0000*5F
12 52 33.913593046
12 52 34.017462310 $GPGSA,A,3,11,31,10,32,22,08,25,03,01,14,,,1.21,0.93,0.78*0F
12 52 34.129683516
12 52 34.234239775 $GPGSV,4,1,14,14,63,022,12,31,63,141,23,48,46,205,30,01,44,303,26*77
12 52 34.363534860
12 52 34.466641130 $GPGSV,4,2,14,32,44,044,27,11,38,273,27,22,36,310,21,10,29,102,25*7C
12 52 34.571843385
12 52 34.675438651 $GPGSV,4,3,14,03,16,304,14,25,09,073,33,08,07,231,17,23,03,251,*7A
12 52 34.782135896
12 52 34.886076160 $GPGSV,4,4,14,18,02,113,16,26,01,157,26*71
12 52 34.992532406
12 52 35.096130672 $GPRMC,205128.000,A,3437.7853,N,11733.2913,W,0.05,231.23,091217,,,D*79
12 52 35.202261921
12 52 35.305087193 $GPVTG,231.23,T,,M,0.05,N,0.10,K,D*3D
12 52 35.434674275
12 52 35.537390548 $GPGGA,205057.000,3437.7883,N,11733.2908,W,2,10,0.94,870.8,M,-31.2,M,0000,0000*5D
12 52 35.992134328 $GPGSA,A,3,11,31,10,32,22,08,25,03,01,14,,,1.22,0.94,0.78*0B
12 52 36.098998571 -31.2,M,0000,0000*5D
12 52 36.206618809 $GPRMC,205057.000,A,3437.7883,N,11733.2908,W,0.30,173.24,091217,,,D*73
12 52 36.312682058 00,0000*5D
12 52 36.418462309 $GPVTG,173.24,T,,M,0.30,N,0.56,K,D*3B
12 52 36.547687394 2908,W,0.30,173.24,091217,,,D*73
12 52 36.654204640 00,0000*5D
12 52 36.760837885 $GPRMC,205042.000,A,3437.7891,N,11733.2909,W,0.26,148.84,091217,,,D*70
12 52 36.868278124 00,0000*5D
12 52 36.974975368 $GPGGA,205129.000,3437.7853,N,11733.2913,W,2,10,0.93,870.3,M,-31.2,M,0000,0000*5E
12 52 37.086238580
12 52 37.190516842 $GPGSA,A,3,11,31,10,32,22,08,25,03,01,14,,,1.21,0.93,0.78*0F
12 52 37.295924096
12 52 37.398808367 $GPRMC,205129.000,A,3437.7853,N,11733.2913,W,0.19,234.77,091217,,,D*71
12 52 37.526258465
12 52 37.630021730 $GPVTG,234.77,T,,M,0.19,N,0.35,K,D*33
12 52 37.735963980
12 52 37.840033243 $GPVTG,148.84,T,,M,0.26,N,0.48,K,D*31
12 52 37.946650488 ÿÿÿÿÿÿÿÿÿÿÿÿÿÿÿÿÿÿÿÿÿÿÿÿ
12 52 38.051871743 $GPGSA,A,3,11,31,10,32,22,08,25,03,01,14,,,1.22,0.94,0.78*0B
12 52 38.157282996 ÿ
12 52 38.260773263 $GPRMC,205029.000,A,3437.7896,N,11733.2913,W,0.06,73.16,091217,,,D*41
12 52 38.367239510 $GPGGA,205031.000,3437.7896,N,11733.2912,W,2,10,0.94,870.9,M,-31.2,M,0000,0000*53
12 52 38.846019119 $GPGGA,205130.000,3437.7853,N,11733.2914,W,2,10,0.93,870.2,M,-31.2,M,0000,0000*50
12 52 38.955275346
12 52 39.059696606 $GPGSA,A,3,11,31,10,32,22,08,25,03,01,14,,,1.22,0.93,0.78*0C
12 52 39.166374851
12 52 39.270650112 $GPRMC,205130.000,A,3437.7853,N,11733.2914,W,0.23,227.29,091217,,,D*7E
12 52 39.376949360
12 52 39.479939630 $GPVTG,227.29,T,,M,0.23,N,0.43,K,D*32
12 52 39.605384742
12 52 39.712490984 $GPGGA,205058.000,3437.7882,N,11733.2908,W,2,10,0.94,870.8,M,-31.2,M,0000,0000*53
12 52 40.168234757 $GPGSA,A,3,11,31,10,32,22,08,25,03,01,14,,,1.22,0.94,0.78*0B
12 52 40.274675003 -31.2,M,0000,0000*53
12 52 40.380394254 $GPGSV,4,1,14,14,63,022,12,31,62,141,23,48,46,205,29,32,45,043,28*76
12 52 40.491877465 0000,0000*53
12 52 40.598522710 $GPGSV,4,2,14,01,44,303,26,11,38,273,28,22,36,310,21,10,29,102,25*72
12 52 40.728679788 0000,0000*53
12 52 40.836275026 $GPGGA,205131.000,3437.7852,N,11733.2914,W,2,10,0.93,870.2,M,-31.2,M,0000,0000*50
12 52 40.943012270
12 52 41.046535537 $GPGSA,A,3,11,31,10,32,22,08,25,03,01,14,,,1.21,0.93,0.78*0F
12 52 41.153306781
12 52 41.257274045 $GPRMC,205131.000,A,3437.7852,N,11733.2914,W,0.06,198.50,091217,,,D*70
12 52 41.362865297
12 52 41.465850568 $GPVTG,198.50,T,,M,0.06,N,0.12,K,D*38
12 52 41.570646826
12 52 41.692993960 $GPGSV,4,3,14,03,15,304,15,25,09,074,33,08,07,231,17,23,02,250,*7F
12 52 41.809645134 $GPGSV,4,4,14,18,02,113,16,26,01,157,25*72
12 52 41.917099373 07,231,17,23,02,250,*7F
12 52 42.024282614 $GPRMC,205058.000,A,3437.7882,N,11733.2908,W,0.40,198.80,091217,,,D*71
12 52 42.132122850 $GPVTG,198.80,T,,M,0.40,N,0.74,K,D*37
12 52 42.238074100 2908,W,0.40,198.80,091217,,,D*71
12 52 42.343479354 $GPGSA,A,3,11,10,32,22,08,25,03,01,31,14,,,1.22,0.94,0.78*0B
12 52 42.449315604 17,,,D*71
12 52 42.557704837 $GPGGA,205132.000,3437.7852,N,11733.2914,W,2,10,0.93,870.2,M,-31.2,M,0000,0000*53
12 52 43.033019471
12 52 43.140599709 $GPGSA,A,3,11,31,10,32,22,08,25,03,01,14,,,1.21,0.93,0.78*0F
12 52 43.246007963
12 52 43.349329231 $GPRMC,205132.000,A,3437.7852,N,11733.2914,W,0.06,190.27,091217,,,D*7B
12 52 43.454318488
12 52 43.557430758 $GPVTG,190.27,T,,M,0.06,N,0.12,K,D*30
12 52 43.663611006
12 52 43.767574270 $GPGGA,205043.000,3437.7890,N,11733.2909,W,2,10,0.94,870.9,M,-31.2,M,0000,0000*5A
12 52 44.246183880 $GPGSA,A,3,11,31,10,32,22,08,25,03,01,14,,,1.22,0.94,0.78*0B
12 52 44.353815118 $GPGGA,205139.000,3437.7851,N,11733.2916,W,2,10,0.93,870.2,M,-31.2,M,0000,0000*59
12 52 44.808256900
12 52 44.935136002 $GPGSA,A,3,11,31,10,32,22,08,25,03,01,14,,,1.21,0.93,0.78*0F
12 52 45.041527249
12 52 45.145634511 $GPRMC,205139.000,A,3437.7851,N,11733.2916,W,0.11,234.14,091217,,,D*7A
12 52 45.252461755
12 52 45.356248020 $GPVTG,234.14,T,,M,0.11,N,0.21,K,D*3B
12 52 45.462527267
12 52 45.568467517 $GPRMC,205102.000,A,3437.7877,N,11733.2911,W,0.46,197.82,091217,,,D*76
12 52 45.676078755 $GPVTG,197.82,T,,M,0.46,N,0.85,K,D*32
12 52 45.784440988 2911,W,0.46,197.82,091217,,,D*76
12 52 45.912295083 $GPRMC,205036.000,A,3437.7895,N,11733.2911,W,0.18,141.17,091217,,,D*70
12 52 46.017387338 $GPVTG,141.17,T,,M,0.18,N,0.34,K,D*34
12 52 46.126754564 2911,W,0.18,141.17,091217,,,D*70
12 52 46.232305817 $GPGGA,205034.000,3437.7896,N,11733.2912,W,2,10,0.94,870.9,M,-31.2,M,0000,0000*56
12 52 46.677221666 $GPGGA,205140.000,3437.7851,N,11733.2917,W,2,10,0.93,870.2,M,-31.2,M,0000,0000*56
12 52 46.782251922
12 52 46.885233193 $GPGSA,A,3,11,31,10,32,22,08,25,03,01,14,,,1.21,0.93,0.78*0F
12 52 47.013801283
12 52 47.116237557 $GPRMC,205140.000,A,3437.7851,N,11733.2917,W,0.15,223.57,091217,,,D*70
12 52 47.220307821
