13 11 39.531679373 $GPGGA,211139.000,3401.8772,N,11725.0232,W,1,08,1.27,323.7,M,-32.8,M,,*55
13 11 40.007424996
13 11 40.108375855 $GPGSA,A,3,01,31,11,14,32,22,25,10,,,,,2.18,1.27,1.78*02
13 11 40.213676665
13 11 40.317214495 $GPRMC,211139.000,A,3401.8772,N,11725.0232,W,0.18,4.55,081217,,,A*7A
13 11 40.421061321
13 11 40.523355165 $GPVTG,4.55,T,,M,0.18,N,0.34,K,A*37
13 11 40.632083937
13 11 40.738172738 $GPGGA,211139.000,3401.8772,N,11725.0232,W,1,08,1.27,323.7,M,-32.8,M,,*55
13 11 41.180409740 $GPGSA,A,3,01,31,11,14,32,22,25,10,,,,,2.18,1.27,1.78*02
13 11 41.283761572 7,M,-32.8,M,,*55
13 11 41.386645409 $GPRMC,211139.000,A,3401.8772,N,11725.0232,W,0.18,4.55,081217,,,A*7A
13 11 41.496878164 ,*55
13 11 41.601796978 $GPVTG,4.55,T,,M,0.18,N,0.34,K,A*37
13 11 41.704992812 5.0232,W,0.18,4.55,081217,,,A*7A
13 11 41.811214611 ,*55
13 11 41.919045393 $GPGGA,211139.000,3401.8772,N,11725.0232,W,1,08,1.27,323.7,M,-32.8,M,,*55
13 11 42.363681368 $GPGSA,A,3,01,31,11,14,32,22,25,10,,,,,2.18,1.27,1.78*02
13 11 42.467095199 7,M,-32.8,M,,*55
13 11 42.570651029 $GPRMC,211139.000,A,3401.8772,N,11725.0232,W,0.18,4.55,081217,,,A*7A
13 11 42.674856851 ,*55
13 11 42.777793688 $GPVTG,4.55,T,,M,0.18,N,0.34,K,A*37
13 11 42.881397517 5.0232,W,0.18,4.55,081217,,,A*7A
13 11 42.984595351 ,*55
13 11 43.095478098 $GPGGA,211140.000,3401.8772,N,11725.0232,W,1,08,1.27,323.7,M,-32.8,M,,*5B
13 11 43.534710134
13 11 43.639730947 $GPGSA,A,3,01,31,11,14,32,22,25,10,,,,,2.19,1.27,1.78*03
13 11 43.742469786
13 11 43.843159648 $GPGSV,4,1,13,31,68,124,34,14,57,030,24,01,48,294,16,51,48,162,27*7D
13 11 43.945724489
13 11 44.045967356 $GPGSV,4,2,13,22,41,314,18,32,38,048,26,11,37,264,18,10,24,108,21*75
13 11 44.148748194
13 11 44.249392057 $GPGSV,4,3,13,03,21,308,18,25,11,066,18,23,07,256,18,26,06,152,*7A
13 11 44.351784900
13 11 44.455121732 $GPGSV,4,4,13,08,03,226,15*42
13 11 44.557976570
13 11 44.658200437 $GPRMC,211140.000,A,3401.8772,N,11725.0232,W,0.20,3.28,081217,,,A*72
13 11 44.760919276
13 11 44.861497140 $GPVTG,3.28,T,,M,0.20,N,0.38,K,A*3D
13 11 45.046010054
13 11 45.193632386 $GPGGA,211139.000,3401.8772,N,11725.0232,W,1,08,1.27,323.7,M,-32.8,M,,*55
13 11 45.632034432 $GPGSA,A,3,01,31,11,14,32,22,25,10,,,,,2.18,1.27,1.78*02
13 11 45.735859258 7,M,-32.8,M,,*55
13 11 45.838512098 $GPRMC,211139.000,A,3401.8772,N,11725.0232,W,0.18,4.55,081217,,,A*7A
13 11 45.941834931 ,*55
13 11 46.047271739 $GPVTG,4.55,T,,M,0.18,N,0.34,K,A*37
13 11 46.150743570 5.0232,W,0.18,4.55,081217,,,A*7A
13 11 46.253578407 ,*55
13 11 46.356162248 $GPGGA,211140.000,3401.8772,N,11725.0232,W,1,08,1.27,323.7,M,-32.8,M,,*5B
13 11 46.794069299 $GPGSA,A,3,01,31,11,14,32,22,25,10,,,,,2.19,1.27,1.78*03
13 11 46.897259133 7,M,-32.8,M,,*5B
13 11 46.999945973 $GPGSV,4,1,13,31,68,124,34,14,57,030,24,01,48,294,16,51,48,162,27*7D
13 11 47.103302805 ,*5B
13 11 47.206025644 $GPGSV,4,2,13,22,41,314,18,32,38,048,26,11,37,264,18,10,24,108,21*75
13 11 47.309478475 ,*5B
13 11 47.412646309 $GPGSV,4,3,13,03,21,308,18,25,11,066,18,23,07,256,18,26,06,152,*7A
13 11 47.515241149 5
13 11 47.616360007 ,*5B
13 11 47.719274843 $GPGSV,4,4,13,08,03,226,15*42
13 11 47.822590676 11,066,18,23,07,256,18,26,06,152,*7A
13 11 47.924629523 5
13 11 48.025442383 ,*5B
13 11 48.132482174 $GPRMC,211140.000,A,3401.8772,N,11725.0232,W,0.20,3.28,081217,,,A*72
13 11 48.235471010 ,*5B
13 11 48.338142850 $GPVTG,3.28,T,,M,0.20,N,0.38,K,A*3D
13 11 48.440507693 5.0232,W,0.20,3.28,081217,,,A*72
13 11 48.543669527 ,*5B
13 11 48.651793305 $GPGGA,211141.000,3401.8773,N,11725.0232,W,1,08,1.27,323.7,M,-32.8,M,,*5B
13 11 49.084187418
13 11 49.187171255 $GPGSA,A,3,01,31,11,14,32,22,25,10,,,,,2.19,1.27,1.78*03
13 11 49.289760095
13 11 49.390248960 $GPRMC,211141.000,A,3401.8773,N,11725.0232,W,0.23,4.94,081217,,,A*71
13 11 49.493050798
13 11 49.593935658 $GPVTG,4.94,T,,M,0.23,N,0.43,K,A*32
13 11 49.700073458
13 11 49.801009318 $GPGGA,211139.000,3401.8772,N,11725.0232,W,1,08,1.27,323.7,M,-32.8,M,,*55
13 11 50.236535396 $GPGSA,A,3,01,31,11,14,32,22,25,10,,,,,2.18,1.27,1.78*02
13 11 50.338740241 öè3$GPGGA,211145.000,3401.8776,N,11725.0231,W,1,08,1.27,323.7,M,-32.8,M,,*59
13 11 50.440093095
13 11 50.540439961 $GPGSA,A,3,01,31,11,14,32,22,25,10,,,,,2.18,1.27,1.78*02
13 11 50.643515796
13 11 50.744002661 $GPGSV,4,1,13,31,68,124,32,14,57,030,23,01,48,294,13,51,48,162,24*7A
13 11 50.846406503
13 11 50.946937367 $GPGSV,4,2,13,22,41,314,16,32,38,048,24,11,37,264,15,10,24,109,19*7E
13 11 51.049559208
13 11 51.154226025 $GPGSV,4,3,13,03,21,308,15,25,11,066,15,23,07,256,16,26,06,152,*74
13 11 51.256609868
13 11 51.357728725 $GPGSV,4,4,13,08,03,225,11*45
13 11 51.459500575
13 11 51.560823430 $GPRMC,211145.000,A,3401.8776,N,11725.0231,W,0.33,15.02,081217,,,A*4D
13 11 51.665505247
13 11 51.765765114 $GPVTG,15.02,T,,M,0.33,N,0.61,K,A*0C
13 11 51.868298955
13 11 51.969202815 $GPGGA,211142.000,3401.8774,N,11725.0232,W,1,08,1.27,323.7,M,-32.8,M,,*5F
13 11 52.404974890 $GPGSA,A,3,01,31,11,14,32,22,25,10,,,,,2.19,1.27,1.78*03
13 11 52.508237723 7,M,-32.8,M,,*5F
13 11 52.611369557 $GPRMC,211142.000,A,3401.8774,N,11725.0232,W,0.29,4.43,081217,,,A*75
13 11 52.719060340 ,*5F
13 11 52.822262174 $GPVTG,4.43,T,,M,0.29,N,0.54,K,A*34
13 11 52.925831004 5.0232,W,0.29,4.43,081217,,,A*75
13 11 53.028818840 ,*5F
13 11 53.131815676 $GPGSA,A,3,01,31,11,14,32,22,25,10,,,,,2.19,1.27,1.78*03
13 11 53.235191507 1217,,,A*75
13 11 53.338014345 ,*5F
13 11 53.440980182 $GPRMC,211141.000,A,3401.8773,N,11725.0232,W,0.23,4.94,081217,,,A*71
13 11 53.544555011 ,*5F
13 11 53.651714800 $GPVTG,4.94,T,,M,0.23,N,0.43,K,A*32
13 11 53.755021633 5.0232,W,0.23,4.94,081217,,,A*71
13 11 53.857826471 ,*5F
13 11 53.960761308 $GPGGA,211139.000,3401.8772,N,11725.0232,W,1,08,1.27,323.7,M,-32.8,M,,*55
13 11 54.399413350 $GPGGA,211146.000,3401.8777,N,11725.0231,W,1,08,1.25,323.7,M,-32.8,M,,*59
13 11 54.834209437
13 11 54.934983298 $GPGSA,A,3,01,31,11,14,32,22,25,10,,,,,1.52,1.25,0.87*0C
13 11 55.036972145
13 11 55.137346011 $GPRMC,211146.000,A,3401.8777,N,11725.0231,W,0.33,23.12,081217,,,A*4B
13 11 55.240802842
13 11 55.343454682 $GPVTG,23.12,T,,M,0.33,N,0.61,K,A*08
13 11 55.446009523
13 11 55.549426354 $GPGSA,A,3,01,31,11,14,32,22,25,10,,,,,2.18,1.27,1.78*02
13 11 55.658145125 ÿÿÿÿÿ$GPRMC,211139.000,A,3401.8772,N,11725.0232,W,0.18,4.55,081217,,,A*7A
13 11 55.763249938 $GPVTG,4.55,T,,M,0.18,N,0.34,K,A*37
13 11 55.866249773 5.0232,W,0.18,4.55,081217,,,A*7A
13 11 55.969951602 $GPGGA,211147.000,3401.8778,N,11725.0230,W,1,08,1.25,323.7,M,-32.8,M,,*56
13 11 56.403481702
13 11 56.503541571 $GPGSA,A,3,01,31,11,14,32,22,25,10,,,,,1.52,1.25,0.87*0C
13 11 56.606916403
13 11 56.708371257 $GPRMC,211147.000,A,3401.8778,N,11725.0230,W,0.31,37.63,081217,,,A*45
13 11 56.810435103
13 11 56.910785969 $GPVTG,37.63,T,,M,0.31,N,0.57,K,A*0C
13 11 57.012961814
13 11 57.113628677 $GPGGA,211144.000,3401.8775,N,11725.0231,W,1,08,1.27,323.7,M,-32.8,M,,*5B
13 11 57.551785725 $GPGSA,A,3,01,31,11,14,32,22,25,10,,,,,2.18,1.27,1.78*02
13 11 57.654637563 7,M,-32.8,M,,*5B
13 11 57.757115405 $GPRMC,211144.000,A,3401.8775,N,11725.0231,W,0.33,7.17,081217,,,A*78
13 11 57.860247239 ,*5B
13 11 57.963370074 $GPVTG,7.17,T,,M,0.33,N,0.61,K,A*3B
13 11 58.066486908 5.0231,W,0.33,7.17,081217,,,A*78
13 11 58.169137748 ,*5B
13 11 58.271884587 $GPGGA,211148.000,3401.8779,N,11725.0230,W,1,08,1.25,323.7,M,-32.8,M,,*58
13 11 58.722301497
13 11 58.825666329 $GPGSA,A,3,01,31,11,14,32,22,25,10,,,,,1.52,1.25,0.87*0C
13 11 58.929662153
13 11 59.031060008 $GPRMC,211148.000,A,3401.8779,N,11725.0230,W,0.36,43.64,081217,,,A*48
13 11 59.156335592
13 11 59.257536448 $GPVTG,43.64,T,,M,0.36,N,0.67,K,A*0C
13 11 59.359764293
13 11 59.460485155 $GPGGA,211140.000,3401.8772,N,11725.0232,W,1,08,1.27,323.7,M,-32.8,M,,*5B
13 11 59.895102243 $GPGSA,A,3,01,31,11,14,32,22,25,10,,,,,2.19,1.27,1.78*03
13 11 59.998064079 7,M,-32.8,M,,*5B
13 12 00.100929917 $GPGSV,4,1,13,31,68,124,34,14,57,030,24,01,48,294,16,51,48,162,27*7D
13 12 00.208493701 ,*5B
13 12 00.311277540 $GPGGA,211149.000,3401.8779,N,11725.0229,W,1,08,1.25,323.7,M,-32.8,M,,*51
13 12 00.744415645
13 12 00.845333504 $GPGSA,A,3,01,31,11,14,32,22,25,10,,,,,1.52,1.25,0.87*0C
13 12 00.947720347
13 12 01.082311826 $GPRMC,211149.000,A,3401.8779,N,11725.0229,W,0.39,40.97,081217,,,A*41
13 12 01.184624670
13 12 01.285125534 $GPVTG,40.97,T,,M,0.39,N,0.72,K,A*08
13 12 01.387471377
13 12 01.487951242 $GPGSV,4,2,13,22,41,314,18,32,38,048,26,11,37,264,18,10,24,108,21*75
13 12 01.591528071 $GPGSV,4,3,13,03,21,308,18,25,11,066,18,23,07,256,18,26,06,152,*7A
13 12 01.698830859 5
13 12 01.799682719 $GPGSV,4,4,13,08,03,226,15*42
13 12 01.902987552 11,066,18,23,07,256,18,26,06,152,*7A
13 12 02.005427394 5
13 12 02.106745249 $GPGGA,211143.000,3401.8774,N,11725.0231,W,1,08,1.27,323.7,M,-32.8,M,,*5D
13 12 02.540628346 $GPGGA,211150.000,3401.8780,N,11725.0228,W,1,08,1.25,323.7,M,-32.8,M,,*5E
13 12 02.970528487
13 12 03.069887364 $GPGSA,A,3,01,31,11,14,32,22,25,10,,,,,1.52,1.25,0.87*0C
13 12 03.175270173
13 12 03.274378053 $GPGSV,4,1,13,31,68,124,33,14,56,030,22,01,48,294,17,51,48,162,26*7D
13 12 03.375588910
13 12 03.475572780 $GPGSV,4,2,13,22,41,314,16,32,38,048,24,11,37,264,17,10,24,109,19*7C
13 12 03.577962622
13 12 03.678484486 $GPGSV,4,3,13,03,21,308,16,25,11,066,15,23,07,256,18,26,06,152,*79
13 12 03.780943329
13 12 03.884075163 $GPGSV,4,4,13,08,03,225,14*40
13 12 03.985663015
13 12 04.085068892 $GPRMC,211150.000,A,3401.8780,N,11725.0228,W,0.36,41.53,081217,,,A*48
13 12 04.186984740
13 12 04.286014621 $GPVTG,41.53,T,,M,0.36,N,0.67,K,A*0A
13 12 04.387424475
13 12 04.487662342 $GPGSA,A,3,01,31,11,14,32,22,25,10,,,,,2.18,1.27,1.78*02
13 12 04.591239171 ,W,1,08,1.27,323.7,M,-32.8,M,,*59
13 12 04.698916954 $GPGSV,4,1,13,31,68,124,32,14,57,030,23,01,48,294,13,51,48,162,24*7A
13 12 04.802039789 ,323.7,M,-32.8,M,,*59
13 12 04.905205623 $GPGSV,4,2,13,22,41,314,16,32,38,048,24,11,37,264,15,10,24,109,19*7E
13 12 05.008957451 ]×¤dD¸é? ¥Â°$GPGSV,4,3,13,03,21,308,15,25,11,066,15,23,07,256,16,26,06,152,*74
13 12 05.111372293 E
13 12 05.211505162 ]×¤dD¸é? ¥Â°$GPGSV,4,4,13,08,03,225,11*45
13 12 05.314293000 11,066,15,23,07,256,16,26,06,152,*74
13 12 05.416228848 E
13 12 05.517584703 ]×¤dD¸é? ¥Â°$GPRMC,211145.000,A,3401.8776,N,11725.0231,W,0.33,15.02,081217,,,A*4D
13 12 05.621573527 ×¤dD¸é? ¥Â°$GPVTG,15.02,T,,M,0.33,N,0.61,K,A*0C
13 12 05.725421354 .0231,W,0.33,15.02,081217,,,A*4D
13 12 05.828732186 ×¤dD¸é? ¥Â°$GPGGA,211142.000,3401.8774,N,11725.0232,W,1,08,1.27,323.7,M,-32.8,M,,*5F
13 12 05.933424003 D¸é? ¥Â°$GPGSA,A,3,01,31,11,14,32,22,25,10,,,,,2.19,1.27,1.78*03
13 12 06.037000833 7,M,-32.8,M,,*5F
13 12 06.140253666 D¸é? ¥Â°$GPRMC,211142.000,A,3401.8774,N,11725.0232,W,0.29,4.43,081217,,,A*75
13 12 06.248003448 ,*5F
13 12 06.350592289 D¸é? ¥Â°$GPGGA,211151.000,3401.8781,N,11725.0227,W,1,08,1.25,323.7,M,-32.8,M,,*51
13 12 06.453186129
13 12 06.553400997 $GPGSA,A,3,01,31,11,14,32,22,25,10,,,,,1.52,1.25,0.87*0C
13 12 06.658168813
13 12 06.758592678 $GPRMC,211151.000,A,3401.8781,N,11725.0227,W,0.30,38.12,081217,,,A*4A
13 12 06.861061520
13 12 06.962023379 $GPVTG,38.12,T,,M,0.30,N,0.55,K,A*06
13 12 07.064369222
13 12 07.163344104 $GPVTG,4.43,T,,M,0.29,N,0.54,K,A*34
13 12 07.265548949 ÿÿÿÿÿÿÿÿÿÿÿÿÿÿÿÿÿÿÿÿÿÿÿÿÿÿ$GPGSA,A,3,01,31,11,14,32,22,25,10,,,,,2.19,1.27,1.78*03
13 12 07.369442774 ÿÿÿÿÿ$GPRMC,211141.000,A,3401.8773,N,11725.0232,W,0.23,4.94,081217,,,A*71
13 12 07.472812606 $GPVTG,4.94,T,,M,0.23,N,0.43,K,A*32
13 12 07.575708443 5.0232,W,0.23,4.94,081217,,,A*71
13 12 07.683213229 $GPGGA,211139.000,3401.8772,N,11725.0232,W,1,08,1.27,323.7,M,-32.8,M,,*55
13 12 08.116770329 $GPGGA,211146.000,3401.8777,N,11725.0231,W,1,08,1.25,323.7,M,-32.8,M,,*59
13 12 08.548204453 $GPGSA,A,3,01,31,11,14,32,22,25,10,,,,,1.52,1.25,0.87*0C
13 12 08.651360287 7,M,-32.8,M,,*59
13 12 08.754355123 $GPRMC,211146.000,A,3401.8777,N,11725.0231,W,0.33,23.12,081217,,,A*4B
13 12 08.856981964 *59
13 12 08.960717791 $GPVTG,23.12,T,,M,0.33,N,0.61,K,A*08
13 12 09.063679628 .0231,W,0.33,23.12,081217,,,A*4B
13 12 09.169036437 *59
13 12 09.270811287 $GPGSA,A,3,01,31,11,14,32,22,25,10,,,,,2.18,1.27,1.78*02
13 12 09.373031132 81217,,,A*4B
13 12 09.475613972 *59
13 12 09.578281812 $GPRMC,211139.000,A,3401.8772,N,11725.0232,W,0.18,4.55,081217,,,A*7A
13 12 09.684230615
13 12 09.784217485 *59
13 12 09.886289331 $GPVTG,4.55,T,,M,0.18,N,0.34,K,A*37
13 12 09.989546164 5.0232,W,0.18,4.55,081217,,,A*7A
13 12 10.091690010
13 12 10.190939888 *59
13 12 10.292917736 $GPGGA,211147.000,3401.8778,N,11725.0230,W,1,08,1.25,323.7,M,-32.8,M,,*56
13 12 10.729046807 $GPGGA,211152.000,3401.8782,N,11725.0226,W,1,08,1.25,323.7,M,-32.8,M,,*50
13 12 11.160552931
13 12 11.259813809 $GPGSA,A,3,01,31,11,14,32,22,25,10,,,,,1.52,1.25,0.87*0C
13 12 11.360829667
13 12 11.461125534 $GPRMC,211152.000,A,3401.8782,N,11725.0226,W,0.35,38.40,081217,,,A*49
13 12 11.563719374
13 12 11.664140240 $GPVTG,38.40,T,,M,0.35,N,0.65,K,A*07
13 12 11.766551082
13 12 11.866836949 $GPGSA,A,3,01,31,11,14,32,22,25,10,,,,,1.52,1.25,0.87*0C
13 12 11.969654787 ÿÿÿÿÿ$GPRMC,211147.000,A,3401.8778,N,11725.0230,W,0.31,37.63,081217,,,A*45
13 12 12.072995619 $GPVTG,37.63,T,,M,0.31,N,0.57,K,A*0C
13 12 12.179773412 .0230,W,0.31,37.63,081217,,,A*45
13 12 12.281423264 $GPGGA,211144.000,3401.8775,N,11725.0231,W,1,08,1.27,323.7,M,-32.8,M,,*5B
13 12 12.713104385 $GPGSA,A,3,01,31,11,14,32,22,25,10,,,,,2.18,1.27,1.78*02
13 12 12.816208220 7,M,-32.8,M,,*5B
13 12 12.918746061 $GPRMC,211144.000,A,3401.8775,N,11725.0231,W,0.33,7.17,081217,,,A*78
13 12 13.020624910 ,*5B
13 12 13.122453759 $GPVTG,7.17,T,,M,0.33,N,0.61,K,A*3B
13 12 13.224190609 5.0231,W,0.33,7.17,081217,,,A*78
13 12 13.325579463 ,*5B
13 12 13.427528311 $GPGGA,211148.000,3401.8779,N,11725.0230,W,1,08,1.25,323.7,M,-32.8,M,,*58
13 12 13.864837369 $GPGSA,A,3,01,31,11,14,32,22,25,10,,,,,1.52,1.25,0.87*0C
13 12 13.971050169 7,M,-32.8,M,,*58
13 12 14.073591010 $GPRMC,211148.000,A,3401.8779,N,11725.0230,W,0.36,43.64,081217,,,A*48
13 12 14.175735856 *58
13 12 14.277539705 $GPVTG,43.64,T,,M,0.36,N,0.67,K,A*0C
13 12 14.379337555 .0230,W,0.36,43.64,081217,,,A*48
13 12 14.481646399 *58
13 12 14.584639235 $GPGGA,211140.000,3401.8772,N,11725.0232,W,1,08,1.27,323.7,M,-32.8,M,,*5B
13 12 15.020536309 $GPGSA,A,3,01,31,11,14,32,22,25,10,,,,,2.19,1.27,1.78*03
13 12 15.122213159 7,M,-32.8,M,,*5B
13 12 15.228018964 $GPGSV,4,1,13,31,68,124,34,14,57,030,24,01,48,294,16,51,48,162,27*7D
13 12 15.329927812 ,*5B
13 12 15.431377666 $GPGGA,211153.000,3401.8783,N,11725.0226,W,1,08,1.25,323.7,M,-32.8,M,,*50
13 12 15.863285785
13 12 15.963469652 $GPGSA,A,3,01,31,11,14,32,22,25,10,,,,,1.52,1.25,0.87*0C
13 12 16.065529499
13 12 16.165837365 $GPRMC,211153.000,A,3401.8783,N,11725.0226,W,0.33,35.69,081217,,,A*49
13 12 16.268389206
13 12 16.367891082 $GPVTG,35.69,T,,M,0.33,N,0.61,K,A*03
13 12 16.469207937
13 12 16.570103797 $GPGGA,211149.000,3401.8779,N,11725.0229,W,1,08,1.25,323.7,M,-32.8,M,,*51
13 12 17.006722862 $GPGSA,A,3,01,31,11,14,32,22,25,10,,,,,1.52,1.25,0.87*0C
13 12 17.108733710 7,M,-32.8,M,,*51
13 12 17.210360561 $GPRMC,211149.000,A,3401.8779,N,11725.0229,W,0.39,40.97,081217,,,A*41
13 12 17.315791370 *51
13 12 17.417544220 a‡³$GPGGA,211203.000,3401.8786,N,11725.0222,W,1,08,1.25,323.7,M,-32.8,M,,*57
13 12 17.520202060
13 12 17.620530926 $GPGSA,A,3,01,31,11,14,32,22,25,10,,,,,1.52,1.25,0.87*0C
13 12 17.722965768
13 12 17.823262635 $GPRMC,211203.000,A,3401.8786,N,11725.0222,W,0.22,61.81,081217,,,A*49
13 12 17.925363481
13 12 18.025772346 $GPVTG,61.81,T,,M,0.22,N,0.41,K,A*06
13 12 18.127863192
13 12 18.232074015 $GPRMC,211149.000,A,3401.8779,N,11725.0229,W,0.39,40.97,081217,,,A*41
13 12 18.335468846 $GPVTG,40.97,T,,M,0.39,N,0.72,K,A*08
13 12 18.438503682 .0229,W,0.39,40.97,081217,,,A*41
13 12 18.541251521 $GPGSV,4,2,13,22,41,314,18,32,38,048,26,11,37,264,18,10,24,108,21*75
13 12 18.643552364
13 12 18.743756232 $GPGSV,4,3,13,03,21,308,18,25,11,066,18,23,07,256,18,26,06,152,*7A
13 12 18.846291073 5
13 12 18.947235932
13 12 19.048004794 $GPGGA,211204.000,3401.8786,N,11725.0221,W,1,08,1.25,323.7,M,-32.8,M,,*53
13 12 19.481350896
13 12 19.581916760 $GPGSA,A,3,01,31,11,14,32,22,25,10,,,,,1.52,1.25,0.87*0C
13 12 19.689318546
13 12 19.789347416 $GPRMC,211204.000,A,3401.8786,N,11725.0221,W,0.21,55.18,081217,,,A*49
13 12 19.892207253
13 12 19.992456120 $GPVTG,55.18,T,,M,0.21,N,0.38,K,A*0C
13 12 20.094874963
13 12 20.195537825 $GPGSV,4,4,13,08,03,226,15*42
13 12 20.299535650 ÿÿÿÿÿÿÿÿÿÿÿÿÿÿÿÿÿÿÿÿÿÿÿÿÿÿÿÿÿÿÿÿ$GPGGA,211143.000,3401.8774,N,11725.0231,W,1,08,1.27,323.7,M,-32.8,M,,*5D
13 12 20.404774461 $GPGGA,211150.000,3401.8780,N,11725.0228,W,1,08,1.25,323.7,M,-32.8,M,,*5E
13 12 20.838674557 $GPGSA,A,3,01,31,11,14,32,22,25,10,,,,,1.52,1.25,0.87*0C
13 12 20.941721393 7,M,-32.8,M,,*5E
13 12 21.044833227 $GPGSV,4,1,13,31,68,124,33,14,56,030,22,01,48,294,17,51,48,162,26*7D
13 12 21.148523055 ,*5E
13 12 21.255235849 $GPGGA,211205.000,3401.8787,N,11725.0221,W,1,08,1.25,323.7,M,-32.8,M,,*53
13 12 21.689701939
13 12 21.790241803 $GPGSA,A,3,01,31,11,14,32,22,25,10,,,,,1.52,1.25,0.87*0C
13 12 21.892594647
13 12 21.992488518 $GPGSV,4,1,13,31,68,124,31,14,56,030,21,01,48,294,16,51,48,162,27*7C
13 12 22.096630341
13 12 22.197870197 $GPGSV,4,2,13,22,42,314,18,32,38,048,23,11,37,264,22,10,24,109,17*7E
13 12 22.301872021
13 12 22.403205876 $GPGSV,4,3,13,03,21,308,,25,11,066,11,23,07,256,17,26,06,152,*75
13 12 22.507168701
13 12 22.607944562 $GPGSV,4,4,13,08,03,225,13*47
13 12 22.717143328
13 12 22.817847190 $GPRMC,211205.000,A,3401.8787,N,11725.0221,W,0.22,26.03,081217,,,A*44
13 12 22.920149034
13 12 23.020360902 $GPVTG,26.03,T,,M,0.22,N,0.41,K,A*0F
13 12 23.122317749
13 12 23.223523606 $GPGSV,4,2,13,22,41,314,16,32,38,048,24,11,37,264,17,10,24,109,19*7C
13 12 23.326982436 $GPGSV,4,3,13,03,21,308,16,25,11,066,15,23,07,256,18,26,06,152,*79
13 12 23.430273269 C
13 12 23.531625124 $GPGSV,4,4,13,08,03,225,14*40
13 12 23.634983956 11,066,15,23,07,256,18,26,06,152,*79
13 12 23.741323754 C
13 12 23.842806607 $GPRMC,211150.000,A,3401.8780,N,11725.0228,W,0.36,41.53,081217,,,A*48
13 12 23.945942441 $GPGGA,211154.000,3401.8783,N,11725.0225,W,1,08,1.25,323.7,M,-32.8,M,,*54
13 12 24.385497474 $GPGSA,A,3,01,31,11,14,32,22,25,10,,,,,1.52,1.25,0.87*0C
13 12 24.488485310 7,M,-32.8,M,,*54
13 12 24.591576145 $GPGGA,211206.000,3401.8787,N,11725.0220,W,1,08,1.25,323.7,M,-32.8,M,,*51
13 12 25.025356243
13 12 25.126034105 $GPGSA,A,3,01,31,11,14,32,22,25,10,,,,,1.52,1.25,0.87*0C
13 12 25.227792955
13 12 25.327762825 $GPRMC,211206.000,A,3401.8787,N,11725.0220,W,0.24,53.93,081217,,,A*4B
13 12 25.429609674
13 12 25.529323547 $GPVTG,53.93,T,,M,0.24,N,0.45,K,A*06
13 12 25.632897377
13 12 25.737478195 $GPRMC,211154.000,A,3401.8783,N,11725.0225,W,0.30,49.34,081217,,,A*4D
13 12 25.842769005 $GPVTG,49.34,T,,M,0.30,N,0.55,K,A*04
13 12 25.945527844 .0225,W,0.30,49.34,081217,,,A*4D
13 12 26.050643656 $GPVTG,41.53,T,,M,0.36,N,0.67,K,A*0A
13 12 26.153832490 .0225,W,0.30,49.34,081217,,,A*4D
13 12 26.256633328 $GPGSA,A,3,01,31,11,14,32,22,25,10,,,,,2.18,1.27,1.78*02
13 12 26.360024160 81217,,,A*4D
13 12 26.462460002 $GPGSV,4,1,13,31,68,124,32,14,57,030,23,01,48,294,13,51,48,162,24*7A
13 12 26.564936844
13 12 26.665294710 $GPGSV,4,2,13,22,41,314,16,32,38,048,24,11,37,264,15,10,24,109,19*7E
13 12 26.767432555
13 12 26.867847421 $GPGGA,211207.000,3401.8788,N,11725.0220,W,1,07,1.32,323.7,M,-32.8,M,,*56
13 12 27.303887493
13 12 27.404521356 $GPGSA,A,3,01,31,11,14,32,22,10,,,,,,1.62,1.32,0.93*0B
13 12 27.507040197
13 12 27.607669060 $GPRMC,211207.000,A,3401.8788,N,11725.0220,W,0.24,46.73,081217,,,A*4F
13 12 27.710484898
13 12 27.812650743 $GPVTG,46.73,T,,M,0.24,N,0.45,K,A*0C
13 12 27.916043575 öè3$GPGGA,211215.000,3401.8793,N,11725.0219,W,1,07,1.32,323.7,M,-32.8,M,,*55
13 12 28.018974412
13 12 28.119618274 $GPGSA,A,3,01,31,11,14,32,22,10,,,,,,1.62,1.32,0.93*0B
13 12 28.222228115
13 12 28.322528981 $GPGSV,4,1,13,31,69,123,30,14,56,030,21,01,48,294,17,48,47,206,*79
13 12 28.425370819
13 12 28.525992682 $GPGSV,4,2,13,22,42,314,18,32,38,048,23,11,37,264,24,10,24,109,19*76
13 12 28.628920519
13 12 28.733780334 $GPGSV,4,3,13,03,21,308,,25,11,066,,23,07,256,17,26,06,152,*75
13 12 28.838718148
13 12 28.939653007 $GPGSV,4,4,13,08,03,225,16*42
13 12 29.042038850
13 12 29.145824677 $GPRMC,211215.000,A,3401.8793,N,11725.0219,W,0.13,19.52,081217,,,A*41
13 12 29.248616515
13 12 29.348847383 $GPVTG,19.52,T,,M,0.13,N,0.25,K,A*07
13 12 29.451304225
13 12 29.551076097 $GPGSA,A,3,01,31,11,14,32,22,25,10,,,,,1.52,1.25,0.87*0C
13 12 29.656865902 ÿÿÿÿÿ$GPRMC,211156.000,A,3401.8784,N,11725.0224,W,0.28,319.29,081217,,,A*7A
13 12 29.760725728 $GPVTG,319.29,T,,M,0.28,N,0.53,K,A*31
13 12 29.865197547 0224,W,0.28,319.29,081217,,,A*7A
13 12 29.968054385 $GPRMC,211139.000,A,3401.8772,N,11725.0232,W,0.18,4.55,081217,,,A*7A
13 12 30.070556226 A
13 12 30.172174078 $GPVTG,4.55,T,,M,0.18,N,0.34,K,A*37
13 12 30.280296856 5.0232,W,0.18,4.55,081217,,,A*7A
13 12 30.383466690 A
13 12 30.485498537 $GPGGA,211216.000,3401.8793,N,11725.0219,W,1,07,1.32,323.7,M,-32.8,M,,*56
13 12 30.918896639
13 12 31.019136506 $GPGSA,A,3,01,31,11,14,32,22,10,,,,,,1.61,1.32,0.93*08
13 12 31.121145354
13 12 31.222043213 $GPRMC,211216.000,A,3401.8793,N,11725.0219,W,0.13,3.81,081217,,,A*77
13 12 31.324652054
13 12 31.425233917 $GPVTG,3.81,T,,M,0.13,N,0.24,K,A*33
13 12 31.527421762
13 12 31.628286622 $GPGGA,211147.000,3401.8778,N,11725.0230,W,1,08,1.25,323.7,M,-32.8,M,,*56
13 12 32.065629680 $GPGGA,211152.000,3401.8782,N,11725.0226,W,1,08,1.25,323.7,M,-32.8,M,,*50
13 12 32.499688775 $GPGGA,211217.000,3401.8794,N,11725.0219,W,1,07,1.35,323.7,M,-32.8,M,,*57
13 12 32.932301885
13 12 33.032228756 $GPGSA,A,3,01,31,11,14,32,22,10,,,,,,2.79,1.35,2.45*0C
13 12 33.134528600
13 12 33.238963420 $GPRMC,211217.000,A,3401.8794,N,11725.0219,W,0.13,5.94,081217,,,A*73
13 12 33.341773258
13 12 33.442162124 $GPVTG,5.94,T,,M,0.13,N,0.25,K,A*30
13 12 33.544599966
13 12 33.645582825 $GPGSA,A,3,01,31,11,14,32,22,25,10,,,,,1.52,1.25,0.87*0C
13 12 33.749315652 ÿÿÿÿÿ$GPRMC,211152.000,A,3401.8782,N,11725.0226,W,0.35,38.40,081217,,,A*49
13 12 33.853546474 $GPGSA,A,3,01,31,11,14,32,22,25,10,,,,,1.52,1.25,0.87*0C
13 12 33.956519311 25,323.7,M,-32.8,M,,*57
13 12 34.059673145 $GPRMC,211203.000,A,3401.8786,N,11725.0222,W,0.22,61.81,081217,,,A*49
13 12 34.164757957 2.8,M,,*57
13 12 34.267130800 $GPVTG,61.81,T,,M,0.22,N,0.41,K,A*06
13 12 34.369990638 .0222,W,0.22,61.81,081217,,,A*49
13 12 34.472143484 2.8,M,,*57
13 12 34.575242318 $GPRMC,211149.000,A,3401.8779,N,11725.0229,W,0.39,40.97,081217,,,A*41
13 12 34.678394153 2.8,M,,*57
13 12 34.785463943 $GPVTG,40.97,T,,M,0.39,N,0.72,K,A*08
13 12 34.888462779 .0229,W,0.39,40.97,081217,,,A*41
13 12 34.991191618 2.8,M,,*57
13 12 35.094028456 $GPGSV,4,2,13,22,41,314,18,32,38,048,26,11,37,264,18,10,24,108,21*75
13 12 35.196486298
13 12 35.296424168 2.8,M,,*57
13 12 35.399267006 $GPGSV,4,3,13,03,21,308,18,25,11,066,18,23,07,256,18,26,06,152,*7A
13 12 35.502209843 5
13 12 35.602153713
13 12 35.701942585 2.8,M,,*57
13 12 35.804880422 $GPGGA,211204.000,3401.8786,N,11725.0221,W,1,08,1.25,323.7,M,-32.8,M,,*53
13 12 36.241531487 M,,*57
13 12 36.344776321 $GPGGA,211218.000,3401.8794,N,11725.0219,W,1,07,1.34,323.7,M,-32.8,M,,*59
13 12 36.777855426
13 12 36.877989295 $GPGSA,A,3,01,31,11,14,32,22,10,,,,,,2.79,1.34,2.45*0D
13 12 36.979974142
13 12 37.080635005 $GPRMC,211218.000,A,3401.8794,N,11725.0219,W,0.16,351.33,081217,,,A*76
13 12 37.182898849
13 12 37.282985718 $GPVTG,351.33,T,,M,0.16,N,0.30,K,A*3E
13 12 37.384512571
13 12 37.484841437 $GPGSA,A,3,01,31,11,14,32,22,25,10,,,,,1.52,1.25,0.87*0C
13 12 37.588254268 ÿÿÿÿÿ$GPRMC,211204.000,A,3401.8786,N,11725.0221,W,0.21,55.18,081217,,,A*49
13 12 37.695683054 $GPVTG,55.18,T,,M,0.21,N,0.38,K,A*0C
13 12 37.798447893 .0221,W,0.21,55.18,081217,,,A*49
13 12 37.903447706 $GPGSV,4,4,13,08,03,226,15*42
13 12 38.006367543 K,A*0C
13 12 38.108840385 .0221,W,0.21,55.18,081217,,,A*49
13 12 38.211923220 $GPGGA,211143.000,3401.8774,N,11725.0231,W,1,08,1.27,323.7,M,-32.8,M,,*5D
13 12 38.645731317 $GPGGA,211150.000,3401.8780,N,11725.0228,W,1,08,1.25,323.7,M,-32.8,M,,*5E
13 12 39.078355428 $GPGSA,A,3,01,31,11,14,32,22,25,10,,,,,1.52,1.25,0.87*0C
13 12 39.183880236 7,M,-32.8,M,,*5E
13 12 39.291212023 $GPGSV,4,1,13,31,68,124,33,14,56,030,22,01,48,294,17,51,48,162,26*7D
13 12 39.394217859 ,*5E
13 12 39.496762700 $GPGGA,211205.000,3401.8787,N,11725.0221,W,1,08,1.25,323.7,M,-32.8,M,,*53
13 12 39.931936782 $GPGSA,A,3,01,31,11,14,32,22,25,10,,,,,1.52,1.25,0.87*0C
13 12 40.035158615 7,M,-32.8,M,,*53
13 12 40.137795455 $GPGSV,4,1,13,31,68,124,31,14,56,030,21,01,48,294,16,51,48,162,27*7C
13 12 40.241215287 ,*53
13 12 40.344039125 $GPGSV,4,2,13,22,42,314,18,32,38,048,23,11,37,264,22,10,24,109,17*7E
13 12 40.447408956 ,*53
13 12 40.550007797 $GPGSV,4,3,13,03,21,308,,25,11,066,11,23,07,256,17,26,06,152,*75
13 12 40.652961633 *7E
13 12 40.759285432 ,*53
13 12 40.861751274 $GPGSV,4,4,13,08,03,225,13*47
13 12 40.964330115 ,066,11,23,07,256,17,26,06,152,*75
13 12 41.066584959 *7E
13 12 41.169115800 ,*53
13 12 41.271400644 $GPRMC,211205.000,A,3401.8787,N,11725.0221,W,0.22,26.03,081217,,,A*44
13 12 41.374607478 *53
13 12 41.477201319 $GPGGA,211219.000,3401.8795,N,11725.0219,W,1,07,1.35,323.7,M,-32.8,M,,*58
13 12 41.907389457
13 12 42.006900332 $GPGSA,A,3,01,31,11,14,32,22,10,,,,,,2.79,1.35,2.45*0C
13 12 42.107884191
13 12 42.211150024 $GPRMC,211219.000,A,3401.8795,N,11725.0219,W,0.14,346.81,081217,,,A*7B
13 12 42.312500879
13 12 42.411334762 $GPVTG,346.81,T,,M,0.14,N,0.27,K,A*35
13 12 42.514077601
13 12 42.613974472 $GPVTG,26.03,T,,M,0.22,N,0.41,K,A*0F
13 12 42.717621300 ÿÿÿÿÿÿÿÿÿÿÿÿÿÿÿÿÿÿÿÿÿÿÿÿÿ$GPGSV,4,2,13,22,41,314,16,32,38,048,24,11,37,264,17,10,24,109,19*7C
13 12 42.824691090 $GPGSV,4,3,13,03,21,308,16,25,11,066,15,23,07,256,18,26,06,152,*79
13 12 42.928011923 C
13 12 43.028678785 $GPGSV,4,4,13,08,03,225,14*40
13 12 43.131555622 11,066,15,23,07,256,18,26,06,152,*79
13 12 43.232613480 C
13 12 43.332010357 $GPRMC,211150.000,A,3401.8780,N,11725.0228,W,0.36,41.53,081217,,,A*48
13 12 43.434563198 $GPGGA,211154.000,3401.8783,N,11725.0225,W,1,08,1.25,323.7,M,-32.8,M,,*54
13 12 43.874163230 $GPGSA,A,3,01,31,11,14,32,22,25,10,,,,,1.52,1.25,0.87*0C
13 12 43.976681072 7,M,-32.8,M,,*54
13 12 44.078955916 $GPGGA,211206.000,3401.8787,N,11725.0220,W,1,08,1.25,323.7,M,-32.8,M,,*51
13 12 44.512761013 $GPGSA,A,3,01,31,11,14,32,22,25,10,,,,,1.52,1.25,0.87*0C
13 12 44.616088846 7,M,-32.8,M,,*51
13 12 44.719182681 $GPRMC,211206.000,A,3401.8787,N,11725.0220,W,0.24,53.93,081217,,,A*4B
13 12 44.821747521 *51
13 12 44.924685358 $GPVTG,53.93,T,,M,0.24,N,0.45,K,A*06
13 12 45.026881203 .0220,W,0.24,53.93,081217,,,A*4B
13 12 45.131104025 *51
13 12 45.239714798 $GPRMC,211154.000,A,3401.8783,N,11725.0225,W,0.30,49.34,081217,,,A*4D
13 12 45.342000642 *51
13 12 45.447637448 $GPVTG,49.34,T,,M,0.30,N,0.55,K,A*04
13 12 45.550601285 .0225,W,0.30,49.34,081217,,,A*4D
13 12 45.653778119 *51
13 12 45.756363959 $GPVTG,41.53,T,,M,0.36,N,0.67,K,A*0A
13 12 45.859329796 .0225,W,0.30,49.34,081217,,,A*4D
13 12 45.965096600 *51
13 12 46.068335434 $GPGGA,211220.000,3401.8795,N,11725.0219,W,1,07,1.35,323.7,M,-32.8,M,,*52
13 12 46.499166565
13 12 46.599525431 $GPGSA,A,3,01,31,11,14,32,22,10,,,,,,2.79,1.35,2.45*0C
13 12 46.708716197
13 12 46.808927064 $GPGSV,4,1,13,31,69,123,30,14,56,030,21,01,48,294,17,22,42,314,16*75
13 12 46.916160852
13 12 47.015806726 $GPGSV,4,2,13,32,38,048,22,11,37,264,22,10,23,109,19,03,21,308,*74
13 12 47.117786574
13 12 47.216993452 $GPGSV,4,3,13,25,11,066,,23,07,256,17,26,06,152,,08,03,225,10*71
13 12 47.318167309
13 12 47.417396188 $GPGSV,4,4,13,34,,,*7C
13 12 47.519319036
13 12 47.619477904 $GPRMC,211220.000,A,3401.8795,N,11725.0219,W,0.20,337.07,081217,,,A*7E
13 12 47.724529717
13 12 47.824529587 $GPVTG,337.07,T,,M,0.20,N,0.36,K,A*3A
13 12 47.926384436
13 12 48.026072309 $GPGSA,A,3,01,31,11,14,32,22,25,10,,,,,2.18,1.27,1.78*02
13 12 48.128509151 ÿÿÿÿÿ$GPGSV,4,1,13,31,68,124,32,14,57,030,23,01,48,294,13,51,48,162,24*7A
13 12 48.235031947 $GPGSV,4,2,13,22,41,314,16,32,38,048,24,11,37,264,15,10,24,109,19*7E
13 12 48.337284792 $GPGGA,211207.000,3401.8788,N,11725.0220,W,1,07,1.32,323.7,M,-32.8,M,,*56
13 12 48.776702826 $GPGSA,A,3,01,31,11,14,32,22,10,,,,,,1.62,1.32,0.93*0B
13 12 48.879683662 3.7,M,-32.8,M,,*56
13 12 48.993160380 $GPRMC,211207.000,A,3401.8788,N,11725.0220,W,0.24,46.73,081217,,,A*4F
13 12 49.145758655 *56
13 12 49.247827502 $GPVTG,46.73,T,,M,0.24,N,0.45,K,A*0C
13 12 49.350169345 .0220,W,0.24,46.73,081217,,,A*4F
13 12 49.454871162 *56
13 12 49.560856964 $GPGSV,4,3,13,03,21,308,15,25,11,066,15,23,07,256,16,26,06,152,*74
13 12 49.664341795 ’Æ]×¤dD¸é? ¥Â°$GPGSV,4,4,13,08,03,225,11*45
13 12 49.774500550 11,066,15,23,07,256,16,26,06,152,*74
13 12 49.878013380 ’Æ]×¤dD¸é? ¥Â°$GPRMC,211145.000,A,3401.8776,N,11725.0231,W,0.33,15.02,081217,,,A*4D
13 12 49.982624198 ×¤dD¸é? ¥Â°$GPVTG,15.02,T,,M,0.33,N,0.61,K,A*0C
13 12 50.085742032 .0231,W,0.33,15.02,081217,,,A*4D
13 12 50.188468871 ×¤dD¸é? ¥Â°$GPGGA,211142.000,3401.8774,N,11725.0232,W,1,08,1.27,323.7,M,-32.8,M,,*5F
13 12 50.291642705 D¸é? ¥Â°$GPGGA,211208.000,3401.8788,N,11725.0219,W,1,07,1.32,323.7,M,-32.8,M,,*53
13 12 50.397343511 D¸é? ¥Â°$GPGSA,A,3,01,31,11,14,32,22,10,,,,,,1.62,1.32,0.93*0B
13 12 50.500468345 3.7,M,-32.8,M,,*53
13 12 50.604072175 D¸é? ¥Â°$GPGGA,211221.000,3401.8796,N,11725.0219,W,1,07,1.32,323.7,M,-32.8,M,,*57
13 12 50.710068977
13 12 50.810308844 $GPGSA,A,3,01,31,11,14,32,22,10,,,,,,1.61,1.32,0.93*08
13 12 50.915607654
13 12 51.016065519 $GPRMC,211221.000,A,3401.8796,N,11725.0219,W,0.27,339.42,081217,,,A*74
13 12 51.118151365
13 12 51.268821662 $GPVTG,339.42,T,,M,0.27,N,0.49,K,A*3A
13 12 51.383657364
13 12 51.483459237 $GPRMC,211208.000,A,3401.8788,N,11725.0219,W,0.24,42.54,081217,,,A*4B
13 12 51.587095065 $GPVTG,42.54,T,,M,0.24,N,0.45,K,A*0D
13 12 51.689844904 .0219,W,0.24,42.54,081217,,,A*4B
13 12 51.793174736 $GPGSA,A,3,01,31,11,14,32,22,25,10,,,,,2.19,1.27,1.78*03
13 12 51.898123550 81217,,,A*4B
13 12 52.004534348 $GPRMC,211142.000,A,3401.8774,N,11725.0232,W,0.29,4.43,081217,,,A*75
13 12 52.108139177
13 12 52.212497998 $GPGGA,211155.000,3401.8784,N,11725.0224,W,1,08,1.25,323.7,M,-32.8,M,,*53
13 12 52.698562505 $GPGSA,A,3,01,31,11,14,32,22,25,10,,,,,1.52,1.25,0.87*0C
13 12 52.805646294 7,M,-32.8,M,,*53
13 12 52.911672096 $GPGGA,211209.000,3401.8789,N,11725.0219,W,1,07,1.32,323.7,M,-32.8,M,,*53
13 12 53.344419206 $GPGSA,A,3,01,31,11,14,32,22,10,,,,,,1.62,1.32,0.93*0B
13 12 53.500832438 3.7,M,-32.8,M,,*53
13 12 53.611026193 $GPRMC,211209.000,A,3401.8789,N,11725.0219,W,0.27,18.32,081217,,,A*47
13 12 53.713901030 *53
13 12 53.818495848 $GPVTG,18.32,T,,M,0.27,N,0.49,K,A*0D
13 12 53.921372685 .0219,W,0.27,18.32,081217,,,A*47
13 12 54.022707540 *53
13 12 54.146894137 $GPGSV,4,1,13,31,68,124,31,14,56,030,22,01,48,294,13,51,48,162,24*79
13 12 55.128017049
13 12 55.227149929 *53
13 12 55.331572749 $GPGSV,4,2,13,22,41,314,17,32,38,048,23,11,37,264,20,10,24,109,19*7E
13 12 55.433242600
13 12 55.532645476 *53
13 12 55.635466314 $GPGSV,4,3,13,03,21,308,10,25,11,066,13,23,07,256,18,26,06,152,*79
13 12 55.742127109 E
13 12 55.841672984
13 12 55.982188396 *53
13 12 56.106522991 $GPGSV,4,4,13,08,03,225,*45
13 12 56.208105843 5,11,066,13,23,07,256,18,26,06,152,*79
13 12 56.347643266 E
13 12 56.470479878
13 12 56.570215751 *53
13 12 56.675342562 $GPGGA,211222.000,3401.8796,N,11725.0219,W,1,07,1.32,323.7,M,-32.8,M,,*54
13 12 57.107985673 @§$GPGGA,211228.000,3401.8799,N,11725.0220,W,1,07,1.32,323.7,M,-32.8,M,,*5B
13 12 57.210549514
13 12 57.314207343 $GPGSA,A,3,01,31,11,14,32,22,10,,,,,,1.61,1.32,0.93*08
13 12 57.415826194
13 12 57.515552067 $GPRMC,211228.000,A,3401.8799,N,11725.0220,W,0.24,321.75,081217,,,A*76
13 12 57.620218884
13 12 57.720464751 $GPVTG,321.75,T,,M,0.24,N,0.45,K,A*38
13 12 57.823305589
13 12 57.924211449 $GPGSV,4,1,13,31,69,123,30,14,56,030,21,01,48,294,17,48,47,206,*79
13 12 58.027514281 $GPGSV,4,2,13,22,42,314,18,32,38,048,23,11,37,264,24,10,24,109,19*76
13 12 58.131004112 $GPGSV,4,3,13,03,21,308,,25,11,066,,23,07,256,17,26,06,152,*75
13 12 58.234512942 19*76
13 12 58.337704776 $GPGSV,4,4,13,08,03,225,16*42
13 12 58.445924553 ,066,,23,07,256,17,26,06,152,*75
13 12 58.548690392 19*76
13 12 58.653405208 $GPRMC,211215.000,A,3401.8793,N,11725.0219,W,0.13,19.52,081217,,,A*41
13 12 58.764560952 $GPVTG,19.52,T,,M,0.13,N,0.25,K,A*07
13 12 58.870160759 .0219,W,0.13,19.52,081217,,,A*41
13 12 58.974823576 $GPGSA,A,3,01,31,11,14,32,22,25,10,,,,,1.52,1.25,0.87*0C
13 12 59.080194385 81217,,,A*41
13 12 59.199929032 $GPRMC,211156.000,A,3401.8784,N,11725.0224,W,0.28,319.29,081217,,,A*7A
13 12 59.310008788 $GPVTG,319.29,T,,M,0.28,N,0.53,K,A*31
13 12 59.413437619 0224,W,0.28,319.29,081217,,,A*7A
13 12 59.516471455 $GPRMC,211139.000,A,3401.8772,N,11725.0232,W,0.18,4.55,081217,,,A*7A
13 12 59.618834298 A
13 12 59.719384161 $GPVTG,4.55,T,,M,0.18,N,0.34,K,A*37
13 12 59.822771993 5.0232,W,0.18,4.55,081217,,,A*7A
13 12 59.925214835 A
13 13 00.026265693 $GPGGA,211216.000,3401.8793,N,11725.0219,W,1,07,1.32,323.7,M,-32.8,M,,*56
13 13 00.464247744 $GPGSA,A,3,01,31,11,14,32,22,10,,,,,,1.61,1.32,0.93*08
13 13 00.568399567 3.7,M,-32.8,M,,*56
13 13 00.672749387 $GPRMC,211216.000,A,3401.8793,N,11725.0219,W,0.13,3.81,081217,,,A*77
13 13 00.775833222 ,*56
13 13 00.878370064 $GPVTG,3.81,T,,M,0.13,N,0.24,K,A*33
13 13 00.981347900 5.0219,W,0.13,3.81,081217,,,A*77
13 13 01.119348340 ,*56
13 13 01.221826182 $GPGGA,211229.000,3401.8799,N,11725.0221,W,1,07,1.32,323.7,M,-32.8,M,,*5B
13 13 01.654584291
13 13 01.759161110 $GPGSA,A,3,01,31,11,14,32,22,10,,,,,,1.61,1.32,0.93*08
13 13 01.861370955
13 13 01.961591822 $GPRMC,211229.000,A,3401.8799,N,11725.0221,W,0.28,323.65,081217,,,A*79
13 13 02.064326661
13 13 02.164295531 $GPVTG,323.65,T,,M,0.28,N,0.52,K,A*31
13 13 02.266369378
13 13 02.366866242 $GPGGA,211147.000,3401.8778,N,11725.0230,W,1,08,1.25,323.7,M,-32.8,M,,*56
13 13 02.802512319 $GPGGA,211152.000,3401.8782,N,11725.0226,W,1,08,1.25,323.7,M,-32.8,M,,*50
13 13 03.240549368 $GPGGA,211217.000,3401.8794,N,11725.0219,W,1,07,1.35,323.7,M,-32.8,M,,*57
13 13 03.674218467 $GPGSA,A,3,01,31,11,14,32,22,10,,,,,,2.79,1.35,2.45*0C
13 13 03.776947306 3.7,M,-32.8,M,,*57
13 13 03.882702111 $GPRMC,211217.000,A,3401.8794,N,11725.0219,W,0.13,5.94,081217,,,A*73
13 13 03.986113943 ‡„/)à4 )$GPGGA,211233.000,3401.8803,N,11725.0223,W,1,07,1.32,323.7,M,-32.8,M,,*5E
13 13 04.087239800
13 13 04.187407668 $GPGSA,A,3,01,31,11,14,32,22,10,,,,,,1.61,1.32,0.93*08
13 13 04.290029508
13 13 04.399974265 $GPRMC,211233.000,A,3401.8803,N,11725.0223,W,0.45,341.75,081217,,,A*72
13 13 04.502638105
13 13 04.603797962 $GPVTG,341.75,T,,M,0.45,N,0.84,K,A*34
13 13 04.707059795
13 13 04.811980609 $GPGGA,211220.000,3401.8795,N,11725.0219,W,1,07,1.35,323.7,M,-32.8,M,,*52
13 13 05.245414711 $GPGSA,A,3,01,31,11,14,32,22,10,,,,,,2.79,1.35,2.45*0C
13 13 05.348150550 3.7,M,-32.8,M,,*52
13 13 05.451497382 $GPGSV,4,1,13,31,69,123,30,14,56,030,21,01,48,294,17,22,42,314,16*75
13 13 05.554414219 ,*52
13 13 05.657129058 $GPGSV,4,2,13,32,38,048,22,11,37,264,22,10,23,109,19,03,21,308,*74
13 13 05.759837897 5
13 13 05.860403761 ,*52
13 13 05.963347598 $GPGSV,4,3,13,25,11,066,,23,07,256,17,26,06,152,,08,03,225,10*71
13 13 06.065707441 4
13 13 06.165311315 5
13 13 06.270146130 ,*52
13 13 06.376700926 $GPGSV,4,4,13,34,,,*7C
13 13 06.479771761 ,,23,07,256,17,26,06,152,,08,03,225,10*71
13 13 06.590628509 4
13 13 06.744201773 5
13 13 06.845230631 ,*52
13 13 06.947680474 $GPRMC,211220.000,A,3401.8795,N,11725.0219,W,0.20,337.07,081217,,,A*7E
13 13 07.050100316 52
13 13 07.150441182 $GPVTG,337.07,T,,M,0.20,N,0.36,K,A*3A
13 13 07.253508017 0219,W,0.20,337.07,081217,,,A*7E
13 13 07.355783862 52
13 13 07.486793381 $GPGSA,A,3,01,31,11,14,32,22,25,10,,,,,2.18,1.27,1.78*02
13 13 07.590351211 081217,,,A*7E
13 13 07.692192060 52
13 13 07.797609868 $GPGSV,4,1,13,31,68,124,32,14,57,030,23,01,48,294,13,51,48,162,24*7A
13 13 07.900435706 E
13 13 08.000977570 52
13 13 08.102209426 $GPGSV,4,2,13,22,41,314,16,32,38,048,24,11,37,264,15,10,24,109,19*7E
13 13 08.204739267 E
13 13 08.305413130 52
13 13 08.406472988 $GPGGA,211207.000,3401.8788,N,11725.0220,W,1,07,1.32,323.7,M,-32.8,M,,*56
13 13 08.839995088 $GPGSA,A,3,01,31,11,14,32,22,10,,,,,,1.62,1.32,0.93*0B
13 13 08.943348920 3.7,M,-32.8,M,,*56
13 13 09.046150758 $GPRMC,211207.000,A,3401.8788,N,11725.0220,W,0.24,46.73,081217,,,A*4F
13 13 09.149190594 *56
13 13 09.258858355 $GPVTG,46.73,T,,M,0.24,N,0.45,K,A*0C
13 13 09.362656182 .0220,W,0.24,46.73,081217,,,A*4F
13 13 09.480156854 *56
13 13 09.583660684 $GPGGA,211234.000,3401.8804,N,11725.0223,W,1,07,1.32,323.7,M,-32.8,M,,*5E
13 13 10.015946799
13 13 10.116273665 $GPGSA,A,3,01,31,11,14,32,22,10,,,,,,1.61,1.32,0.93*08
13 13 10.220892483
13 13 10.321876341 $GPRMC,211234.000,A,3401.8804,N,11725.0223,W,0.45,347.86,081217,,,A*78
13 13 10.423998187
13 13 10.523771060 $GPVTG,347.86,T,,M,0.45,N,0.84,K,A*3E
13 13 10.625788907
13 13 10.726504769 $GPGSV,4,3,13,03,21,308,15,25,11,066,15,23,07,256,16,26,06,152,*74
13 13 10.836640524 $GPGSV,4,4,13,08,03,225,11*45
13 13 10.939744359 11,066,15,23,07,256,16,26,06,152,*74
13 13 11.042702195 $GPRMC,211145.000,A,3401.8776,N,11725.0231,W,0.33,15.02,081217,,,A*4D
13 13 11.145843030 $GPVTG,15.02,T,,M,0.33,N,0.61,K,A*0C
13 13 11.248885865 .0231,W,0.33,15.02,081217,,,A*4D
13 13 11.351853701 $GPGGA,211235.000,3401.8805,N,11725.0223,W,1,06,1.48,323.7,M,-32.8,M,,*52
13 13 11.787529778
13 13 11.887649646 $GPGSA,A,3,01,31,11,14,32,10,,,,,,,2.91,1.48,2.51*05
13 13 11.989391497
13 13 12.089859361 $GPGSV,4,1,13,31,69,123,30,14,56,030,19,01,48,294,17,22,42,314,*79
13 13 12.193156194
13 13 12.300010986 $GPGSV,4,2,13,32,38,048,23,11,36,263,22,10,23,109,20,03,21,308,*79
13 13 12.405866790
13 13 12.509758616 $GPGSV,4,3,13,25,11,066,,23,07,256,,26,06,152,,08,03,225,*76
13 13 12.615798417
13 13 12.720147238 $GPGSV,4,4,13,36,,,*7E
13 13 12.825273050
13 13 12.925871913 $GPRMC,211235.000,A,3401.8805,N,11725.0223,W,0.45,351.79,081217,,,A*7F
13 13 13.030775728
13 13 13.131158593 $GPVTG,351.79,T,,M,0.45,N,0.83,K,A*3E
13 13 13.236467403
13 13 13.336552272 $GPGGA,211142.000,3401.8774,N,11725.0232,W,1,08,1.27,323.7,M,-32.8,M,,*5F
13 13 13.777213292 $GPGGA,211208.000,3401.8788,N,11725.0219,W,1,07,1.32,323.7,M,-32.8,M,,*53
13 13 14.272852691 $GPGGA,211236.000,3401.8807,N,11725.0223,W,1,06,1.48,323.7,M,-32.8,M,,*53
13 13 14.730607518
13 13 14.830024394 $GPGSA,A,3,01,31,11,14,32,10,,,,,,,2.91,1.48,2.51*05
13 13 14.932598235
13 13 15.032820102 $GPRMC,211236.000,A,3401.8807,N,11725.0223,W,0.50,352.92,081217,,,A*7C
13 13 15.135123946
13 13 15.234929818 $GPVTG,352.92,T,,M,0.50,N,0.93,K,A*3D
13 13 15.340982620
13 13 15.441305486 $GPGSA,A,3,01,31,11,14,32,22,10,,,,,,1.62,1.32,0.93*0B
13 13 15.544717317 ÿÿÿÿÿÿÿ$GPGGA,211221.000,3401.8796,N,11725.0219,W,1,07,1.32,323.7,M,-32.8,M,,*57
13 13 15.648486145 $GPGGA,211237.000,3401.8808,N,11725.0224,W,1,06,1.48,323.7,M,-32.8,M,,*5A
13 13 16.080263265
13 13 16.180257135 $GPGSA,A,3,01,31,11,14,32,10,,,,,,,2.91,1.48,2.51*05
13 13 16.282757977
13 13 16.385344817 $GPRMC,211237.000,A,3401.8808,N,11725.0224,W,0.36,359.42,081217,,,A*73
13 13 16.489165644 öè3$GPGGA,211245.000,3401.8817,N,11725.0221,W,1,07,1.35,323.7,M,-32.8,M,,*5F
13 13 16.592196480
13 13 16.692691344 $GPGSA,A,3,01,31,11,14,32,22,10,,,,,,2.79,1.35,2.44*0D
13 13 16.798798145
13 13 16.899043012 $GPGSV,4,1,13,31,69,122,32,14,56,030,19,01,48,294,16,22,42,314,18*72
13 13 17.001298856
13 13 17.101227727 $GPGSV,4,2,13,32,38,049,21,11,36,263,20,10,23,109,19,03,21,308,*72
13 13 17.203800568
13 13 17.303976436 $GPGSV,4,3,13,25,11,066,,23,07,256,16,26,06,152,,08,03,225,*71
13 13 17.406181281
13 13 17.506527147 $GPGSV,4,4,13,41,,,*7E
13 13 17.608769991
13 13 17.709374854 $GPRMC,211245.000,A,3401.8817,N,11725.0221,W,0.45,5.99,081217,,,A*75
13 13 17.812005694
13 13 17.911661568 $GPVTG,5.99,T,,M,0.45,N,0.83,K,A*32
13 13 18.014493406
13 13 18.114736273 $GPGGA,211211.000,3401.8790,N,11725.0218,W,1,07,1.34,323.7,M,-32.8,M,,*55
13 13 18.553006320 $GPGSA,A,3,01,31,11,14,32,22,10,,,,,,2.79,1.34,2.45*0D
13 13 18.656422152 3.7,M,-32.8,M,,*55
13 13 18.759414988 $GPRMC,211211.000,A,3401.8790,N,11725.0218,W,0.31,347.68,081217,,,A*76
13 13 18.862172826 55
13 13 18.963952676 $GPVTG,347.68,T,,M,0.31,N,0.58,K,A*3C
13 13 19.067276508 0218,W,0.31,347.68,081217,,,A*76
13 13 19.169845349 55
13 13 19.271109205 $GPGGA,211246.000,3401.8818,N,11725.0221,W,1,07,1.34,323.7,M,-32.8,M,,*52
13 13 19.704100312
13 13 19.810631108 $GPGSA,A,3,01,31,11,14,32,22,10,,,,,,2.78,1.34,2.44*0D
13 13 19.913211948
13 13 20.013853811 $GPRMC,211246.000,A,3401.8818,N,11725.0221,W,0.40,353.99,081217,,,A*7C
13 13 20.118731626
13 13 20.219178491 $GPVTG,353.99,T,,M,0.40,N,0.73,K,A*38
13 13 20.321864330
13 13 20.422666191 $GPGGA,211151.000,3401.8781,N,11725.0227,W,1,08,1.25,323.7,M,-32.8,M,,*51
13 13 20.856193292 $GPGGA,211223.000,3401.8797,N,11725.0220,W,1,07,1.34,323.7,M,-32.8,M,,*58
13 13 21.296871312 $GPGSA,A,3,01,31,11,14,32,22,10,,,,,,2.79,1.34,2.44*0C
13 13 21.399945147 3.7,M,-32.8,M,,*58
13 13 21.503281979 $GPGGA,211247.000,3401.8820,N,11725.0221,W,1,07,1.34,323.7,M,-32.8,M,,*58
13 13 21.937047077
13 13 22.037690939 $GPGSA,A,3,01,31,11,14,32,22,10,,,,,,2.79,1.34,2.44*0C
13 13 22.139924784
13 13 22.240928643 $GPRMC,211247.000,A,3401.8820,N,11725.0221,W,0.36,340.34,081217,,,A*72
13 13 22.343217487
13 13 22.443773350 $GPVTG,340.34,T,,M,0.36,N,0.67,K,A*39
13 13 22.545812197
13 13 22.646273062 $GPRMC,211223.000,A,3401.8797,N,11725.0220,W,0.18,346.28,081217,,,A*75
13 13 22.749577894 $GPVTG,346.28,T,,M,0.18,N,0.33,K,A*3F
13 13 22.857019680 0220,W,0.18,346.28,081217,,,A*75
13 13 22.959720520 $GPGSA,A,3,01,31,11,14,32,22,25,10,,,,,1.52,1.25,0.87*0C
13 13 23.063365348 081217,,,A*75
13 13 23.166220186 $GPRMC,211151.000,A,3401.8781,N,11725.0227,W,0.30,38.12,081217,,,A*4A
13 13 23.268540030
13 13 23.368853896 $GPGGA,211248.000,3401.8820,N,11725.0222,W,1,07,1.32,323.7,M,-32.8,M,,*52
13 13 23.801927002
13 13 23.902174869 $GPGSA,A,3,01,31,11,14,32,22,10,,,,,,1.61,1.32,0.93*08
13 13 24.006893685
13 13 24.107822545 $GPRMC,211248.000,A,3401.8820,N,11725.0222,W,0.26,329.44,081217,,,A*77
13 13 24.210010390
13 13 24.314373210 $GPVTG,329.44,T,,M,0.26,N,0.48,K,A*3D
13 13 24.416133060
13 13 24.516300928 $GPVTG,38.12,T,,M,0.30,N,0.55,K,A*06
13 13 24.619957757 ÿÿÿÿÿÿÿÿÿÿÿÿÿÿÿÿÿÿÿÿÿÿÿÿÿ$GPVTG,4.43,T,,M,0.29,N,0.54,K,A*34
13 13 24.723464587
13 13 24.827725409 ÿÿÿÿÿÿÿÿÿÿÿÿÿÿÿÿÿÿÿÿÿÿÿÿÿ$GPGGA,211212.000,3401.8791,N,11725.0219,W,1,07,1.35,323.7,M,-32.8,M,,*57
13 13 24.932659223 $GPGSA,A,3,01,31,11,14,32,22,10,,,,,,2.79,1.35,2.45*0C
13 13 25.035586060 3.7,M,-32.8,M,,*57
13 13 25.138621895 $GPRMC,211212.000,A,3401.8791,N,11725.0219,W,0.27,343.71,081217,,,A*7E
13 13 25.241239736 57
13 13 25.345114562 $GPVTG,343.71,T,,M,0.27,N,0.51,K,A*3E
13 13 25.448424394 0219,W,0.27,343.71,081217,,,A*7E
13 13 25.550176244 57
13 13 25.651223103 $GPGGA,211249.000,3401.8821,N,11725.0222,W,1,07,1.32,323.7,M,-32.8,M,,*52
13 13 26.089661148
13 13 26.189982014 $GPGSA,A,3,01,31,11,14,32,22,10,,,,,,1.61,1.32,0.93*08
13 13 26.292950850
13 13 26.393812710 $GPRMC,211249.000,A,3401.8821,N,11725.0222,W,0.27,322.28,081217,,,A*77
13 13 26.496124554
13 13 26.596162424 $GPVTG,322.28,T,,M,0.27,N,0.50,K,A*34
13 13 26.697947273
13 13 26.798654135 $GPGSA,A,3,01,31,11,14,32,22,25,10,,,,,2.19,1.27,1.78*03
13 13 26.901998967 ÿÿÿÿÿ$GPRMC,211141.000,A,3401.8773,N,11725.0232,W,0.23,4.94,081217,,,A*71
13 13 27.005830794 $GPVTG,4.94,T,,M,0.23,N,0.43,K,A*32
13 13 27.108831630 5.0232,W,0.23,4.94,081217,,,A*71
13 13 27.212039464 $GPGGA,211224.000,3401.8797,N,11725.0220,W,1,07,1.34,323.7,M,-32.8,M,,*5F
13 13 27.649916515 $GPGSA,A,3,01,31,11,14,32,22,10,,,,,,2.79,1.34,2.44*0C
13 13 27.753400346 3.7,M,-32.8,M,,*5F
13 13 27.856377182 $GPGGA,211250.000,3401.8822,N,11725.0223,W,1,07,1.32,323.7,M,-32.8,M,,*58
13 13 28.289331289
13 13 28.389900152 $GPGSA,A,3,01,31,11,14,32,22,10,,,,,,1.61,1.32,0.93*08
13 13 28.491854000
13 13 28.592322865 $GPGSV,4,1,13,31,69,122,33,14,56,030,20,01,48,294,14,22,42,314,19*7A
13 13 28.694515710
13 13 28.798793531 $GPGSV,4,2,13,32,38,049,22,11,36,263,19,10,23,109,20,03,21,308,17*77
13 13 28.901001376
13 13 29.001376242 $GPGSV,4,3,13,25,11,066,,23,07,256,17,26,06,152,,08,03,225,*70
13 13 29.103533088
13 13 29.203540957 $GPGSV,4,4,13,41,,,*7E
13 13 29.305244808
13 13 29.405739672 $GPRMC,211250.000,A,3401.8822,N,11725.0223,W,0.29,323.22,081217,,,A*78
13 13 29.508175515
13 13 29.608645379 $GPVTG,323.22,T,,M,0.29,N,0.54,K,A*35
13 13 29.710533228
13 13 29.810724095 $GPRMC,211224.000,A,3401.8797,N,11725.0220,W,0.08,338.25,081217,,,A*77
13 13 29.916471900 $GPVTG,338.25,T,,M,0.08,N,0.14,K,A*3F
13 13 30.019438737 0220,W,0.08,338.25,081217,,,A*77
13 13 30.122646570 $GPGGA,211213.000,3401.8792,N,11725.0219,W,1,07,1.32,323.7,M,-32.8,M,,*52
13 13 30.561248614 $GPGSA,A,3,01,31,11,14,32,22,10,,,,,,1.62,1.32,0.93*0B
13 13 30.664502447 3.7,M,-32.8,M,,*52
13 13 30.767248286 $GPGGA,211225.000,3401.8798,N,11725.0220,W,1,07,1.32,323.7,M,-32.8,M,,*57
13 13 31.202744364 D¸é? ¥Â°$GPGSA,A,3,01,31,11,14,32,22,10,,,,,,1.62,1.32,0.93*0B
13 13 31.305848199 3.7,M,-32.8,M,,*57
13 13 31.409101032 D¸é? ¥Â°$GPGSV,4,1,13,31,69,123,30,14,56,030,20,01,48,294,16,22,42,314,19*7A
13 13 31.512808860 ,*57
13 13 31.615953694 D¸é? ¥Â°$GPGGA,211251.000,3401.8822,N,11725.0223,W,1,07,1.32,323.7,M,-32.8,M,,*59
13 13 31.718510535
13 13 31.822907356 $GPGSA,A,3,01,31,11,14,32,22,10,,,,,,1.61,1.32,0.93*08
13 13 31.925296198
13 13 32.025255069 $GPRMC,211251.000,A,3401.8822,N,11725.0223,W,0.34,325.90,081217,,,A*7A
13 13 32.169020444
13 13 32.408018743 $GPVTG,325.90,T,,M,0.34,N,0.63,K,A*32
13 13 32.509923591
13 13 32.610440456 $GPGSV,4,2,13,32,38,048,23,11,36,263,21,10,23,109,20,03,21,308,*7A
13 13 32.713896286 $GPGSV,4,3,13,25,11,066,,23,07,256,18,26,06,152,,08,03,225,*7F
13 13 32.816790124 *7A
13 13 32.919387964 $GPGSV,4,4,13,35,,,*7D
13 13 33.022019804 ,,23,07,256,18,26,06,152,,08,03,225,*7F
13 13 33.124601645 *7A
13 13 33.227985477 $GPRMC,211225.000,A,3401.8798,N,11725.0220,W,0.03,314.15,081217,,,A*7F
13 13 33.335550261 $GPVTG,314.15,T,,M,0.03,N,0.06,K,A*3A
13 13 33.438017103 0220,W,0.03,314.15,081217,,,A*7F
13 13 33.541314936 $GPGGA,211252.000,3401.8823,N,11725.0224,W,1,07,1.32,323.7,M,-32.8,M,,*5C
13 13 33.974899036
13 13 34.074221913 $GPGSA,A,3,01,31,11,14,32,22,10,,,,,,1.61,1.32,0.93*08
13 13 34.175481769
13 13 34.274710647 $GPRMC,211252.000,A,3401.8823,N,11725.0224,W,0.32,318.39,081217,,,A*74
13 13 34.376434498
13 13 34.476410368 $GPVTG,318.39,T,,M,0.32,N,0.60,K,A*3A
13 13 34.580158196
13 13 34.680869057 $GPRMC,211213.000,A,3401.8792,N,11725.0219,W,0.25,345.23,081217,,,A*7F
13 13 34.791385808 $GPVTG,345.23,T,,M,0.25,N,0.46,K,A*3B
13 13 34.894740640 0219,W,0.25,345.23,081217,,,A*7F
13 13 35.002818419 $GPGGA,211139.000,3401.8772,N,11725.0232,W,1,08,1.27,323.7,M,-32.8,M,,*55
13 13 35.434687538 $GPGGA,211146.000,3401.8777,N,11725.0231,W,1,08,1.25,323.7,M,-32.8,M,,*59
13 13 35.867130651 $GPGGA,211253.000,3401.8824,N,11725.0225,W,1,07,1.32,323.7,M,-32.8,M,,*5B
13 13 36.300781751
13 13 36.399538634 $GPGSA,A,3,01,31,11,14,32,22,10,,,,,,1.61,1.32,0.93*08
13 13 36.501527482
13 13 36.601829348 $GPRMC,211253.000,A,3401.8824,N,11725.0225,W,0.31,316.91,081217,,,A*7C
13 13 36.705079182
13 13 36.805033052 $GPVTG,316.91,T,,M,0.31,N,0.57,K,A*31
13 13 36.906171909
13 13 37.005746784 $GPGSA,A,3,01,31,11,14,32,22,25,10,,,,,1.52,1.25,0.87*0C
13 13 37.108932618 ÿÿÿÿÿ$GPGGA,211226.000,3401.8798,N,11725.0220,W,1,07,1.32,323.7,M,-32.8,M,,*54
13 13 37.211323460 $GPGSA,A,3,01,31,11,14,32,22,10,,,,,,1.61,1.32,0.93*08
13 13 37.313310308 3.7,M,-32.8,M,,*54
13 13 37.415141157 $GPGGA,211254.000,3401.8825,N,11725.0225,W,1,07,1.32,323.7,M,-32.8,M,,*5D
13 13 37.851452226
13 13 37.950499107 $GPGSA,A,3,01,31,11,14,32,22,10,,,,,,1.61,1.32,0.93*08
13 13 38.052511954
13 13 38.151320837 $GPRMC,211254.000,A,3401.8825,N,11725.0225,W,0.29,318.24,081217,,,A*73
13 13 38.253200686
13 13 38.352556563 $GPVTG,318.24,T,,M,0.29,N,0.54,K,A*3B
13 13 38.454262414
13 13 38.554755278 $GPRMC,211226.000,A,3401.8798,N,11725.0220,W,0.10,333.81,081217,,,A*76
13 13 38.658262108 $GPVTG,333.81,T,,M,0.10,N,0.19,K,A*3E
13 13 38.761048947 0220,W,0.10,333.81,081217,,,A*76
13 13 38.864349779 $GPGGA,211255.000,3401.8825,N,11725.0226,W,1,07,1.32,323.7,M,-32.8,M,,*5F
13 13 39.298560872
13 13 39.397737751 $GPGSA,A,3,01,31,11,14,32,22,10,,,,,,1.61,1.32,0.93*08
13 13 39.500067595
13 13 39.600413461 $GPGSV,4,1,13,31,69,122,34,14,56,030,21,01,48,294,20,22,42,314,21*70
13 13 39.702758304
13 13 39.803466166 $GPGSV,4,2,13,32,38,049,24,11,36,263,21,10,23,109,21,03,21,308,17*7B
13 13 39.904954019
13 13 40.006613870 $GPGSV,4,3,13,25,11,066,,23,07,256,18,26,06,152,,08,02,225,*7E
13 13 40.108330721
13 13 40.207357602 $GPGSV,4,4,13,43,,,*7C
13 13 40.308173463
                                                                                                                                                                                                                                                                                                                                                                                                                                                                                                  