17 36 30.220000566 $GPGGA,013630.000,3401.8872,N,11725.0195,W,2,10,0.81,316.0,M,-32.8,M,0000,0000*5C
17 36 30.708850595
17 36 30.813394531 $GPGSA,A,3,03,22,23,07,27,09,16,26,30,08,,,1.15,0.81,0.82*05
17 36 30.919343454
17 36 31.022729402 $GPRMC,013630.000,A,3401.8872,N,11725.0195,W,0.07,8.04,061217,,,D*78
17 36 31.127341338
17 36 31.230665288 $GPVTG,8.04,T,,M,0.07,N,0.13,K,D*31
17 36 31.335935217
17 36 31.439172167 $GPGGA,013630.000,3401.8872,N,11725.0195,W,2,10,0.81,316.0,M,-32.8,M,0000,0000*5C
17 36 31.886200621 $GPGSA,A,3,03,22,23,07,27,09,16,26,30,08,,,1.15,0.81,0.82*05
17 36 31.992062544 -32.8,M,0000,0000*5C
17 36 32.101460432 $GPRMC,013630.000,A,3401.8872,N,11725.0195,W,0.07,8.04,061217,,,D*78
17 36 32.207227356 0000,0000*5C
17 36 32.312384286 $GPVTG,8.04,T,,M,0.07,N,0.13,K,D*31
17 36 32.420128191 5.0195,W,0.07,8.04,061217,,,D*78
17 36 32.525417120 0000,0000*5C
17 36 32.630986046 $GPGGA,013630.000,3401.8872,N,11725.0195,W,2,10,0.81,316.0,M,-32.8,M,0000,0000*5C
17 36 33.076596514 $GPGSA,A,3,03,22,23,07,27,09,16,26,30,08,,,1.15,0.81,0.82*05
17 36 33.183116431 -32.8,M,0000,0000*5C
17 36 33.290104343 $GPRMC,013630.000,A,3401.8872,N,11725.0195,W,0.07,8.04,061217,,,D*78
17 36 33.396262263 000º$GPVTG,8.04,T,,M,0.07,N,0.13,K,D*31
17 36 33.501909189 5.0195,W,0.07,8.04,061217,,,D*78
17 36 33.612161068 000º$GPGGA,013630.000,3401.8872,N,11725.0195,W,2,10,0.81,316.0,M,-32.8,M,0000,0000*5C
17 36 33.720657964 $GPGSA,A,3,03,22,23,07,27,09,16,26,30,08,,,1.15,0.81,0.82*05
17 36 33.826761885 -32.8,M,0000,0000*5C
17 36 33.940800725 $GPRMC,013630.000,A,3401.8872,N,11725.0195,W,0.07,8.04,061217,,,D*78
17 36 34.046860647 0000,0000*5C
17 36 34.152449573 $GPGGA,013631.000,3401.8872,N,11725.0195,W,2,10,0.86,316.0,M,-32.8,M,0000,0000*5A
17 36 34.603101990
17 36 34.706659936 $GPGSA,A,3,03,22,23,07,27,09,16,26,30,08,,,1.67,0.86,1.43*0B
17 36 34.811359872
17 36 34.914027828 $GPGSV,3,1,12,23,75,047,22,09,55,325,22,16,48,056,25,51,48,162,30*74
17 36 35.018909761
17 36 35.125377678 $GPGSV,3,2,12,07,39,273,35,03,37,183,28,22,19,171,27,26,19,042,28*7B
17 36 35.230468609
17 36 35.333732559 $GPGSV,3,3,12,27,18,106,16,30,14,258,25,08,12,141,22,06,03,279,*7E
17 36 35.438650492
17 36 35.541462446 $GPRMC,013631.000,A,3401.8872,N,11725.0195,W,0.09,359.00,061217,,,D*74
17 36 35.646694376
17 36 35.749955326 $GPVTG,359.00,T,,M,0.09,N,0.17,K,D*38
17 36 35.854872259
17 36 35.957398216 $GPVTG,8.04,T,,M,0.07,N,0.13,K,D*31
17 36 36.063426138 ÿÿÿÿÿÿÿÿÿÿÿÿÿÿÿÿÿÿÿÿÿÿÿÿÿÿ$GPGGA,013630.000,3401.8872,N,11725.0195,W,2,10,0.81,316.0,M,-32.8,M,0000,0000*5C
17 36 36.171067043 $GPGSA,A,3,03,22,23,07,27,09,16,26,30,08,,,1.15,0.81,0.82*05
17 36 36.276993966 -32.8,M,0000,0000*5C
17 36 36.382362894 $GPRMC,013630.000,A,3401.8872,N,11725.0195,W,0.07,8.04,061217,,,D*78
17 36 36.488328817 000º$GPGGA,013631.000,3401.8872,N,11725.0195,W,2,10,0.86,316.0,M,-32.8,M,0000,0000*5A
17 36 36.598143700 $GPGSA,A,3,03,22,23,07,27,09,16,26,30,08,,,1.67,0.86,1.43*0B
17 36 36.705224611 $GPGSV,3,1,12,23,75,047,22,09,55,325,22,16,48,056,25,51,48,162,30*74
17 36 36.812748517 000º$GPGSV,3,2,12,07,39,273,35,03,37,183,28,22,19,171,27,26,19,042,28*7B
17 36 36.918257444 000º$GPGSV,3,3,12,27,18,106,16,30,14,258,25,08,12,141,22,06,03,279,*7E
17 36 37.023379375 B
17 36 37.126965322 000º$GPRMC,013631.000,A,3401.8872,N,11725.0195,W,0.09,359.00,061217,,,D*74
17 36 37.232963244 0º$GPVTG,359.00,T,,M,0.09,N,0.17,K,D*38
17 36 37.338139174 0195,W,0.09,359.00,061217,,,D*74
17 36 37.448816048 0º$GPVTG,8.04,T,,M,0.07,N,0.13,K,D*31
17 36 37.554592973 8
17 36 37.657657925 0195,W,0.09,359.00,061217,,,D*74
17 36 37.763051853 0º$GPGGA,013630.000,3401.8872,N,11725.0195,W,2,10,0.81,316.0,M,-32.8,M,0000,0000*5C
17 36 37.868936776 $GPGGA,013632.000,3401.8872,N,11725.0195,W,2,10,0.86,316.0,M,-32.8,M,0000,0000*59
17 36 38.319181197
17 36 38.422897142 $GPGSA,A,3,03,22,23,07,27,09,16,26,30,08,,,1.67,0.86,1.43*0B
17 36 38.527299080
17 36 38.630022035 $GPRMC,013632.000,A,3401.8872,N,11725.0195,W,0.11,3.59,061217,,,D*7E
17 36 38.735579962
17 36 38.840989890 $GPVTG,3.59,T,,M,0.11,N,0.20,K,D*35
17 36 38.945906823
17 36 39.051012754 $GPGSA,A,3,03,22,23,07,27,09,16,26,30,08,,,1.15,0.81,0.82*05
17 36 39.156174684 ÿ$GPRMC,013630.000,A,3401.8872,N,11725.0195,W,0.07,8.04,061217,,,D*78
17 36 39.261296615 $GPGGA,013631.000,3401.8872,N,11725.0195,W,2,10,0.86,316.0,M,-32.8,M,0000,0000*5A
17 36 39.715575995 $GPGSA,A,3,03,22,23,07,27,09,16,26,30,08,,,1.67,0.86,1.43*0B
17 36 39.821496918 $GPGSV,3,1,12,23,75,047,22,09,55,325,22,16,48,056,25,51,48,162,30*74
17 36 39.927122844 000º$GPGSV,3,2,12,07,39,273,35,03,37,183,28,22,19,171,27,26,19,042,28*7B
17 36 40.032565771 000º$GPGSV,3,3,12,27,18,106,16,30,14,258,25,08,12,141,22,06,03,279,*7E
17 36 40.137799701 $GPRMC,013631.000,A,3401.8872,N,11725.0195,W,0.09,359.00,061217,,,D*74
17 36 40.243836623 0º$GPVTG,359.00,T,,M,0.09,N,0.17,K,D*38
17 36 40.349114552 $GPVTG,8.04,T,,M,0.07,N,0.13,K,D*31
17 36 40.454684478 $GPGGA,013630.000,3401.8872,N,11725.0195,W,2,10,0.81,316.0,M,-32.8,M,0000,0000*5C
17 36 40.561022397 $GPGGA,013632.000,3401.8872,N,11725.0195,W,2,10,0.86,316.0,M,-32.8,M,0000,0000*59
17 36 41.007564856 $GPGGA,013633.000,3401.8872,N,11725.0195,W,2,10,0.86,316.0,M,-32.8,M,0000,0000*58
17 36 41.458077274
17 36 41.561921218 $GPGSA,A,3,03,22,23,07,27,09,16,26,30,08,,,1.67,0.86,1.43*0B
17 36 41.667719142
17 36 41.772180079 $GPRMC,013633.000,A,3401.8872,N,11725.0195,W,0.16,337.25,061217,,,D*77
17 36 41.877105012
17 36 41.980086965 $GPVTG,337.25,T,,M,0.16,N,0.29,K,D*34
17 36 42.084809900
17 36 42.187762853 $GPGSA,A,3,03,22,23,07,27,09,16,26,30,08,,,1.67,0.86,1.43*0B
17 36 42.293439778 ÿ$GPRMC,013632.000,A,3401.8872,N,11725.0195,W,0.11,3.59,061217,,,D*7E
17 36 42.400783686 $GPVTG,3.59,T,,M,0.11,N,0.20,K,D*35
17 36 42.506602610 $GPGSA,A,3,03,22,23,07,27,09,16,26,30,08,,,1.15,0.81,0.82*05
17 36 42.616673491 $GPRMC,013630.000,A,3401.8872,N,11725.0195,W,0.07,8.04,061217,,,D*78
17 36 42.722500415 $GPGGA,013631.000,3401.8872,N,11725.0195,W,2,10,0.86,316.0,M,-32.8,M,0000,0000*5A
17 36 43.167304891 $GPGSA,A,3,03,22,23,07,27,09,16,26,30,08,,,1.67,0.86,1.43*0B
17 36 43.271953827 -32.8,M,0000,0000*5A
17 36 43.377383754 $GPGSV,3,1,12,23,75,047,22,09,55,325,22,16,48,056,25,51,48,162,30*74
17 36 43.482739683 0000,0000*5A
17 36 43.588113611 $GPGSV,3,2,12,07,39,273,35,03,37,183,28,22,19,171,27,26,19,042,28*7B
17 36 43.694019534 000º$GPGSV,3,3,12,27,18,106,16,30,14,258,25,08,12,141,22,06,03,279,*7E
17 36 43.801205444 $GPRMC,013631.000,A,3401.8872,N,11725.0195,W,0.09,359.00,061217,,,D*74
17 36 43.906888369 0º$GPVTG,359.00,T,,M,0.09,N,0.17,K,D*38
17 36 44.012101299 0195,W,0.09,359.00,061217,,,D*74
17 36 44.122329178 0º$GPVTG,8.04,T,,M,0.07,N,0.13,K,D*31
17 36 44.225777126 8
17 36 44.327736089 0195,W,0.09,359.00,061217,,,D*74
17 36 44.432600023 0º$GPGGA,013630.000,3401.8872,N,11725.0195,W,2,10,0.81,316.0,M,-32.8,M,0000,0000*5C
17 36 44.538218949 $GPGGA,013634.000,3401.8873,N,11725.0195,W,2,10,0.81,316.0,M,-32.8,M,0000,0000*59
17 36 44.984584409
17 36 45.086461373 $GPGSA,A,3,03,22,23,07,27,09,16,26,30,08,,,1.15,0.81,0.82*05
17 36 45.190608314
17 36 45.292077282 $GPRMC,013634.000,A,3401.8873,N,11725.0195,W,0.08,325.26,061217,,,D*7E
17 36 45.398142203
17 36 45.500846158 $GPVTG,325.26,T,,M,0.08,N,0.14,K,D*35
17 36 45.609310055
17 36 45.712789003 $GPGGA,013632.000,3401.8872,N,11725.0195,W,2,10,0.86,316.0,M,-32.8,M,0000,0000*59
17 36 46.157160484 $GPGGA,013633.000,3401.8872,N,11725.0195,W,2,10,0.86,316.0,M,-32.8,M,0000,0000*58
17 36 46.599810982 $GPGSA,A,3,03,22,23,07,27,09,16,26,30,08,,,1.67,0.86,1.43*0B
17 36 46.706347898 $GPRMC,013633.000,A,3401.8872,N,11725.0195,W,0.16,337.25,061217,,,D*77
17 36 46.818233761 0º$GPVTG,337.25,T,,M,0.16,N,0.29,K,D*34
17 36 46.923773687 0195,W,0.16,337.25,061217,,,D*77
17 36 47.029049617 0º$GPGSA,A,3,03,22,23,07,27,09,16,26,30,08,,,1.67,0.86,1.43*0B
17 36 47.149549391 $GPRMC,013632.000,A,3401.8872,N,11725.0195,W,0.11,3.59,061217,,,D*7E
17 36 47.254468324 7
17 36 47.356441287 0º$GPVTG,3.59,T,,M,0.11,N,0.20,K,D*35
17 36 47.461207221 5.0195,W,0.11,3.59,061217,,,D*7E
17 36 47.566533150 7
17 36 47.670544092 0º$GPGSA,A,3,03,22,23,07,27,09,16,26,30,08,,,1.15,0.81,0.82*05
17 36 47.776464015 ,,,D*7E
17 36 47.880985952 7
17 36 47.984715897 0º$GPRMC,013630.000,A,3401.8872,N,11725.0195,W,0.07,8.04,061217,,,D*78
17 36 48.089609830 7
17 36 48.192389785 0º$GPGGA,013631.000,3401.8872,N,11725.0195,W,2,10,0.86,316.0,M,-32.8,M,0000,0000*5A
17 36 48.300327687 $GPGSA,A,3,03,22,23,07,27,09,16,26,30,08,,,1.67,0.86,1.43*0B
17 36 48.405003623 -32.8,M,0000,0000*5A
17 36 48.512956525 $GPGSV,3,1,12,23,75,047,22,09,55,325,22,16,48,056,25,51,48,162,30*74
17 36 48.622812408 0000,0000*5A
17 36 48.732095296 $GPGSV,3,2,12,07,39,273,35,03,37,183,28,22,19,171,27,26,19,042,28*7B
17 36 48.839851200 0000,0000*5A
17 36 48.945063130 $GPGSV,3,3,12,27,18,106,16,30,14,258,25,08,12,141,22,06,03,279,*7E
17 36 49.159295952 B
17 36 49.261615911 0000,0000*5A
17 36 49.365739852 $GPGGA,013635.000,3401.8873,N,11725.0195,W,2,10,0.81,316.0,M,-32.8,M,0000,0000*58
17 36 49.808344351
17 36 49.909891318 $GPGSA,A,3,03,22,23,07,27,09,16,26,30,08,,,1.15,0.81,0.82*05
17 36 50.013998259
17 36 50.124258138 $GPRMC,013635.000,A,3401.8873,N,11725.0195,W,0.14,231.29,061217,,,D*79
17 36 50.227786085
17 36 50.328685059 $GPVTG,231.29,T,,M,0.14,N,0.26,K,D*32
17 36 50.431313015
17 36 50.533967971 $GPRMC,013631.000,A,3401.8872,N,11725.0195,W,0.09,359.00,061217,,,D*74
17 36 50.639015903 $GPVTG,359.00,T,,M,0.09,N,0.17,K,D*38
17 36 50.744355831 $GPVTG,8.04,T,,M,0.07,N,0.13,K,D*31
17 36 50.848180776 8
17 36 50.951316727 $GPGGA,013630.000,3401.8872,N,11725.0195,W,2,10,0.81,316.0,M,-32.8,M,0000,0000*5C
17 36 51.392514240 $GPGGA,013634.000,3401.8873,N,11725.0195,W,2,10,0.81,316.0,M,-32.8,M,0000,0000*59
17 36 51.841205676 $GPGSA,A,3,03,22,23,07,27,09,16,26,30,08,,,1.15,0.81,0.82*05
17 36 51.947296597 ”$GPRMC,013634.000,A,3401.8873,N,11725.0195,W,0.08,325.26,061217,,,D*7E
17 36 52.053423518 0º$GPVTG,325.26,T,,M,0.08,N,0.14,K,D*35
17 36 52.159110443 $GPGGA,013632.000,3401.8872,N,11725.0195,W,2,10,0.86,316.0,M,-32.8,M,0000,0000*59
17 36 52.602493934 $GPGGA,013633.000,3401.8872,N,11725.0195,W,2,10,0.86,316.0,M,-32.8,M,0000,0000*58
17 36 53.046482419 $GPGSA,A,3,03,22,23,07,27,09,16,26,30,08,,,1.67,0.86,1.43*0B
17 36 53.155169313 -32.8,M,0000,0000*58
17 36 53.259765249 $GPRMC,013633.000,A,3401.8872,N,11725.0195,W,0.16,337.25,061217,,,D*77
17 36 53.364559184 00,0000*58
17 36 53.469615115 $GPVTG,337.25,T,,M,0.16,N,0.29,K,D*34
17 36 53.576550028 0195,W,0.16,337.25,061217,,,D*77
17 36 53.682517950 00,0000*58
17 36 53.788342874 $GPGGA,013636.000,3401.8873,N,11725.0195,W,2,10,0.81,316.0,M,-32.8,M,0000,0000*5B
17 36 54.229677385
17 36 54.331654348 $GPGSA,A,3,03,22,23,07,27,09,16,26,30,08,,,1.15,0.81,0.82*05
17 36 54.435657291
17 36 54.538666243 $GPGSV,3,1,12,23,75,047,19,09,55,325,20,16,48,056,23,51,48,162,28*71
17 36 54.648110130
17 36 54.751165082 $GPGSV,3,2,12,07,39,273,33,03,37,183,25,22,19,171,25,26,19,042,26*7C
17 36 54.856840007
17 36 54.959549963 $GPGSV,3,3,12,27,18,106,15,30,14,258,21,08,12,141,22,06,03,279,*79
17 36 55.064602894
17 36 55.169186830 $GPRMC,013636.000,A,3401.8873,N,11725.0195,W,0.19,222.06,061217,,,D*78
17 36 55.273045774
17 36 55.374861739 $GPVTG,222.06,T,,M,0.19,N,0.35,K,D*32
17 36 55.479082679
17 36 55.582192630 $GPGSA,A,3,03,22,23,07,27,09,16,26,30,08,,,1.67,0.86,1.43*0B
17 36 55.688805546 ÿ$GPRMC,013632.000,A,3401.8872,N,11725.0195,W,0.11,3.59,061217,,,D*7E
17 36 55.794593470 $GPVTG,3.59,T,,M,0.11,N,0.20,K,D*35
17 36 55.900637392 $GPGSA,A,3,03,22,23,07,27,09,16,26,30,08,,,1.15,0.81,0.82*05
17 36 56.007193308 $GPRMC,013630.000,A,3401.8872,N,11725.0195,W,0.07,8.04,061217,,,D*78
17 36 56.117426187 $GPGGA,013631.000,3401.8872,N,11725.0195,W,2,10,0.86,316.0,M,-32.8,M,0000,0000*5A
17 36 56.565126634 $GPGSA,A,3,03,22,23,07,27,09,16,26,30,08,,,1.67,0.86,1.43*0B
17 36 56.671228555 $GPGSV,3,1,12,23,75,047,22,09,55,325,22,16,48,056,25,51,48,162,30*74
17 36 56.777503474 000º$GPGSV,3,2,12,07,39,273,35,03,37,183,28,22,19,171,27,26,19,042,28*7B
17 36 56.884075390 000º$GPGSV,3,3,12,27,18,106,16,30,14,258,25,08,12,141,22,06,03,279,*7E
17 36 56.989633316 B
17 36 57.094620249 000º$GPGGA,013635.000,3401.8873,N,11725.0195,W,2,10,0.81,316.0,M,-32.8,M,0000,0000*58
17 36 57.201426162 $GPGGA,013637.000,3401.8872,N,11725.0196,W,2,10,0.81,316.1,M,-32.8,M,0000,0000*59
17 36 57.651845582
17 36 57.754822534 $GPGSA,A,3,03,22,23,07,27,09,16,26,30,08,,,1.15,0.81,0.82*05
17 36 57.860053464
17 36 57.963006417 $GPRMC,013637.000,A,3401.8872,N,11725.0196,W,0.19,218.63,061217,,,D*71
17 36 58.067831351
17 36 58.170040311 $GPVTG,218.63,T,,M,0.19,N,0.35,K,D*38
17 36 58.273867256
17 36 58.375849218 $GPGSA,A,3,03,22,23,07,27,09,16,26,30,08,,,1.15,0.81,0.82*05
17 36 58.481388145 $GPRMC,013635.000,A,3401.8873,N,11725.0195,W,0.14,231.29,061217,,,D*79
17 36 58.587582065 º$GPVTG,231.29,T,,M,0.14,N,0.26,K,D*32
17 36 58.694086982 $GPRMC,013631.000,A,3401.8872,N,11725.0195,W,0.09,359.00,061217,,,D*74
17 36 58.800155903 º$GPVTG,359.00,T,,M,0.09,N,0.17,K,D*38
17 36 58.905922827 0195,W,0.09,359.00,061217,,,D*74
17 36 59.011562753 º$GPVTG,8.04,T,,M,0.07,N,0.13,K,D*31
17 36 59.121117639 8
17 36 59.223175601 0195,W,0.09,359.00,061217,,,D*74
17 36 59.327640539 º$GPGGA,013638.000,3401.8872,N,11725.0196,W,2,10,0.81,316.1,M,-32.8,M,0000,0000*56
17 36 59.432714470
17 36 59.535638423 $GPGSA,A,3,03,22,23,07,27,09,16,26,30,08,,,1.15,0.81,0.82*05
17 36 59.640385358
17 36 59.743915305 $GPRMC,013638.000,A,3401.8872,N,11725.0196,W,0.22,169.92,061217,,,D*7D
17 36 59.848866238
17 36 59.951862190 $GPVTG,169.92,T,,M,0.22,N,0.41,K,D*38
17 37 00.056247129
17 37 00.160544068 $GPGGA,013630.000,3401.8872,N,11725.0195,W,2,10,0.81,316.0,M,-32.8,M,0000,0000*5C
17 37 00.612265474 $GPGGA,013634.000,3401.8873,N,11725.0195,W,2,10,0.81,316.0,M,-32.8,M,0000,0000*59
17 37 01.094608568 ’‰B¼˜$GPGGA,013645.000,3401.8869,N,11725.0195,W,2,10,0.81,316.1,M,-32.8,M,0000,0000*55
17 37 01.200226494
17 37 01.303131448 $GPGSA,A,3,03,22,23,07,27,09,16,26,30,08,,,1.15,0.81,0.82*05
17 37 01.408306378
17 37 01.511169332 $GPRMC,013645.000,A,3401.8869,N,11725.0195,W,0.41,118.26,061217,,,D*72
17 37 01.616363262
17 37 01.719855210 $GPVTG,118.26,T,,M,0.41,N,0.76,K,D*30
17 37 01.825407136
17 37 01.928563087 $GPVTG,231.29,T,,M,0.14,N,0.26,K,D*32
17 37 02.034853006 ÿÿÿÿÿÿÿÿÿÿÿÿÿÿÿÿÿÿÿÿÿÿÿÿ$GPRMC,013631.000,A,3401.8872,N,11725.0195,W,0.09,359.00,061217,,,D*74
17 37 02.146272873 $GPVTG,359.00,T,,M,0.09,N,0.17,K,D*38
17 37 02.252601791 0195,W,0.09,359.00,061217,,,D*74
17 37 02.358348716 $GPVTG,8.04,T,,M,0.07,N,0.13,K,D*31
17 37 02.463848643 8
17 37 02.567529589 0195,W,0.09,359.00,061217,,,D*74
17 37 02.677144474 $GPGGA,013646.000,3401.8868,N,11725.0193,W,2,10,0.81,316.1,M,-32.8,M,0000,0000*51
17 37 02.782817399
17 37 02.886337346 $GPGSA,A,3,03,22,23,07,27,09,16,26,30,08,,,1.15,0.81,0.82*05
17 37 02.991834273
17 37 03.094411230 $GPGSV,3,1,12,23,75,047,16,09,55,325,17,16,48,056,19,51,48,162,28*73
17 37 03.199435162
17 37 03.302583113 $GPGSV,3,2,12,07,39,273,31,03,36,183,24,22,19,171,23,26,19,042,24*7A
17 37 03.407996041
17 37 03.511137992 $GPGSV,3,3,12,27,18,106,14,30,14,258,23,08,12,141,18,06,03,279,*73
17 37 03.620582879
17 37 03.724298824 $GPRMC,013646.000,A,3401.8868,N,11725.0193,W,0.44,116.77,061217,,,D*79
17 37 03.829463755
17 37 03.932673705 $GPVTG,116.77,T,,M,0.44,N,0.82,K,D*34
17 37 04.038162632
17 37 04.141537581 $GPGGA,013638.000,3401.8872,N,11725.0196,W,2,10,0.81,316.1,M,-32.8,M,0000,0000*56
17 37 04.587757043 $GPGSA,A,3,03,22,23,07,27,09,16,26,30,08,,,1.15,0.81,0.82*05
17 37 04.694261959 -32.8,M,0000,0000*56
17 37 04.800276881 $GPRMC,013638.000,A,3401.8872,N,11725.0196,W,0.22,169.92,061217,,,D*7D
17 37 04.906368802 00,0000*56
17 37 05.012123727 $GPVTG,169.92,T,,M,0.22,N,0.41,K,D*38
17 37 05.122444605 0196,W,0.22,169.92,061217,,,D*7D
17 37 05.228190529 00,0000*56
17 37 05.338578407 $GPGGA,013647.000,3401.8868,N,11725.0192,W,2,10,0.81,316.1,M,-32.8,M,0000,0000*51
17 37 05.784503872
17 37 05.887328826 $GPGSA,A,3,03,22,23,07,27,09,16,26,30,08,,,1.15,0.81,0.82*05
17 37 05.992462757
17 37 06.095525709 $GPRMC,013647.000,A,3401.8868,N,11725.0192,W,0.39,116.36,061217,,,D*76
17 37 06.201124635
17 37 06.304750581 $GPVTG,116.36,T,,M,0.39,N,0.73,K,D*35
17 37 06.409572515
17 37 06.512951463 $GPGGA,013630.000,3401.8872,N,11725.0195,W,2,10,0.81,316.0,M,-32.8,M,0000,0000*5C
17 37 06.963982876 $GPGGA,013634.000,3401.8873,N,11725.0195,W,2,10,0.81,316.0,M,-32.8,M,0000,0000*59
17 37 07.408199358 $GPGSA,A,3,03,22,23,07,27,09,16,26,30,08,,,1.15,0.81,0.82*05
17 37 07.514278280 -32.8,M,0000,0000*59
17 37 07.620121203 $GPGGA,013639.000,3401.8871,N,11725.0196,W,2,10,0.81,316.1,M,-32.8,M,0000,0000*54
17 37 08.065929669 $GPGSA,A,3,03,22,23,07,27,09,16,26,30,08,,,1.15,0.81,0.82*05
17 37 08.175815552 -32.8,M,0000,0000*54
17 37 08.282881463 $GPGGA,013648.000,3401.8867,N,11725.0191,W,2,10,0.81,316.1,M,-32.8,M,0000,0000*52
17 37 08.731641899
17 37 08.834852849 $GPGSA,A,3,03,22,23,07,27,09,16,26,30,08,,,1.15,0.81,0.82*05
17 37 08.940007780
17 37 09.044880713 $GPRMC,013648.000,A,3401.8867,N,11725.0191,W,0.40,109.42,061217,,,D*76
17 37 09.150323641
17 37 09.253298594 $GPVTG,109.42,T,,M,0.40,N,0.73,K,D*36
17 37 09.357846530
17 37 09.461398477 $GPRMC,013639.000,A,3401.8871,N,11725.0196,W,0.21,184.64,061217,,,D*76
17 37 09.569399379 $GPVTG,184.64,T,,M,0.21,N,0.38,K,D*3F
17 37 09.679633258 0196,W,0.21,184.64,061217,,,D*76
17 37 09.785982176 $GPRMC,013634.000,A,3401.8873,N,11725.0195,W,0.08,325.26,061217,,,D*7E
17 37 09.892490093 $GPVTG,325.26,T,,M,0.08,N,0.14,K,D*35
17 37 09.998540014 0195,W,0.08,325.26,061217,,,D*7E
17 37 10.104964932 $GPGGA,013632.000,3401.8872,N,11725.0195,W,2,10,0.86,316.0,M,-32.8,M,0000,0000*59
17 37 10.211422849 $GPGGA,013633.000,3401.8872,N,11725.0195,W,2,10,0.86,316.0,M,-32.8,M,0000,0000*58
17 37 10.660502282 $GPGGA,013649.000,3401.8867,N,11725.0190,W,2,10,0.81,316.1,M,-32.8,M,0000,0000*52
17 37 11.109840712
17 37 11.212731666 $GPGSA,A,3,03,22,23,07,27,09,16,26,30,08,,,1.15,0.81,0.82*05
17 37 11.317810597
17 37 11.420476553 $GPRMC,013649.000,A,3401.8867,N,11725.0190,W,0.40,100.40,061217,,,D*7D
17 37 11.525931481
17 37 11.628765435 $GPVTG,100.40,T,,M,0.40,N,0.75,K,D*3B
17 37 11.734220362
17 37 11.837295314 $GPGSA,A,3,03,22,23,07,27,09,16,26,30,08,,,1.67,0.86,1.43*0B
17 37 11.943777231 ÿ$GPRMC,013633.000,A,3401.8872,N,11725.0195,W,0.16,337.25,061217,,,D*77
17 37 12.050281148 $GPGGA,013650.000,3401.8867,N,11725.0188,W,2,09,0.86,316.1,M,-32.8,M,0000,0000*5C
17 37 12.156063072
17 37 12.258939026 $GPGSA,A,3,03,22,23,07,09,16,26,30,08,,,,1.19,0.86,0.83*0A
17 37 12.364141956
17 37 12.467411906 $GPRMC,013650.000,A,3401.8867,N,11725.0188,W,0.35,99.26,061217,,,D*4F
17 37 12.572610836
17 37 12.679896745 $GPVTG,99.26,T,,M,0.35,N,0.65,K,D*09
17 37 12.785079675
17 37 12.888094627 $GPGGA,013640.000,3401.8871,N,11725.0196,W,2,10,0.81,316.1,M,-32.8,M,0000,0000*5A
17 37 13.332657106 $GPGSA,A,3,03,22,23,07,27,09,16,26,30,08,,,1.15,0.81,0.82*05
17 37 13.438477030 -32.8,M,0000,0000*5A
17 37 13.544148955 $GPRMC,013640.000,A,3401.8871,N,11725.0196,W,0.17,171.09,061217,,,D*7C
17 37 13.650064878 b_H/ ·ê?X^}Ôj$GPVTG,171.09,T,,M,0.17,N,0.32,K,D*31
17 37 13.754845812 0196,W,0.17,171.09,061217,,,D*7C
17 37 13.860133742 b_H/ ·ê?X^}Ôj$GPVTG,337.25,T,,M,0.16,N,0.29,K,D*34
17 37 13.965036675 0196,W,0.17,171.09,061217,,,D*7C
17 37 14.070841599 b_H/ ·ê?X^}Ôj$GPGGA,013651.000,3401.8867,N,11725.0187,W,2,09,0.86,316.1,M,-32.8,M,0000,0000*52
17 37 14.179344495
17 37 14.280852463 $GPGSA,A,3,03,22,23,07,09,16,26,30,08,,,,1.19,0.86,0.83*0A
17 37 14.385141402
17 37 14.487620360 $GPGSV,3,1,12,23,75,047,17,09,55,325,18,16,48,056,22,51,48,162,28*75
17 37 14.592591292
17 37 14.695807243 $GPGSV,3,2,12,07,39,273,31,03,36,183,23,22,19,171,23,26,19,042,24*7D
17 37 14.800699176
17 37 14.903846127 $GPGSV,3,3,12,27,18,106,,30,14,258,23,08,12,141,20,06,03,279,*7D
17 37 15.008481063
17 37 15.111621014 $GPRMC,013651.000,A,3401.8867,N,11725.0187,W,0.33,103.20,061217,,,D*73
17 37 15.216838944
17 37 15.318176913 $GPVTG,103.20,T,,M,0.33,N,0.62,K,D*3C
17 37 15.421334864
17 37 15.524577814 $GPGGA,013636.000,3401.8873,N,11725.0195,W,2,10,0.81,316.0,M,-32.8,M,0000,0000*5B
17 37 15.975569227 $GPGSA,A,3,03,22,23,07,27,09,16,26,30,08,,,1.15,0.81,0.82*05
17 37 16.080502160 -32.8,M,0000,0000*5B
17 37 16.184970098 $GPGSV,3,1,12,23,75,047,19,09,55,325,20,16,48,056,23,51,48,162,28*71
17 37 16.289632033 0000,0000*5B
17 37 16.394230970 $GPGSV,3,2,12,07,39,273,33,03,37,183,25,22,19,171,25,26,19,042,26*7C
17 37 16.510144791 0000,0000*5B
17 37 16.618138692 $GPGGA,013652.000,3401.8866,N,11725.0186,W,2,09,0.86,316.1,M,-32.8,M,0000,0000*51
17 37 17.072680070
17 37 17.187712900 $GPGSA,A,3,03,22,23,07,09,16,26,30,08,,,,1.19,0.86,0.83*0A
17 37 17.300408754
17 37 17.413607602 $GPRMC,013652.000,A,3401.8866,N,11725.0186,W,0.21,129.23,061217,,,D*78
17 37 17.527907440
17 37 17.631111390 $GPVTG,129.23,T,,M,0.21,N,0.39,K,D*3A
17 37 17.742582257
17 37 17.851076153 $GPGGA,013641.000,3401.8870,N,11725.0196,W,2,10,0.81,316.1,M,-32.8,M,0000,0000*5A
17 37 18.316451420 $GPGSA,A,3,03,22,23,07,27,09,16,26,30,08,,,1.15,0.81,0.82*05
17 37 18.422020347 -32.8,M,0000,0000*5A
17 37 18.529558253 $GPGGA,013653.000,3401.8866,N,11725.0186,W,2,09,0.86,316.1,M,-32.8,M,0000,0000*50
17 37 18.982588646
17 37 19.085333601 $GPGSA,A,3,03,22,23,07,09,16,26,30,08,,,,1.19,0.86,0.83*0A
17 37 19.200745427
17 37 19.302570392 $GPRMC,013653.000,A,3401.8866,N,11725.0186,W,0.13,147.37,061217,,,D*75
17 37 19.412822270
17 37 19.515768223 $GPVTG,147.37,T,,M,0.13,N,0.24,K,D*3A
17 37 19.620736156
17 37 19.727273072 $GPGSV,3,1,12,23,75,047,18,09,55,325,19,16,48,056,20,51,48,162,28*79
17 37 19.834920977 $GPGSV,3,2,12,07,39,273,31,03,36,183,24,22,19,171,23,26,19,042,24*7A
17 37 19.942046888 $GPGSV,3,3,12,27,18,106,12,30,14,258,22,08,12,141,22,06,03,279,*7D
17 37 20.047029820 A
17 37 20.156346709 $GPRMC,013641.000,A,3401.8870,N,11725.0196,W,0.12,153.86,061217,,,D*7E
17 37 20.261656638 $GPVTG,153.86,T,,M,0.12,N,0.22,K,D*32
17 37 20.370379532 0196,W,0.12,153.86,061217,,,D*7E
17 37 20.484617370 $GPGGA,013654.000,3401.8866,N,11725.0186,W,2,09,0.86,316.1,M,-32.8,M,0000,0000*57
17 37 20.593078267
17 37 20.696162219 $GPGSA,A,3,03,22,23,07,09,16,26,30,08,,,,1.19,0.86,0.83*0A
17 37 20.800789154
17 37 20.904405101 $GPRMC,013654.000,A,3401.8866,N,11725.0186,W,0.19,172.96,061217,,,D*75
17 37 21.012184005
17 37 21.117010938 $GPVTG,172.96,T,,M,0.19,N,0.34,K,D*3C
17 37 21.230189787
17 37 21.331938753 $GPGSV,3,3,12,27,18,106,15,30,14,258,21,08,12,141,22,06,03,279,*79
17 37 21.437502679 $GPRMC,013636.000,A,3401.8873,N,11725.0195,W,0.19,222.06,061217,,,D*78
17 37 21.543630600 $GPVTG,222.06,T,,M,0.19,N,0.35,K,D*32
17 37 21.653482482 0195,W,0.19,222.06,061217,,,D*78
17 37 21.761793381 $GPGSA,A,3,03,22,23,07,27,09,16,26,30,08,,,1.67,0.86,1.43*0B
17 37 21.868108300 17,,,D*78
17 37 21.973323230 $GPGGA,013655.000,3401.8865,N,11725.0185,W,2,09,0.86,316.1,M,-32.8,M,0000,0000*56
17 37 22.078715158
17 37 22.181671111 $GPGSA,A,3,03,22,23,07,09,16,26,30,08,,,,1.19,0.86,0.83*0A
17 37 22.285785052
17 37 22.394898942 $GPRMC,013655.000,A,3401.8865,N,11725.0185,W,0.27,186.39,061217,,,D*77
17 37 22.504591827
17 37 22.607434781 $GPVTG,186.39,T,,M,0.27,N,0.50,K,D*3D
17 37 22.712439713
17 37 22.817461645 $GPGGA,013642.000,3401.8870,N,11725.0196,W,2,10,0.81,316.1,M,-32.8,M,0000,0000*59
17 37 23.277585965 $GPGSA,A,3,03,22,23,07,27,09,16,26,30,08,,,1.15,0.81,0.82*05
17 37 23.387579847 -32.8,M,0000,0000*59
17 37 23.494402760 $GPRMC,013642.000,A,3401.8870,N,11725.0196,W,0.11,175.16,061217,,,D*73
17 37 23.600288683 00,0000*59
17 37 23.707154596 $GPVTG,175.16,T,,M,0.11,N,0.20,K,D*3E
17 37 23.820261446 0196,W,0.11,175.16,061217,,,D*73
17 37 23.927050360 00,0000*59
17 37 24.039846213 $GPRMC,013632.000,A,3401.8872,N,11725.0195,W,0.11,3.59,061217,,,D*7E
17 37 24.159063000 3
17 37 24.266555907 00,0000*59
17 37 24.371486840 $GPVTG,3.59,T,,M,0.11,N,0.20,K,D*35
17 37 24.477435763 5.0195,W,0.11,3.59,061217,,,D*7E
17 37 24.582005699 3
17 37 24.692356577 00,0000*59
17 37 24.798390498 $GPGGA,013656.000,3401.8864,N,11725.0186,W,2,09,0.86,316.1,M,-32.8,M,0000,0000*57
17 37 25.237807030
17 37 25.339816992 $GPGSA,A,3,03,22,23,07,09,16,26,30,08,,,,1.19,0.86,0.83*0A
17 37 25.445054922
17 37 25.547916876 $GPGSV,3,1,12,23,75,047,16,09,55,325,17,16,48,055,22,51,48,162,28*78
17 37 25.653450802
17 37 25.756580754 $GPGSV,3,2,12,07,39,273,30,03,36,183,20,22,19,171,22,26,19,042,24*7E
17 37 25.861024691
17 37 25.963763647 $GPGSV,3,3,12,27,18,106,,30,14,258,22,08,12,141,20,06,03,279,*7C
17 37 26.068697579
17 37 26.178120466 $GPRMC,013656.000,A,3401.8864,N,11725.0186,W,0.33,186.51,061217,,,D*7D
17 37 26.282033410
17 37 26.384725365 $GPVTG,186.51,T,,M,0.33,N,0.61,K,D*34
17 37 26.489680298
17 37 26.592808249 $GPGSA,A,3,03,22,23,07,27,09,16,26,30,08,,,1.15,0.81,0.82*05
17 37 26.698850171 ÿ$GPRMC,013630.000,A,3401.8872,N,11725.0195,W,0.07,8.04,061217,,,D*78
17 37 26.805219089 $GPGGA,013631.000,3401.8872,N,11725.0195,W,2,10,0.86,316.0,M,-32.8,M,0000,0000*5A
17 37 27.251315552 $GPGSA,A,3,03,22,23,07,27,09,16,26,30,08,,,1.67,0.86,1.43*0B
17 37 27.356311484 -32.8,M,0000,0000*5A
17 37 27.462043409 $GPGGA,013643.000,3401.8870,N,11725.0196,W,2,10,0.81,316.1,M,-32.8,M,0000,0000*58
17 37 27.909645857 $GPGGA,013657.000,3401.8863,N,11725.0186,W,2,09,0.86,316.1,M,-32.8,M,0000,0000*51
17 37 28.350020378
17 37 28.452731333 $GPGSA,A,3,03,22,23,07,09,16,26,30,08,,,,1.19,0.86,0.83*0A
17 37 28.557779265
17 37 28.661239213 $GPRMC,013657.000,A,3401.8863,N,11725.0186,W,0.36,168.43,061217,,,D*7D
17 37 28.766552142
17 37 28.869071099 $GPVTG,168.43,T,,M,0.36,N,0.66,K,D*35
17 37 28.972562047
17 37 29.074420011 $GPGSA,A,3,03,22,23,07,27,09,16,26,30,08,,,1.15,0.81,0.82*05
17 37 29.183708899 ÿ$GPRMC,013643.000,A,3401.8870,N,11725.0196,W,0.12,135.72,061217,,,D*77
17 37 29.288884830 $GPVTG,135.72,T,,M,0.12,N,0.22,K,D*39
17 37 29.397075729 0196,W,0.12,135.72,061217,,,D*77
17 37 29.502920653 $GPGSV,3,1,12,23,75,047,22,09,55,325,22,16,48,056,25,51,48,162,30*74
17 37 29.610952554 7
17 37 29.715127495 $GPGSV,3,2,12,07,39,273,35,03,37,183,28,22,19,171,27,26,19,042,28*7B
17 37 29.820764420 7
17 37 29.925110359 $GPGGA,013658.000,3401.8862,N,11725.0185,W,2,09,0.86,316.1,M,-32.8,M,0000,0000*5C
17 37 30.030465288
17 37 30.134613229 $GPGSA,A,3,03,22,23,07,09,16,26,30,08,,,,1.19,0.86,0.83*0A
17 37 30.239627161
17 37 30.341098129 $GPRMC,013658.000,A,3401.8862,N,11725.0185,W,0.37,170.90,061217,,,D*76
17 37 30.445137070
17 37 30.547895025 $GPVTG,170.90,T,,M,0.37,N,0.68,K,D*3D
17 37 30.657468911
17 37 30.760832860 $GPGSV,3,3,12,27,18,106,16,30,14,258,25,08,12,141,22,06,03,279,*7E
17 37 30.867337777 $GPGGA,013635.000,3401.8873,N,11725.0195,W,2,10,0.81,316.0,M,-32.8,M,0000,0000*58
17 37 30.974280689 $GPGGA,013637.000,3401.8872,N,11725.0196,W,2,10,0.81,316.1,M,-32.8,M,0000,0000*59
17 37 31.419071165 $GPGSA,A,3,03,22,23,07,27,09,16,26,30,08,,,1.15,0.81,0.82*05
17 37 31.524919089 -32.8,M,0000,0000*59
17 37 31.630544015 $GPGGA,013644.000,3401.8869,N,11725.0195,W,2,10,0.81,316.1,M,-32.8,M,0000,0000*54
17 37 32.075760487 $GPGGA,013659.000,3401.8861,N,11725.0185,W,2,09,0.86,316.1,M,-32.8,M,0000,0000*5E
17 37 32.521410955
17 37 32.624359908 $GPGSA,A,3,03,22,23,07,09,16,26,30,08,,,,1.19,0.86,0.83*0A
17 37 32.729374840
17 37 32.832706789 $GPRMC,013659.000,A,3401.8861,N,11725.0185,W,0.37,154.18,061217,,,D*72
17 37 32.938613712
17 37 33.040345677 $GPVTG,154.18,T,,M,0.37,N,0.69,K,D*3A
17 37 33.143913624
17 37 33.245736588 $GPGSA,A,3,03,22,23,07,27,09,16,26,30,08,,,1.15,0.81,0.82*05
17 37 33.350656521 ÿ$GPRMC,013644.000,A,3401.8869,N,11725.0195,W,0.28,117.38,061217,,,D*7C
17 37 33.456260447 $GPVTG,117.38,T,,M,0.28,N,0.52,K,D*39
17 37 33.561648375 0195,W,0.28,117.38,061217,,,D*7C
17 37 33.671952253 $GPRMC,013637.000,A,3401.8872,N,11725.0196,W,0.19,218.63,061217,,,D*71
17 37 33.777827177 $GPVTG,218.63,T,,M,0.19,N,0.35,K,D*38
17 37 33.883691100 0196,W,0.19,218.63,061217,,,D*71
17 37 33.989566023 $GPGGA,013700.000,3401.8860,N,11725.0185,W,2,09,0.86,316.1,M,-32.8,M,0000,0000*52
17 37 34.094714954
17 37 34.197482909 $GPGSA,A,3,03,22,23,07,09,16,26,30,08,,,,1.19,0.86,0.83*0A
17 37 34.301786848
17 37 34.403716811 $GPRMC,013700.000,A,3401.8860,N,11725.0185,W,0.40,147.29,061217,,,D*7E
17 37 34.508844742
17 37 34.611905694 $GPVTG,147.29,T,,M,0.40,N,0.74,K,D*36
17 37 34.716702628
17 37 34.819770580 $GPGSA,A,3,03,22,23,07,27,09,16,26,30,08,,,1.15,0.81,0.82*05
17 37 34.925439505 ÿ$GPGSA,A,3,03,22,23,07,27,09,16,26,30,08,,,1.15,0.81,0.82*05
17 37 35.031563426 .0195,W,2,10,0.81,316.1,M,-32.8,M,0000,0000*55
17 37 35.140561318 !†L8ç–BÁQAÐëQÁ$GPRMC,013645.000,A,3401.8869,N,11725.0195,W,0.41,118.26,061217,,,D*72
17 37 35.245895246 10,0.81,316.1,M,-32.8,M,0000,0000*55
17 37 35.351186175 !†L8ç–BÁQAÐëQÁ$GPVTG,118.26,T,,M,0.41,N,0.76,K,D*30
17 37 35.456724102 0195,W,0.41,118.26,061217,,,D*72
17 37 35.562145030 10,0.81,316.1,M,-32.8,M,0000,0000*55
17 37 35.668301950 !†L8ç–BÁQAÐëQÁ$GPVTG,231.29,T,,M,0.14,N,0.26,K,D*32
17 37 35.774376872 0195,W,0.41,118.26,061217,,,D*72
17 37 35.879548802 10,0.81,316.1,M,-32.8,M,0000,0000*55
17 37 35.985539724 !†L8ç–BÁQAÐëQÁ$GPRMC,013631.000,A,3401.8872,N,11725.0195,W,0.09,359.00,061217,,,D*74
17 37 36.091539646 10,0.81,316.1,M,-32.8,M,0000,0000*55
17 37 36.197884564 !†L8ç–BÁQAÐëQÁ$GPGGA,013701.000,3401.8859,N,11725.0184,W,2,09,0.86,316.1,M,-32.8,M,0000,0000*58
17 37 36.302150504
17 37 36.404046468 $GPGSA,A,3,03,22,23,07,09,16,26,30,08,,,,1.19,0.86,0.83*0A
17 37 36.512126369
17 37 36.615633316 $GPGSV,3,1,12,23,75,048,17,09,55,325,14,16,48,055,22,51,48,162,29*74
17 37 36.725199202
17 37 36.828397152 $GPGSV,3,2,12,07,39,273,32,03,36,183,22,26,19,042,24,22,18,171,21*7C
17 37 36.933316085
17 37 37.036364037 $GPGSV,3,3,12,27,18,106,,30,14,258,21,08,12,141,18,06,03,279,*74
17 37 37.141504968
17 37 37.247639888 $GPRMC,013701.000,A,3401.8859,N,11725.0184,W,0.42,147.20,061217,,,D*7F
17 37 37.352820819
17 37 37.455342776 $GPVTG,147.20,T,,M,0.42,N,0.78,K,D*31
17 37 37.559900713
17 37 37.663043664 $GPVTG,359.00,T,,M,0.09,N,0.17,K,D*38
17 37 37.769343583 ÿÿÿÿÿÿÿÿÿÿÿÿÿÿÿÿÿÿÿÿÿÿÿÿ$GPVTG,8.04,T,,M,0.07,N,0.13,K,D*31
17 37 37.875428504 8
17 37 37.979678443 ÿÿÿÿÿÿÿÿÿÿÿÿÿÿÿÿÿÿÿÿÿÿÿÿ$GPGGA,013646.000,3401.8868,N,11725.0193,W,2,10,0.81,316.1,M,-32.8,M,0000,0000*51
17 37 38.087060351 $GPGSA,A,3,03,22,23,07,27,09,16,26,30,08,,,1.15,0.81,0.82*05
17 37 38.198157221 -32.8,M,0000,0000*51
17 37 38.303225153 $GPGSV,3,1,12,23,75,047,16,09,55,325,17,16,48,056,19,51,48,162,28*73
17 37 38.408384083 0000,0000*51
17 37 38.513615013 $GPGSV,3,2,12,07,39,273,31,03,36,183,24,22,19,171,23,26,19,042,24*7A
17 37 38.619435937 0000,0000*51
17 37 38.725555858 $GPGSV,3,3,12,27,18,106,14,30,14,258,23,08,12,141,18,06,03,279,*73
17 37 38.830712788 A
17 37 38.934168736 0000,0000*51
17 37 39.039274667 $GPRMC,013646.000,A,3401.8868,N,11725.0193,W,0.44,116.77,061217,,,D*79
17 37 39.143638606 00,0000*51
17 37 39.248278542 $GPVTG,116.77,T,,M,0.44,N,0.82,K,D*34
17 37 39.352426482 0193,W,0.44,116.77,061217,,,D*79
17 37 39.457623413 00,0000*51
17 37 39.563406337 $GPGGA,013638.000,3401.8872,N,11725.0196,W,2,10,0.81,316.1,M,-32.8,M,0000,0000*56
17 37 40.011981775 $GPGSA,A,3,03,22,23,07,27,09,16,26,30,08,,,1.15,0.81,0.82*05
17 37 40.116556711 -32.8,M,0000,0000*56
17 37 40.220775651 $GPRMC,013638.000,A,3401.8872,N,11725.0196,W,0.22,169.92,061217,,,D*7D
17 37 40.325680584 00,0000*56
17 37 40.430156522 $GPVTG,169.92,T,,M,0.22,N,0.41,K,D*38
17 37 40.535621449 0196,W,0.22,169.92,061217,,,D*7D
17 37 40.640577382 00,0000*56
17 37 40.746380306 $GPGGA,013702.000,3401.8858,N,11725.0183,W,2,09,0.86,316.1,M,-32.8,M,0000,0000*5D
17 37 41.195237741
17 37 41.297195704 $GPGSA,A,3,03,22,23,07,09,16,26,30,08,,,,1.19,0.86,0.83*0A
17 37 41.401995638
17 37 41.508243558 $GPRMC,013702.000,A,3401.8858,N,11725.0183,W,0.51,138.07,061217,,,D*75
17 37 41.613238490
17 37 41.718155423 $GPVTG,138.07,T,,M,0.51,N,0.94,K,D*3C
17 37 41.823311353
17 37 41.926434305 $GPGGA,013647.000,3401.8868,N,11725.0192,W,2,10,0.81,316.1,M,-32.8,M,0000,0000*51
17 37 42.369581798 $GPGSA,A,3,03,22,23,07,27,09,16,26,30,08,,,1.15,0.81,0.82*05
17 37 42.475372722 -32.8,M,0000,0000*51
17 37 42.580929648 $GPRMC,013647.000,A,3401.8868,N,11725.0192,W,0.39,116.36,061217,,,D*76
17 37 42.691310526 00,0000*51
17 37 42.796565455 $GPVTG,116.36,T,,M,0.39,N,0.73,K,D*35
17 37 42.902131382 0192,W,0.39,116.36,061217,,,D*76
17 37 43.006734318 00,0000*51
17 37 43.111258255 $GPGGA,013630.000,3401.8872,N,11725.0195,W,2,10,0.81,316.0,M,-32.8,M,0000,0000*5C
17 37 43.553017762 $GPGGA,013634.000,3401.8873,N,11725.0195,W,2,10,0.81,316.0,M,-32.8,M,0000,0000*59
17 37 43.998542231 $GPGSA,A,3,03,22,23,07,27,09,16,26,30,08,,,1.15,0.81,0.82*05
17 37 44.104232156 -32.8,M,0000,0000*59
17 37 44.212603054 $GPGGA,013639.000,3401.8871,N,11725.0196,W,2,10,0.81,316.1,M,-32.8,M,0000,0000*54
17 37 44.657356531 $GPGSA,A,3,03,22,23,07,27,09,16,26,30,08,,,1.15,0.81,0.82*05
17 37 44.763000456 -32.8,M,0000,0000*54
17 37 44.869273376 $GPGGA,013648.000,3401.8867,N,11725.0191,W,2,10,0.81,316.1,M,-32.8,M,0000,0000*52
17 37 45.310945884 $GPGSA,A,3,03,22,23,07,27,09,16,26,30,08,,,1.15,0.81,0.82*05
17 37 45.416634809 -32.8,M,0000,0000*52
17 37 45.523142726 $GPRMC,013648.000,A,3401.8867,N,11725.0191,W,0.40,109.42,061217,,,D*76
17 37 45.629078648 00,0000*52
17 37 45.740469515 $GPGGA,013703.000,3401.8857,N,11725.0182,W,2,09,0.86,316.1,M,-32.8,M,0000,0000*52
17 37 46.182074024
17 37 46.284289985 $GPGSA,A,3,03,22,23,07,09,16,26,30,08,,,,1.19,0.86,0.83*0A
17 37 46.389313917
17 37 46.492595866 $GPRMC,013703.000,A,3401.8857,N,11725.0182,W,0.53,134.94,061217,,,D*7E
17 37 46.599336781
17 37 46.702235734 $GPVTG,134.94,T,,M,0.53,N,0.98,K,D*34
17 37 46.808872650
17 37 46.911874602 $GPVTG,109.42,T,,M,0.40,N,0.73,K,D*36
17 37 47.018265520 ÿÿÿÿÿÿÿÿÿÿÿÿÿÿÿÿÿÿÿÿÿÿÿÿ$GPRMC,013639.000,A,3401.8871,N,11725.0196,W,0.21,184.64,061217,,,D*76
17 37 47.124782437 $GPVTG,184.64,T,,M,0.21,N,0.38,K,D*3F
17 37 47.234103325 0196,W,0.21,184.64,061217,,,D*76
17 37 47.339156257 $GPRMC,013634.000,A,3401.8873,N,11725.0195,W,0.08,325.26,061217,,,D*7E
17 37 47.445489175 $GPVTG,325.26,T,,M,0.08,N,0.14,K,D*35
17 37 47.552115091 0195,W,0.08,325.26,061217,,,D*7E
17 37 47.658468009 $GPGGA,013632.000,3401.8872,N,11725.0195,W,2,10,0.86,316.0,M,-32.8,M,0000,0000*59
17 37 47.765148924 $GPGGA,013633.000,3401.8872,N,11725.0195,W,2,10,0.86,316.0,M,-32.8,M,0000,0000*58
17 37 48.209088409 $GPGGA,013649.000,3401.8867,N,11725.0190,W,2,10,0.81,316.1,M,-32.8,M,0000,0000*52
17 37 48.659688827 $GPGSA,A,3,03,22,23,07,27,09,16,26,30,08,,,1.15,0.81,0.82*05
17 37 48.767421731 -32.8,M,0000,0000*52
17 37 48.872886658 $GPRMC,013649.000,A,3401.8867,N,11725.0190,W,0.40,100.40,061217,,,D*7D
17 37 48.977476595 00,0000*52
17 37 49.081927532 $GPVTG,100.40,T,,M,0.40,N,0.75,K,D*3B
17 37 49.186477469 0190,W,0.40,100.40,061217,,,D*7D
17 37 49.291801398 00,0000*52
17 37 49.397101327 $GPGSA,A,3,03,22,23,07,27,09,16,26,30,08,,,1.67,0.86,1.43*0B
17 37 49.505517224 17,,,D*7D
17 37 49.611181150 00,0000*52
17 37 49.717193072 $GPRMC,013633.000,A,3401.8872,N,11725.0195,W,0.16,337.25,061217,,,D*77
17 37 49.823047995 00,0000*52
17 37 49.927688931 $GPGGA,013704.000,3401.8856,N,11725.0181,W,2,10,0.81,316.1,M,-32.8,M,0000,0000*58
17 37 50.372936403
17 37 50.475826356 $GPGSA,A,3,03,22,23,07,27,09,16,26,30,08,,,1.15,0.81,0.82*05
17 37 50.580796289
17 37 50.684303236 $GPRMC,013704.000,A,3401.8856,N,11725.0181,W,0.53,129.61,061217,,,D*7D
17 37 50.789481166
17 37 50.891797126 $GPVTG,129.61,T,,M,0.53,N,0.98,K,D*32
17 37 50.996665059
17 37 51.099334015 $GPGGA,013650.000,3401.8867,N,11725.0188,W,2,09,0.86,316.1,M,-32.8,M,0000,0000*5C
17 37 51.544092492 $GPGSA,A,3,03,22,23,07,09,16,26,30,08,,,,1.19,0.86,0.83*0A
17 37 51.654625368 M,-32.8,M,0000,0000*5C
17 37 51.760368292 $GPRMC,013650.000,A,3401.8867,N,11725.0188,W,0.35,99.26,061217,,,D*4F
17 37 51.866447214 000,0000*5C
17 37 51.971948141 $GPVTG,99.26,T,,M,0.35,N,0.65,K,D*09
17 37 52.077610066 .0188,W,0.35,99.26,061217,,,D*4F
17 37 52.182536999 000,0000*5C
17 37 52.287255934 $GPGGA,013640.000,3401.8871,N,11725.0196,W,2,10,0.81,316.1,M,-32.8,M,0000,0000*5A
17 37 52.737984350 $GPGSA,A,3,03,22,23,07,27,09,16,26,30,08,,,1.15,0.81,0.82*05
17 37 52.843143280 -32.8,M,0000,0000*5A
17 37 52.948272211 $GPRMC,013640.000,A,3401.8871,N,11725.0196,W,0.17,171.09,061217,,,D*7C
17 37 53.054031136 00,0000*5A
17 37 53.162360034 $GPVTG,171.09,T,,M,0.17,N,0.32,K,D*31
17 37 53.266419976 0196,W,0.17,171.09,061217,,,D*7C
17 37 53.372609896 00,0000*5A
17 37 53.478403820 $GPVTG,337.25,T,,M,0.16,N,0.29,K,D*34
17 37 53.586247723 0196,W,0.17,171.09,061217,,,D*7C
17 37 53.691848649 00,0000*5A
17 37 53.797826571 $GPGGA,013651.000,3401.8867,N,11725.0187,W,2,09,0.86,316.1,M,-32.8,M,0000,0000*52
17 37 54.240470070 $GPGSA,A,3,03,22,23,07,09,16,26,30,08,,,,1.19,0.86,0.83*0A
17 37 54.345593000 M,-32.8,M,0000,0000*52
17 37 54.451105927 $GPGSV,3,1,12,23,75,047,17,09,55,325,18,16,48,056,22,51,48,162,28*75
17 37 54.557517845 0000,0000*52
17 37 54.667571726 $GPGGA,013705.000,3401.8855,N,11725.0179,W,2,10,0.81,316.1,M,-32.8,M,0000,0000*5D
17 37 55.111032216
17 37 55.212750181 $GPGSA,A,3,03,22,23,07,27,09,16,26,30,08,,,1.15,0.81,0.82*05
17 37 55.316359128
17 37 55.418353090 $GPRMC,013705.000,A,3401.8855,N,11725.0179,W,0.46,129.59,061217,,,D*77
17 37 55.523680019
17 37 55.626842970 $GPVTG,129.59,T,,M,0.46,N,0.85,K,D*31
17 37 55.731550905
17 37 55.834613857 $GPGSV,3,2,12,07,39,273,31,03,36,183,23,22,19,171,23,26,19,042,24*7D
17 37 55.940083784 $GPGSV,3,3,12,27,18,106,,30,14,258,23,08,12,141,20,06,03,279,*7D
17 37 56.045773709 *7D
17 37 56.154750601 $GPRMC,013651.000,A,3401.8867,N,11725.0187,W,0.33,103.20,061217,,,D*73
17 37 56.260069530 $GPVTG,103.20,T,,M,0.33,N,0.62,K,D*3C
17 37 56.364863464 0187,W,0.33,103.20,061217,,,D*73
17 37 56.474146353 $GPGGA,013636.000,3401.8873,N,11725.0195,W,2,10,0.81,316.0,M,-32.8,M,0000,0000*5B
17 37 56.580343273 $GPGSA,A,3,03,22,23,07,27,09,16,26,30,08,,,1.15,0.81,0.82*05
17 37 56.689597162 -32.8,M,0000,0000*5B
17 37 56.795117089 $GPGSV,3,1,12,23,75,047,19,09,55,325,20,16,48,056,23,51,48,162,28*71
17 37 56.900664015 0000,0000*5B
17 37 57.006590938 $GPGSV,3,2,12,07,39,273,33,03,37,183,25,22,19,171,25,26,19,042,26*7C
17 37 57.113327852 0000,0000*5B
17 37 57.218794780 $GPGGA,013652.000,3401.8866,N,11725.0186,W,2,09,0.86,316.1,M,-32.8,M,0000,0000*51
17 37 57.668308208 $GPGSA,A,3,03,22,23,07,09,16,26,30,08,,,,1.19,0.86,0.83*0A
17 37 57.774071132 M,-32.8,M,0000,0000*51
17 37 57.880162053 $GPRMC,013652.000,A,3401.8866,N,11725.0186,W,0.21,129.23,061217,,,D*78
17 37 57.986059976 00,0000*51
17 37 58.092347896 $GPVTG,129.23,T,,M,0.21,N,0.39,K,D*3A
17 37 58.196805833 0186,W,0.21,129.23,061217,,,D*78
17 37 58.301213771 00,0000*51
17 37 58.406347702 $GPGGA,013641.000,3401.8870,N,11725.0196,W,2,10,0.81,316.1,M,-32.8,M,0000,0000*5A
17 37 58.851506175 $GPGSA,A,3,03,22,23,07,27,09,16,26,30,08,,,1.15,0.81,0.82*05
17 37 58.956480107 -32.8,M,0000,0000*5A
17 37 59.061795036 $GPGGA,013706.000,3401.8854,N,11725.0178,W,2,10,0.81,316.1,M,-32.8,M,0000,0000*5E
17 37 59.507412504
17 37 59.610675454 $GPGSA,A,3,03,22,23,07,27,09,16,26,30,08,,,1.15,0.81,0.82*05
17 37 59.715544387
17 37 59.817454351 $GPGSV,3,1,12,23,75,048,14,09,55,325,14,16,48,055,21,51,48,162,30*7C
17 37 59.922060287
17 38 00.023655254 $GPGSV,3,2,12,07,39,273,32,03,36,183,22,26,19,042,25,22,18,171,21*7D
17 38 00.127751195
17 38 00.229824157 $GPGSV,3,3,12,27,18,105,17,30,14,258,24,08,12,141,21,06,03,279,*7E
17 38 00.333698101
17 38 00.436134059 $GPRMC,013706.000,A,3401.8854,N,11725.0178,W,0.38,130.26,061217,,,D*7D
17 38 00.541338989
17 38 00.644739937 $GPVTG,130.26,T,,M,0.38,N,0.71,K,D*33
17 38 00.753820828
17 38 00.857014779 $GPGGA,013653.000,3401.8866,N,11725.0186,W,2,09,0.86,316.1,M,-32.8,M,0000,0000*50
17 38 01.335543912 $GPGSA,A,3,03,22,23,07,09,16,26,30,08,,,,1.19,0.86,0.83*0A
17 38 01.440962840 M,-32.8,M,0000,0000*50
17 38 01.548616745 $GPRMC,013653.000,A,3401.8866,N,11725.0186,W,0.13,147.37,061217,,,D*75
17 38 01.655017663 00,0000*50
17 38 01.764178553 $GPVTG,147.37,T,,M,0.13,N,0.24,K,D*3A
17 38 01.869605480 0186,W,0.13,147.37,061217,,,D*75
17 38 01.974534413 00,0000*50
17 38 02.080028340 $GPGSV,3,1,12,23,75,047,18,09,55,325,19,16,48,056,20,51,48,162,28*79
17 38 02.189094231 5
17 38 02.291178193 00,0000*50
17 38 02.397500112 $GPGSV,3,2,12,07,39,273,31,03,36,183,24,22,19,171,23,26,19,042,24*7A
17 38 02.502526044 5
17 38 02.605836993 00,0000*50
17 38 02.710895924 $GPGSV,3,3,12,27,18,106,12,30,14,258,22,08,12,141,22,06,03,279,*7D
17 38 02.815896857 A
17 38 02.917894819 5
17 38 03.020190779 00,0000*50
17 38 03.125305710 $GPRMC,013641.000,A,3401.8870,N,11725.0196,W,0.12,153.86,061217,,,D*7E
17 38 03.229818647 00,0000*50
17 38 03.333933588 $GPVTG,153.86,T,,M,0.12,N,0.22,K,D*32
17 38 03.438998520 0196,W,0.12,153.86,061217,,,D*7E
17 38 03.544161450 00,0000*50
17 38 03.649904375 $GPGGA,013654.000,3401.8866,N,11725.0186,W,2,09,0.86,316.1,M,-32.8,M,0000,0000*57
17 38 04.097738820 $GPGSA,A,3,03,22,23,07,09,16,26,30,08,,,,1.19,0.86,0.83*0A
17 38 04.202772752 M,-32.8,M,0000,0000*57
17 38 04.307570686 $GPRMC,013654.000,A,3401.8866,N,11725.0186,W,0.19,172.96,061217,,,D*75
17 38 04.412901615 00,0000*57
17 38 04.518241544 $GPGGA,013707.000,3401.8854,N,11725.0177,W,2,10,0.81,316.1,M,-32.8,M,0000,0000*50
17 38 04.961346037
17 38 05.063352000 $GPGSA,A,3,03,22,23,07,27,09,16,26,30,08,,,1.15,0.81,0.82*05
17 38 05.171768897
17 38 05.273757860 $GPRMC,013707.000,A,3401.8854,N,11725.0177,W,0.37,147.85,061217,,,D*75
17 38 05.378572794
17 38 05.481562746 $GPVTG,147.85,T,,M,0.37,N,0.68,K,D*3D
17 38 05.586735677
17 38 05.690018626 $GPVTG,172.96,T,,M,0.19,N,0.34,K,D*3C
17 38 05.796744541 ÿÿÿÿÿÿÿÿÿÿÿÿÿÿÿÿÿÿÿÿÿÿÿÿ$GPGSV,3,3,12,27,18,106,15,30,14,258,21,08,12,141,22,06,03,279,*79
17 38 05.904395446 $GPRMC,013636.000,A,3401.8873,N,11725.0195,W,0.19,222.06,061217,,,D*78
17 38 06.010810364 $GPGGA,013708.000,3401.8853,N,11725.0177,W,2,10,0.81,316.1,M,-32.8,M,0000,0000*58
17 38 06.115968295
17 38 06.218051256 $GPGSA,A,3,03,22,23,07,27,09,16,26,30,08,,,1.15,0.81,0.82*05
17 38 06.322129198
17 38 06.427404127 $GPRMC,013708.000,A,3401.8853,N,11725.0177,W,0.28,153.68,061217,,,D*75
17 38 06.533907044 ’‰B¼˜$GPGGA,013715.000,3401.8848,N,11725.0172,W,2,09,0.85,316.1,M,-32.8,M,0000,0000*57
17 38 06.639414971
17 38 06.746641880 $GPGSA,A,3,03,22,23,07,27,16,26,30,08,,,,1.19,0.85,0.83*05
17 38 06.855804770
17 38 06.959039720 $GPRMC,013715.000,A,3401.8848,N,11725.0172,W,0.26,146.92,061217,,,D*79
17 38 07.064613647
17 38 07.167617599 $GPVTG,146.92,T,,M,0.26,N,0.49,K,D*39
17 38 07.273265525
17 38 07.376855471 $GPGSV,3,1,12,23,75,047,22,09,55,325,22,16,48,056,25,51,48,162,30*74
17 38 07.483642385 $GPGSV,3,2,12,07,39,273,35,03,37,183,28,22,19,171,27,26,19,042,28*7B
17 38 07.589641307 $GPGGA,013658.000,3401.8862,N,11725.0185,W,2,09,0.86,316.1,M,-32.8,M,0000,0000*5C
17 38 08.036471763 $GPGGA,013716.000,3401.8848,N,11725.0172,W,2,09,0.85,316.1,M,-32.8,M,0000,0000*54
17 38 08.486651184
17 38 08.589610137 $GPGSA,A,3,03,22,23,07,27,16,26,30,08,,,,1.19,0.85,0.83*05
17 38 08.695470061
17 38 08.798619012 $GPGSV,3,1,12,23,75,048,16,09,55,325,,16,48,055,22,51,48,162,29*70
17 38 08.904287937
17 38 09.007681885 $GPGSV,3,2,12,07,39,273,32,03,36,183,21,26,19,042,24,22,18,171,19*74
17 38 09.113165813
17 38 09.216690760 $GPGSV,3,3,12,27,18,105,20,30,14,258,23,08,12,141,19,06,03,279,*76
17 38 09.321955689
17 38 09.424764644 $GPRMC,013716.000,A,3401.8848,N,11725.0172,W,0.18,159.40,061217,,,D*76
17 38 09.530156572
17 38 09.633013526 $GPVTG,159.40,T,,M,0.18,N,0.33,K,D*38
17 38 09.742072417
17 38 09.845074369 $GPGSA,A,3,03,22,23,07,09,16,26,30,08,,,,1.19,0.86,0.83*0A
17 38 09.951469287 ÿÿÿ$GPRMC,013658.000,A,3401.8862,N,11725.0185,W,0.37,170.90,061217,,,D*76
17 38 10.058123202 $GPVTG,170.90,T,,M,0.37,N,0.68,K,D*3D
17 38 10.164055125 0185,W,0.37,170.90,061217,,,D*76
17 38 10.269577052 $GPGSV,3,3,12,27,18,106,16,30,14,258,25,08,12,141,22,06,03,279,*7E
17 38 10.375932970 *76
17 38 10.481421897 $GPGGA,013635.000,3401.8873,N,11725.0195,W,2,10,0.81,316.0,M,-32.8,M,0000,0000*58
17 38 10.588346810 $GPGGA,013717.000,3401.8847,N,11725.0172,W,2,09,0.85,316.1,M,-32.8,M,0000,0000*5A
17 38 11.034764270
17 38 11.138233218 $GPGSA,A,3,03,22,23,07,27,16,26,30,08,,,,1.19,0.85,0.83*05
17 38 11.247759104
17 38 11.350537058 $GPRMC,013717.000,A,3401.8847,N,11725.0172,W,0.14,170.64,061217,,,D*79
17 38 11.455705989
17 38 11.558451944 $GPVTG,170.64,T,,M,0.14,N,0.27,K,D*3C
17 38 11.663843872
17 38 11.767131822 $GPGGA,013637.000,3401.8872,N,11725.0196,W,2,10,0.81,316.1,M,-32.8,M,0000,0000*59
17 38 12.216412252 $GPGSA,A,3,03,22,23,07,27,09,16,26,30,08,,,1.15,0.81,0.82*05
17 38 12.323593162 -32.8,M,0000,0000*59
17 38 12.431067069 $GPGGA,013644.000,3401.8869,N,11725.0195,W,2,10,0.81,316.1,M,-32.8,M,0000,0000*54
17 38 12.882594477 $GPGGA,013718.000,3401.8847,N,11725.0172,W,2,09,0.85,316.1,M,-32.8,M,0000,0000*55
17 38 13.325918969
17 38 13.428867922 $GPGSA,A,3,03,22,23,07,27,16,26,30,08,,,,1.19,0.85,0.83*05
17 38 13.534602846
17 38 13.637452800 $GPRMC,013718.000,A,3401.8847,N,11725.0172,W,0.08,183.64,061217,,,D*77
17 38 13.742485732
17 38 13.845374686 $GPVTG,183.64,T,,M,0.08,N,0.14,K,D*3D
17 38 13.949691625
17 38 14.052625578 $GPGGA,013659.000,3401.8861,N,11725.0185,W,2,09,0.86,316.1,M,-32.8,M,0000,0000*5E
17 38 14.500964018 $GPGSA,A,3,03,22,23,07,09,16,26,30,08,,,,1.19,0.86,0.83*0A
17 38 14.607125939 M,-32.8,M,0000,0000*5E
17 38 14.713020862 $GPGGA,013719.000,3401.8846,N,11725.0172,W,2,09,0.85,316.2,M,-32.8,M,0000,0000*56
17 38 15.157167345
17 38 15.260821290 $GPGSA,A,3,03,22,23,07,27,16,26,30,08,,,,1.19,0.85,0.83*05
17 38 15.365894222
17 38 15.468849175 $GPRMC,013719.000,A,3401.8846,N,11725.0172,W,0.09,161.76,061217,,,D*79
17 38 15.575001095
17 38 15.681769009 $GPVTG,161.76,T,,M,0.09,N,0.16,K,D*31
17 38 15.786903940
17 38 15.889636895 $GPRMC,013659.000,A,3401.8861,N,11725.0185,W,0.37,154.18,061217,,,D*72
17 38 15.995707817 $GPVTG,154.18,T,,M,0.37,N,0.69,K,D*3A
17 38 16.101802738 0185,W,0.37,154.18,061217,,,D*72
17 38 16.207729660 $GPGSA,A,3,03,22,23,07,27,09,16,26,30,08,,,1.15,0.81,0.82*05
17 38 16.313665583 17,,,D*72
17 38 16.419351508 $GPRMC,013644.000,A,3401.8869,N,11725.0195,W,0.28,117.38,061217,,,D*7C
17 38 16.526076423 $GPVTG,117.38,T,,M,0.28,N,0.52,K,D*39
17 38 16.632534340 0195,W,0.28,117.38,061217,,,D*7C
17 38 16.738451263 $GPRMC,013637.000,A,3401.8872,N,11725.0196,W,0.19,218.63,061217,,,D*71
17 38 16.845008179 $GPGGA,013720.000,3401.8846,N,11725.0172,W,2,09,0.85,316.2,M,-32.8,M,0000,0000*5C
17 38 16.952394087
17 38 17.056021033 $GPGSA,A,3,03,22,23,07,27,16,26,30,08,,,,1.19,0.85,0.83*05
17 38 17.163479940
17 38 17.270970847 $GPRMC,013720.000,A,3401.8846,N,11725.0172,W,0.11,168.17,061217,,,D*74
17 38 17.376346775
17 38 17.478706734 $GPVTG,168.17,T,,M,0.11,N,0.20,K,D*33
17 38 17.583432669
17 38 17.687114615 $GPVTG,218.63,T,,M,0.19,N,0.35,K,D*38
17 38 17.793307535 ÿÿÿÿÿÿÿÿÿÿÿÿÿÿÿÿÿÿÿÿÿÿÿÿ$GPGGA,013700.000,3401.8860,N,11725.0185,W,2,09,0.86,316.1,M,-32.8,M,0000,0000*52
17 38 17.901170438 $GPGSA,A,3,03,22,23,07,09,16,26,30,08,,,,1.19,0.86,0.83*0A
17 38 18.007046361 þd$GPRMC,013700.000,A,3401.8860,N,11725.0185,W,0.40,147.29,061217,,,D*7E
17 38 18.115386259 b_H/ ·ê?X^}Ôj$GPVTG,147.29,T,,M,0.40,N,0.74,K,D*36
17 38 18.221238183 0185,W,0.40,147.29,061217,,,D*7E
17 38 18.329276084 b_H/ ·ê?X^}Ôj$GPGGA,013721.000,3401.8846,N,11725.0172,W,2,09,0.85,316.2,M,-32.8,M,0000,0000*5D
17 38 18.434180017
17 38 18.541612924 $GPGSA,A,3,03,22,23,07,27,16,26,30,08,,,,1.19,0.85,0.83*05
17 38 18.647459848
17 38 18.754932755 $GPGSV,3,1,12,23,75,048,17,09,55,326,,16,48,055,23,51,48,162,28*72
17 38 18.860119685
17 38 18.963106638 $GPGSV,3,2,12,07,40,273,32,03,36,183,22,26,19,042,18,22,18,171,17*78
17 38 19.069273558
17 38 19.171709516 $GPGSV,3,3,12,27,18,105,17,30,14,258,21,08,12,141,18,06,03,279,*71
17 38 19.276807447
17 38 19.379736401 $GPRMC,013721.000,A,3401.8846,N,11725.0172,W,0.21,151.67,061217,,,D*7B
17 38 19.485237328
17 38 19.587749285 $GPVTG,151.67,T,,M,0.21,N,0.39,K,D*35
17 38 19.692162223
17 38 19.795646171 $GPGSA,A,3,03,22,23,07,27,09,16,26,30,08,,,1.15,0.81,0.82*05
17 38 19.902141088 ÿ$GPGSA,A,3,03,22,23,07,27,09,16,26,30,08,,,1.15,0.81,0.82*05
17 38 20.007863013 ÿ$GPRMC,013645.000,A,3401.8869,N,11725.0195,W,0.41,118.26,061217,,,D*72
17 38 20.113862934 $GPVTG,118.26,T,,M,0.41,N,0.76,K,D*30
17 38 20.224157813 0195,W,0.41,118.26,061217,,,D*72
17 38 20.329541741 $GPGGA,013722.000,3401.8845,N,11725.0171,W,2,09,0.85,316.2,M,-32.8,M,0000,0000*5E
17 38 20.434573673
17 38 20.537277628 $GPGSA,A,3,03,22,23,07,27,16,26,30,08,,,,1.19,0.85,0.83*05
17 38 20.642209561
17 38 20.745174514 $GPRMC,013722.000,A,3401.8845,N,11725.0171,W,0.23,153.22,061217,,,D*79
17 38 20.850140446
17 38 20.952716403 $GPVTG,153.22,T,,M,0.23,N,0.43,K,D*39
17 38 21.057899334
17 38 21.160961285 $GPVTG,231.29,T,,M,0.14,N,0.26,K,D*32
17 38 21.270117175 ÿÿÿÿÿÿÿÿÿÿÿÿÿÿÿÿÿÿÿÿÿÿÿÿ$GPRMC,013631.000,A,3401.8872,N,11725.0195,W,0.09,359.00,061217,,,D*74
17 38 21.377302085 $GPGGA,013723.000,3401.8845,N,11725.0171,W,2,09,0.85,316.2,M,-32.8,M,0000,0000*5F
17 38 21.482575015
17 38 21.586475958 $GPGSA,A,3,03,22,23,07,27,16,26,30,08,,,,1.19,0.85,0.83*05
17 38 21.696260841
17 38 21.799117795 $GPRMC,013723.000,A,3401.8845,N,11725.0171,W,0.23,154.10,061217,,,D*7E
17 38 21.904186727
17 38 22.009849652 $GPVTG,154.10,T,,M,0.23,N,0.42,K,D*3E
17 38 22.114511588
17 38 22.217458541 $GPGGA,013701.000,3401.8859,N,11725.0184,W,2,09,0.86,316.1,M,-32.8,M,0000,0000*58
17 38 22.662637013 $GPGSA,A,3,03,22,23,07,09,16,26,30,08,,,,1.19,0.86,0.83*0A
17 38 22.768010942 M,-32.8,M,0000,0000*58
17 38 22.874768856 $GPGSV,3,1,12,23,75,048,17,09,55,325,14,16,48,055,22,51,48,162,29*74
17 38 22.980354782 0000,0000*58
17 38 23.085741710 $GPGGA,013724.000,3401.8844,N,11725.0171,W,2,09,0.85,316.2,M,-32.8,M,0000,0000*59
17 38 23.539173099
17 38 23.644251030 $GPGSA,A,3,03,22,23,07,27,16,26,30,08,,,,1.19,0.85,0.83*05
17 38 23.751454940
17 38 23.857089865 $GPRMC,013724.000,A,3401.8844,N,11725.0171,W,0.21,156.25,061217,,,D*7E
17 38 23.961935799
17 38 24.080818590 $GPVTG,156.25,T,,M,0.21,N,0.40,K,D*3A
17 38 24.184676534
17 38 24.286666497 $GPGSV,3,2,12,07,39,273,32,03,36,183,22,26,19,042,24,22,18,171,21*7C
17 38 24.392068425 $GPGSV,3,3,12,27,18,106,,30,14,258,21,08,12,141,18,06,03,279,*74
17 38 24.498254345 *7C
17 38 24.604142268 $GPRMC,013701.000,A,3401.8859,N,11725.0184,W,0.42,147.20,061217,,,D*7F
17 38 24.715073140 $GPVTG,147.20,T,,M,0.42,N,0.78,K,D*31
17 38 24.821134061 0184,W,0.42,147.20,061217,,,D*7F
17 38 24.927022984 $GPVTG,359.00,T,,M,0.09,N,0.17,K,D*38
17 38 25.034267893 0184,W,0.42,147.20,061217,,,D*7F
17 38 25.139602822 $GPGGA,013725.000,3401.8844,N,11725.0170,W,2,09,0.85,316.2,M,-32.8,M,0000,0000*59
17 38 25.243779763
17 38 25.345225731 $GPGSA,A,3,03,22,23,07,27,16,26,30,08,,,,1.19,0.85,0.83*05
17 38 25.449849667
17 38 25.552762620 $GPRMC,013725.000,A,3401.8844,N,11725.0170,W,0.18,156.09,061217,,,D*7A
17 38 25.658680543
17 38 25.761992492 $GPVTG,156.09,T,,M,0.18,N,0.33,K,D*3A
17 38 25.866745427
17 38 25.970102376 $GPVTG,8.04,T,,M,0.07,N,0.13,K,D*31
17 38 26.076699292 ÿÿÿÿÿÿÿÿÿÿÿÿÿÿÿÿÿÿÿÿÿÿÿÿÿÿ$GPGGA,013646.000,3401.8868,N,11725.0193,W,2,10,0.81,316.1,M,-32.8,M,0000,0000*51
17 38 26.183191209 $GPGSA,A,3,03,22,23,07,27,09,16,26,30,08,,,1.15,0.81,0.82*05
17 38 26.292361099 -32.8,M,0000,0000*51
17 38 26.397325031 $GPGGA,013726.000,3401.8843,N,11725.0170,W,2,10,0.81,316.2,M,-32.8,M,0000,0000*51
17 38 26.841218517
17 38 26.944690464 $GPGSA,A,3,03,22,23,07,27,09,16,26,30,08,,,1.15,0.81,0.82*05
17 38 27.052323370
17 38 27.155123324 $GPGSV,3,1,12,23,75,048,16,09,55,326,17,16,48,055,23,51,48,162,27*7A
17 38 27.259214266
17 38 27.363384206 $GPGSV,3,2,12,07,40,273,31,03,36,183,19,26,19,042,18,22,18,171,12*76
17 38 27.468686135
17 38 27.571408090 $GPGSV,3,3,12,27,18,105,15,30,14,258,18,08,12,141,12,06,03,279,*73
17 38 27.676563021
17 38 27.784093927 $GPRMC,013726.000,A,3401.8843,N,11725.0170,W,0.15,183.21,061217,,,D*71
17 38 27.889444856
17 38 27.992193811 $GPVTG,183.21,T,,M,0.15,N,0.28,K,D*3F
17 38 28.097544740
17 38 28.199608702 $GPGSV,3,1,12,23,75,047,16,09,55,325,17,16,48,056,19,51,48,162,28*73
17 38 28.304767632 $GPGSV,3,2,12,07,39,273,31,03,36,183,24,22,19,171,23,26,19,042,24*7A
17 38 28.410581556 $GPGSV,3,3,12,27,18,106,14,30,14,258,23,08,12,141,18,06,03,279,*73
17 38 28.515909485 .S
17 38 28.622000406 ªï¥$ò$GPRMC,013646.000,A,3401.8868,N,11725.0193,W,0.44,116.77,061217,,,D*79
17 38 28.728794320 ªï¥$ò$GPVTG,116.77,T,,M,0.44,N,0.82,K,D*34
17 38 28.834732242 0193,W,0.44,116.77,061217,,,D*79
17 38 28.940703165 ªï¥$ò$GPGGA,013727.000,3401.8843,N,11725.0170,W,2,10,0.81,316.2,M,-32.8,M,0000,0000*50
17 38 29.046106093
17 38 29.148288053 $GPGSA,A,3,03,22,23,07,27,09,16,26,30,08,,,1.15,0.81,0.82*05
17 38 29.256068957
17 38 29.357743923 $GPRMC,013727.000,A,3401.8843,N,11725.0170,W,0.15,181.99,061217,,,D*71
17 38 29.462866854
17 38 29.565622809 $GPVTG,181.99,T,,M,0.15,N,0.28,K,D*3E
17 38 29.670501743
17 38 29.773650693 $GPGGA,013638.000,3401.8872,N,11725.0196,W,2,10,0.81,316.1,M,-32.8,M,0000,0000*56
17 38 30.215638198 $GPGSA,A,3,03,22,23,07,27,09,16,26,30,08,,,1.15,0.81,0.82*05
17 38 30.320860128 -32.8,M,0000,0000*56
17 38 30.426195057 $GPGGA,013728.000,3401.8842,N,11725.0170,W,2,10,0.81,316.2,M,-32.8,M,0000,0000*5E
17 38 30.874679496
17 38 30.976622459 $GPGSA,A,3,03,22,23,07,27,09,16,26,30,08,,,1.15,0.81,0.82*05
17 38 31.080629401
17 38 31.182463366 $GPRMC,013728.000,A,3401.8842,N,11725.0170,W,0.22,182.27,061217,,,D*7D
17 38 31.286949303
17 38 31.389225263 $GPVTG,182.27,T,,M,0.22,N,0.40,K,D*32
17 38 31.493932198
17 38 31.597155148 $GPRMC,013638.000,A,3401.8872,N,11725.0196,W,0.22,169.92,061217,,,D*7D
17 38 31.703220070 $GPVTG,169.92,T,,M,0.22,N,0.41,K,D*38
17 38 31.808975994 0196,W,0.22,169.92,061217,,,D*7D
17 38 31.914835917 $GPGGA,013729.000,3401.8842,N,11725.0170,W,2,10,0.81,316.2,M,-32.8,M,0000,0000*5F
17 38 32.020022848
17 38 32.125265777 $GPGSA,A,3,03,22,23,07,27,09,16,26,30,08,,,1.15,0.81,0.82*05
17 38 32.235207659
17 38 32.337702617 $GPRMC,013729.000,A,3401.8842,N,11725.0170,W,0.27,183.15,061217,,,D*79
17 38 32.442789548
17 38 32.545818500 $GPVTG,183.15,T,,M,0.27,N,0.50,K,D*36
17 38 32.650878432
17 38 32.753784385 $GPGGA,013702.000,3401.8858,N,11725.0183,W,2,09,0.86,316.1,M,-32.8,M,0000,0000*5D
17 38 33.195420894 $GPGSA,A,3,03,22,23,07,09,16,26,30,08,,,,1.19,0.86,0.83*0A
17 38 33.300290827 M,-32.8,M,0000,0000*5D
17 38 33.407050741 $GPRMC,013702.000,A,3401.8858,N,11725.0183,W,0.51,138.07,061217,,,D*75
17 38 33.512936665 00,0000*5D
17 38 33.618080595 $GPVTG,138.07,T,,M,0.51,N,0.94,K,D*3C
17 38 33.727873479 0183,W,0.51,138.07,061217,,,D*75
17 38 33.832742412 00,0000*5D
17 38 33.937109351 $GPGGA,013647.000,3401.8868,N,11725.0192,W,2,10,0.81,316.1,M,-32.8,M,0000,0000*51
17 38 34.378506862 $GPGSA,A,3,03,22,23,07,27,09,16,26,30,08,,,1.15,0.81,0.82*05
17 38 34.484383785 -32.8,M,0000,0000*51
17 38 34.589929711 $GPRMC,013647.000,A,3401.8868,N,11725.0192,W,0.39,116.36,061217,,,D*76
17 38 34.696156631 00,0000*51
17 38 34.801548559 $GPGGA,013730.000,3401.8841,N,11725.0170,W,2,10,0.81,316.2,M,-32.8,M,0000,0000*54
17 38 35.246689032
17 38 35.348508997 $GPGSA,A,3,03,22,23,07,27,09,16,26,30,08,,,1.15,0.81,0.82*05
17 38 35.452901935
17 38 35.555987887 $GPRMC,013730.000,A,3401.8841,N,11725.0170,W,0.25,174.40,061217,,,D*78
17 38 35.661213816
17 38 35.764292768 $GPVTG,174.40,T,,M,0.25,N,0.46,K,D*3B
17 38 35.868749706
17 38 35.970947666 $GPVTG,116.36,T,,M,0.39,N,0.73,K,D*35
17 38 36.077308585 ÿÿÿÿÿÿÿÿÿÿÿÿÿÿÿÿÿÿÿÿÿÿÿÿ$GPGGA,013630.000,3401.8872,N,11725.0195,W,2,10,0.81,316.0,M,-32.8,M,0000,0000*5C
17 38 36.184291497 $GPGGA,013634.000,3401.8873,N,11725.0195,W,2,10,0.81,316.0,M,-32.8,M,0000,0000*59
17 38 36.627704987 $GPGSA,A,3,03,22,23,07,27,09,16,26,30,08,,,1.15,0.81,0.82*05
17 38 36.738063865 -32.8,M,0000,0000*59
17 38 36.844068787 $GPGGA,013731.000,3401.8840,N,11725.0170,W,2,10,0.81,316.2,M,-32.8,M,0000,0000*54
17 38 37.290764244
17 38 37.392397210 $GPGSA,A,3,03,22,23,07,27,09,16,26,30,08,,,1.15,0.81,0.82*05
17 38 37.497366142
17 38 37.600648092 $GPGSV,3,1,12,23,75,048,27,09,55,326,18,16,48,055,25,51,48,162,25*73
17 38 37.706238018
17 38 37.809179971 $GPGSV,3,2,12,07,40,273,20,03,36,183,22,26,19,042,17,22,18,171,19*7A
17 38 37.914669898
17 38 38.016445863 $GPGSV,3,3,12,27,18,105,18,30,14,258,18,08,12,141,17,06,03,279,*7B
17 38 38.120310807
17 38 38.225848734 $GPRMC,013731.000,A,3401.8840,N,11725.0170,W,0.24,150.90,061217,,,D*72
17 38 38.329682678
17 38 38.432963627 $GPVTG,150.90,T,,M,0.24,N,0.44,K,D*33
17 38 38.537660563
17 38 38.640512517 $GPGGA,013639.000,3401.8871,N,11725.0196,W,2,10,0.81,316.1,M,-32.8,M,0000,0000*54
17 38 39.084603000 $GPGSA,A,3,03,22,23,07,27,09,16,26,30,08,,,1.15,0.81,0.82*05
17 38 39.189673932 -32.8,M,0000,0000*54
17 38 39.294087870 $GPGGA,013732.000,3401.8840,N,11725.0170,W,2,10,0.81,316.2,M,-32.8,M,0000,0000*57
17 38 39.741792316
17 38 39.844918268 $GPGSA,A,3,03,22,23,07,27,09,16,26,30,08,,,1.15,0.81,0.82*05
17 38 39.950025199
17 38 40.052098161 $GPRMC,013732.000,A,3401.8840,N,11725.0170,W,0.21,146.87,061217,,,D*75
17 38 40.156419100
17 38 40.258327063 $GPVTG,146.87,T,,M,0.21,N,0.40,K,D*33
17 38 40.362215007
17 38 40.465217959 $GPGGA,013648.000,3401.8867,N,11725.0191,W,2,10,0.81,316.1,M,-32.8,M,0000,0000*52
17 38 40.910274433 $GPGSA,A,3,03,22,23,07,27,09,16,26,30,08,,,1.15,0.81,0.82*05
17 38 41.016525352 -32.8,M,0000,0000*52
17 38 41.121441285 $GPRMC,013648.000,A,3401.8867,N,11725.0191,W,0.40,109.42,061217,,,D*76
17 38 41.230392177 00,0000*52
17 38 41.335292110 $GPGGA,013733.000,3401.8839,N,11725.0169,W,2,10,0.81,316.2,M,-32.8,M,0000,0000*50
17 38 41.778939598
17 38 41.882136549 $GPGSA,A,3,03,22,23,07,27,09,16,26,30,08,,,1.15,0.81,0.82*05
17 38 41.987532477
17 38 42.090021435 $GPRMC,013733.000,A,3401.8839,N,11725.0169,W,0.19,125.83,061217,,,D*78
17 38 42.194141376
17 38 42.295623344 $GPVTG,125.83,T,,M,0.19,N,0.35,K,D*3B
17 38 42.403123250
17 38 42.506581198 $GPGGA,013703.000,3401.8857,N,11725.0182,W,2,09,0.86,316.1,M,-32.8,M,0000,0000*52
17 38 42.955121637 $GPGSA,A,3,03,22,23,07,09,16,26,30,08,,,,1.19,0.86,0.83*0A
17 38 43.060653563 M,-32.8,M,0000,0000*52
17 38 43.165291499 $GPRMC,013703.000,A,3401.8857,N,11725.0182,W,0.53,134.94,061217,,,D*7E
17 38 43.270056434 00,0000*52
17 38 43.374062376 $GPVTG,134.94,T,,M,0.53,N,0.98,K,D*34
17 38 43.480228296 0182,W,0.53,134.94,061217,,,D*7E
17 38 43.585291228 00,0000*52
17 38 43.690666156 $GPVTG,109.42,T,,M,0.40,N,0.73,K,D*36
17 38 43.796462080 0182,W,0.53,134.94,061217,,,D*7E
17 38 43.901484012 00,0000*52
17 38 44.006538944 $GPRMC,013639.000,A,3401.8871,N,11725.0196,W,0.21,184.64,061217,,,D*76
17 38 44.112086870 00,0000*52
17 38 44.220855764 $GPVTG,184.64,T,,M,0.21,N,0.38,K,D*3F
17 38 44.325260702 0196,W,0.21,184.64,061217,,,D*76
17 38 44.430061636 00,0000*52
17 38 44.535969559 $GPGGA,013734.000,3401.8839,N,11725.0169,W,2,10,0.81,316.2,M,-32.8,M,0000,0000*57
17 38 44.978720056
17 38 45.081185014 $GPGSA,A,3,03,22,23,07,27,09,16,26,30,08,,,1.15,0.81,0.82*05
17 38 45.184738961
17 38 45.286965921 $GPRMC,013734.000,A,3401.8839,N,11725.0169,W,0.20,104.92,061217,,,D*76
17 38 45.390987864
17 38 45.493582820 $GPVTG,104.92,T,,M,0.20,N,0.37,K,D*30
17 38 45.598263756
17 38 45.701198709 $GPRMC,013634.000,A,3401.8873,N,11725.0195,W,0.08,325.26,061217,,,D*7E
17 38 45.811807584 $GPVTG,325.26,T,,M,0.08,N,0.14,K,D*35
17 38 45.917700507 0195,W,0.08,325.26,061217,,,D*7E
17 38 46.023707429 $GPGGA,013632.000,3401.8872,N,11725.0195,W,2,10,0.86,316.0,M,-32.8,M,0000,0000*59
17 38 46.129309355 $GPGGA,013633.000,3401.8872,N,11725.0195,W,2,10,0.86,316.0,M,-32.8,M,0000,0000*58
17 38 46.571714855 $GPGGA,013735.000,3401.8839,N,11725.0168,W,2,10,0.81,316.2,M,-32.8,M,0000,0000*57
17 38 47.015057347
17 38 47.117777302 $GPGSA,A,3,03,22,23,07,27,09,16,26,30,08,,,1.15,0.81,0.82*05
17 38 47.225996201
17 38 47.328379160 $GPRMC,013735.000,A,3401.8839,N,11725.0168,W,0.07,153.37,061217,,,D*7E
17 38 47.438777037
