14 46 34.181258831 $GPGGA,224634.000,3401.9010,N,11725.0292,W,1,05,3.42,308.6,M,-32.8,M,,*55
14 46 34.647414686
14 46 34.752734202 $GPGSA,A,3,32,22,31,01,14,,,,,,,,3.56,3.42,1.00*01
14 46 34.860135708
14 46 34.964269229 $GPRMC,224634.000,A,3401.9010,N,11725.0292,W,0.66,327.41,031217,,,A*7B
14 46 35.070206741
14 46 35.174962260 $GPVTG,327.41,T,,M,0.66,N,1.22,K,A*3F
14 46 35.281235771
14 46 35.385433291 $GPGGA,224634.000,3401.9010,N,11725.0292,W,1,05,3.42,308.6,M,-32.8,M,,*55
14 46 35.858739114 $GPGSA,A,3,32,22,31,01,14,,,,,,,,3.56,3.42,1.00*01
14 46 35.965772622 $GPRMC,224634.000,A,3401.9010,N,11725.0292,W,0.66,327.41,031217,,,A*7B
14 46 36.073232128 5º$GPVTG,327.41,T,,M,0.66,N,1.22,K,A*3F
14 46 36.183415621 0292,W,0.66,327.41,031217,,,A*7B
14 46 36.290234129 5º$GPGGA,224634.000,3401.9010,N,11725.0292,W,1,05,3.42,308.6,M,-32.8,M,,*55
14 46 36.397384636 $GPGSA,A,3,32,22,31,01,14,,,,,,,,3.56,3.42,1.00*01
14 46 36.504402144 $GPRMC,224634.000,A,3401.9010,N,11725.0292,W,0.66,327.41,031217,,,A*7B
14 46 36.611473652 5º$GPVTG,327.41,T,,M,0.66,N,1.22,K,A*3F
14 46 36.718053161 0292,W,0.66,327.41,031217,,,A*7B
14 46 36.825220668 5º$GPGGA,224634.000,3401.9010,N,11725.0292,W,1,05,3.42,308.6,M,-32.8,M,,*55
14 46 36.932551175 $GPGSA,A,3,32,22,31,01,14,,,,,,,,3.56,3.42,1.00*01
14 46 37.042900667 2,308.6,M,-32.8,M,,*55
14 46 37.152643162 $GPRMC,224634.000,A,3401.9010,N,11725.0292,W,0.66,327.41,031217,,,A*7B
14 46 37.259260672 55
14 46 37.363781191 $GPVTG,327.41,T,,M,0.66,N,1.22,K,A*3F
14 46 37.470246701 0292,W,0.66,327.41,031217,,,A*7B
14 46 37.576757211 55
14 46 37.681810728 $GPGGA,224634.000,3401.9010,N,11725.0292,W,1,05,3.42,308.6,M,-32.8,M,,*55
14 46 38.135642640 $GPGGA,224635.000,3401.9010,N,11725.0292,W,1,05,3.41,308.6,M,-32.8,M,,*57
14 46 38.594503530
14 46 38.699309048 $GPGSA,A,3,32,22,31,01,14,,,,,,,,3.56,3.41,1.00*02
14 46 38.806443555
14 46 38.910870074 $GPRMC,224635.000,A,3401.9010,N,11725.0292,W,0.57,330.49,031217,,,A*76
14 46 39.017823582
14 46 39.122282102 $GPVTG,330.49,T,,M,0.57,N,1.06,K,A*35
14 46 39.228399614
14 46 39.332564135 $GPGSA,A,3,32,22,31,01,14,,,,,,,,3.56,3.42,1.00*01
14 46 39.439566642 ÿÿÿÿÿÿÿÿÿÿÿ‡$GPRMC,224634.000,A,3401.9010,N,11725.0292,W,0.66,327.41,031217,,,A*7B
14 46 39.547063148 $GPVTG,327.41,T,,M,0.66,N,1.22,K,A*3F
14 46 39.653472658 0292,W,0.66,327.41,031217,,,A*7B
14 46 39.760533166 $GPGGA,224634.000,3401.9010,N,11725.0292,W,1,05,3.42,308.6,M,-32.8,M,,*55
14 46 40.218399060 $GPGGA,224635.000,3401.9010,N,11725.0292,W,1,05,3.41,308.6,M,-32.8,M,,*57
14 46 40.669905983 $GPGSA,A,3,32,22,31,01,14,,,,,,,,3.56,3.41,1.00*02
14 46 40.777774487 1,308.6,M,-32.8,M,,*57
14 46 40.884263997 $GPRMC,224635.000,A,3401.9010,N,11725.0292,W,0.57,330.49,031217,,,A*76
14 46 40.994973487 57
14 46 41.099765005 $GPVTG,330.49,T,,M,0.57,N,1.06,K,A*35
14 46 41.207809508 $GPGSA,A,3,32,22,31,01,14,,,,,,,,3.56,3.42,1.00*01
14 46 41.314952016 $GPRMC,224634.000,A,3401.9010,N,11725.0292,W,0.66,327.41,031217,,,A*7B
14 46 41.421539525 5º$GPVTG,327.41,T,,M,0.66,N,1.22,K,A*3F
14 46 41.531942017 0292,W,0.66,327.41,031217,,,A*7B
14 46 41.638305528 5º$GPGGA,224634.000,3401.9010,N,11725.0292,W,1,05,3.42,308.6,M,-32.8,M,,*55
14 46 41.745085037 $GPGGA,224635.000,3401.9010,N,11725.0292,W,1,05,3.41,308.6,M,-32.8,M,,*57
14 46 42.195308966 $GPGGA,224636.000,3401.9011,N,11725.0293,W,1,05,3.41,308.6,M,-32.8,M,,*54
14 46 42.646401891
14 46 42.750284413 $GPGSA,A,3,32,22,31,01,14,,,,,,,,3.56,3.41,1.00*02
14 46 42.858651915
14 46 42.962863435 $GPGSV,3,1,09,22,73,319,25,31,54,047,28,03,50,319,25,48,47,206,35*77
14 46 43.072446931
14 46 43.176207454 $GPGSV,3,2,09,01,44,242,33,14,32,059,29,32,15,073,25,16,13,157,23*76
14 46 43.282233966
14 46 43.385930489 $GPGSV,3,3,09,26,,,29*7F
14 46 43.491467004
14 46 43.595058527 $GPRMC,224636.000,A,3401.9011,N,11725.0293,W,0.56,330.41,031217,,,A*7C
14 46 43.700900040
14 46 43.804442564 $GPVTG,330.41,T,,M,0.56,N,1.03,K,A*39
14 46 43.909515081
14 46 44.013063604 $GPGSA,A,3,32,22,31,01,14,,,,,,,,3.56,3.41,1.00*02
14 46 44.119858113 ÿÿÿÿÿÿÿÿÿÿÿ‡$GPRMC,224635.000,A,3401.9010,N,11725.0292,W,0.57,330.49,031217,,,A*76
14 46 44.227506618 $GPVTG,330.49,T,,M,0.57,N,1.06,K,A*35
14 46 44.333841129 0292,W,0.57,330.49,031217,,,A*76
14 46 44.439931641 $GPGSA,A,3,32,22,31,01,14,,,,,,,,3.56,3.42,1.00*01
14 46 44.550410132 30.49,031217,,,A*76
14 46 44.656562644 $GPRMC,224634.000,A,3401.9010,N,11725.0292,W,0.66,327.41,031217,,,A*7B
14 46 44.766997136 $GPVTG,327.41,T,,M,0.66,N,1.22,K,A*3F
14 46 44.873139648 0292,W,0.66,327.41,031217,,,A*7B
14 46 44.979583158 $GPGGA,224634.000,3401.9010,N,11725.0292,W,1,05,3.42,308.6,M,-32.8,M,,*55
14 46 45.427838096 $GPGGA,224635.000,3401.9010,N,11725.0292,W,1,05,3.41,308.6,M,-32.8,M,,*57
14 46 45.877828026 $GPGGA,224636.000,3401.9011,N,11725.0293,W,1,05,3.41,308.6,M,-32.8,M,,*54
14 46 46.332369935 $GPGSA,A,3,32,22,31,01,14,,,,,,,,3.56,3.41,1.00*02
14 46 46.439662442 $GPGSV,3,1,09,22,73,319,25,31,54,047,28,03,50,319,25,48,47,206,35*77
14 46 46.546365951 ,*5º$GPGSV,3,2,09,01,44,242,33,14,32,059,29,32,15,073,25,16,13,157,23*76
14 46 46.652866461 ,*5º$GPGSV,3,3,09,26,,,29*7F
14 46 46.759575970 3,14,32,059,29,32,15,073,25,16,13,157,23*76
14 46 46.866353479 ,*5º$GPRMC,224636.000,A,3401.9011,N,11725.0293,W,0.56,330.41,031217,,,A*7C
14 46 46.972980989 5º$GPVTG,330.41,T,,M,0.56,N,1.03,K,A*39
14 46 47.079554498 0293,W,0.56,330.41,031217,,,A*7C
14 46 47.185913009 5º$GPGSA,A,3,32,22,31,01,14,,,,,,,,3.56,3.41,1.00*02
14 46 47.291272524 30.41,031217,,,A*7C
14 46 47.396598040 5º$GPGGA,224637.000,3401.9014,N,11725.0294,W,1,05,3.41,308.6,M,-32.8,M,,*57
14 46 47.502894551
14 46 47.610288057 $GPGSA,A,3,32,22,31,01,14,,,,,,,,3.56,3.41,1.00*02
14 46 47.715896571
14 46 47.819826093 $GPRMC,224637.000,A,3401.9014,N,11725.0294,W,0.55,342.59,031217,,,A*70
14 46 47.926150604
14 46 48.028485133 $GPVTG,342.59,T,,M,0.55,N,1.02,K,A*37
14 46 48.132621654
14 46 48.235598181 $GPRMC,224635.000,A,3401.9010,N,11725.0292,W,0.57,330.49,031217,,,A*76
14 46 48.341001696 $GPVTG,330.49,T,,M,0.57,N,1.06,K,A*35
14 46 48.448794200 0292,W,0.57,330.49,031217,,,A*76
14 46 48.555341710 $GPGSA,A,3,32,22,31,01,14,,,,,,,,3.56,3.42,1.00*01
14 46 48.661754220 30.49,031217,,,A*76
14 46 48.768387730 $GPRMC,224634.000,A,3401.9010,N,11725.0292,W,0.66,327.41,031217,,,A*7B
14 46 48.874752240 $GPVTG,327.41,T,,M,0.66,N,1.22,K,A*3F
14 46 48.980801753 0292,W,0.66,327.41,031217,,,A*7B
14 46 49.090922246 $GPGGA,224634.000,3401.9010,N,11725.0292,W,1,05,3.42,308.6,M,-32.8,M,,*55
14 46 49.538883185 $GPGGA,224635.000,3401.9010,N,11725.0292,W,1,05,3.41,308.6,M,-32.8,M,,*57
14 46 49.990359109 $GPGGA,224636.000,3401.9011,N,11725.0293,W,1,05,3.41,308.6,M,-32.8,M,,*54
14 46 50.436210058 $GPGSA,A,3,32,22,31,01,14,,,,,,,,3.56,3.41,1.00*02
14 46 50.547003548 1,308.6,M,-32.8,M,,*54
14 46 50.655173050 $GPGSV,3,1,09,22,73,319,25,31,54,047,28,03,50,319,25,48,47,206,35*77
14 46 50.761276562 ,*54
14 46 50.867660073 $GPGSV,3,2,09,01,44,242,33,14,32,059,29,32,15,073,25,16,13,157,23*76
14 46 50.973894584 ,*54
14 46 51.078450103 $GPGSV,3,3,09,26,,,29*7F
14 46 51.183533620 3,14,32,059,29,32,15,073,25,16,13,157,23*76
14 46 51.289563132 ,*54
14 46 51.394572649 $GPGGA,224638.000,3401.9016,N,11725.0296,W,1,05,3.41,308.6,M,-32.8,M,,*58
14 46 51.847109568
14 46 51.951233089 $GPGSA,A,3,32,22,31,01,14,,,,,,,,3.56,3.41,1.00*02
14 46 52.062092579
14 46 52.165394103 $GPRMC,224638.000,A,3401.9016,N,11725.0296,W,0.54,332.19,031217,,,A*7D
14 46 52.270095622
14 46 52.373834145 $GPVTG,332.19,T,,M,0.54,N,1.01,K,A*36
14 46 52.479430659
14 46 52.583995178 $GPRMC,224636.000,A,3401.9011,N,11725.0293,W,0.56,330.41,031217,,,A*7C
14 46 52.690525688 $GPVTG,330.41,T,,M,0.56,N,1.03,K,A*39
14 46 52.797002198 0293,W,0.56,330.41,031217,,,A*7C
14 46 52.901876716 $GPGSA,A,3,32,22,31,01,14,,,,,,,,3.56,3.41,1.00*02
14 46 53.009490221 $GPGGA,224637.000,3401.9014,N,11725.0294,W,1,05,3.41,308.6,M,-32.8,M,,*57
14 46 53.456660164 $GPGSA,A,3,32,22,31,01,14,,,,,,,,3.56,3.41,1.00*02
14 46 53.567813652 $GPRMC,224637.000,A,3401.9014,N,11725.0294,W,0.55,342.59,031217,,,A*70
14 46 53.674716160 5º$GPVTG,342.59,T,,M,0.55,N,1.02,K,A*37
14 46 53.780894672 0294,W,0.55,342.59,031217,,,A*70
14 46 53.887472182 5º$GPRMC,224635.000,A,3401.9010,N,11725.0292,W,0.57,330.49,031217,,,A*76
14 46 53.993743693 5º$GPVTG,330.49,T,,M,0.57,N,1.06,K,A*35
14 46 54.099941204 $GPGSA,A,3,32,22,31,01,14,,,,,,,,3.56,3.42,1.00*01
14 46 54.207721709 $GPRMC,224634.000,A,3401.9010,N,11725.0292,W,0.66,327.41,031217,,,A*7B
14 46 54.312984224 òº$GPVTG,327.41,T,,M,0.66,N,1.22,K,A*3F
14 46 54.419543734 0292,W,0.66,327.41,031217,,,A*7B
14 46 54.528574233 òº$GPGGA,224634.000,3401.9010,N,11725.0292,W,1,05,3.42,308.6,M,-32.8,M,,*55
14 46 54.637060734 $GPGGA,224635.000,3401.9010,N,11725.0292,W,1,05,3.41,308.6,M,-32.8,M,,*57
14 46 55.092614638 $GPGGA,224639.000,3401.9017,N,11725.0297,W,1,05,3.41,308.6,M,-32.8,M,,*59
14 46 55.543718563
14 46 55.648105083 $GPGSA,A,3,32,22,31,01,14,,,,,,,,3.56,3.41,1.00*02
14 46 55.754067595
14 46 55.859598110 $GPRMC,224639.000,A,3401.9017,N,11725.0297,W,0.49,324.81,031217,,,A*76
14 46 55.966600618 ˜sFœ$GPGGA,224645.000,3401.9013,N,11725.0299,W,1,05,3.41,308.7,M,-32.8,M,,*59
14 46 56.072356131
14 46 56.176346653 $GPGSA,A,3,32,22,31,01,14,,,,,,,,3.55,3.41,1.00*01
14 46 56.281559169
14 46 56.385445691 $GPRMC,224645.000,A,3401.9013,N,11725.0299,W,0.36,306.70,031217,,,A*71
14 46 56.495113187
14 46 56.603279689 $GPVTG,306.70,T,,M,0.36,N,0.67,K,A*3B
14 46 56.709486201
14 46 56.813618722 $GPGGA,224637.000,3401.9014,N,11725.0294,W,1,05,3.41,308.6,M,-32.8,M,,*57
14 46 57.265023645 $GPGSA,A,3,32,22,31,01,14,,,,,,,,3.56,3.41,1.00*02
14 46 57.371852154 1,308.6,M,-32.8,M,,*57
14 46 57.478581663 $GPGGA,224640.000,3401.9016,N,11725.0297,W,1,05,3.41,308.6,M,-32.8,M,,*56
14 46 57.928832592 $GPGGA,224646.000,3401.9013,N,11725.0299,W,1,05,3.41,308.7,M,-32.8,M,,*5A
14 46 58.388378478
14 46 58.494461990 $GPGSA,A,3,32,22,31,01,14,,,,,,,,3.55,3.41,1.00*01
14 46 58.603024490
14 46 58.707252011 $GPGSV,3,1,09,22,73,319,22,31,54,047,22,03,50,319,24,48,47,206,28*77
14 46 58.812805525
14 46 58.917600043 $GPGSV,3,2,09,01,44,242,22,14,32,059,24,32,15,073,18,16,13,157,16*73
14 46 59.023223557
