13 57 16.600318417 þ$GPGGA,215716.000,3401.8873,N,11725.0174,W,2,11,0.82,320.8,M,-32.8,M,0000,0000*5C
13 57 16.710894837 $GPGSA,A,3,32,11,31,14,10,22,26,01,03,25,23,,1.14,0.82,0.79*05
13 57 16.814554418 $GPRMC,215716.000,A,3401.8873,N,11725.0174,W,0.20,176.19,031217,,,D*73
13 57 16.916914030 $GPZDA,215716.000,03,12,2017,,*54
13 57 17.554630200 $GPGGA,215717.000,3401.8873,N,11725.0174,W,2,11,0.83,320.8,M,-32.8,M,0000,0000*5C
13 57 18.021777338 $GPGSA,A,3,32,11,31,14,10,22,26,01,03,25,23,,1.15,0.83,0.79*05
13 57 18.127563887 $GPRMC,215717.000,A,3401.8873,N,11725.0174,W,0.15,166.17,031217,,,D*7B
13 57 18.231146486 $GPZDA,215717.000,03,12,2017,,*55
13 57 18.483917629 $GPGGA,215718.000,3401.8872,N,11725.0174,W,2,10,1.00,320.8,M,-32.8,M,0000,0000*59
13 57 18.923233449 $GPGSA,A,3,32,11,31,14,10,22,01,03,25,23,,,1.28,1.00,0.80*03
13 57 19.026924048 $GPRMC,215718.000,A,3401.8872,N,11725.0174,W,0.13,162.99,031217,,,D*71
13 57 19.130587654 $GPZDA,215718.000,03,12,2017,,*5A
13 57 19.581570240 $GPGGA,215719.000,3401.8872,N,11725.0174,W,2,10,1.00,320.8,M,-32.8,M,0000,0000*58
13 57 20.022054069 $GPGSA,A,3,32,11,31,14,10,22,01,03,25,23,,,1.28,1.00,0.80*03
13 57 20.125874680 $GPGSV,3,1,12,31,71,087,17,22,51,318,24,01,51,277,22,14,48,041,20*74
13 57 20.229272301 $GPGSV,3,2,12,11,33,250,23,32,30,056,21,03,29,313,20,10,16,117,21*76
13 57 20.333063913 $GPGSV,3,3,12,23,14,264,18,26,14,145,,25,11,055,17,34,,,*40
13 57 20.437071519 $GPRMC,215719.000,A,3401.8872,N,11725.0174,W,0.13,175.66,031217,,,D*76
13 57 20.541859108 $GPZDA,215719.000,03,12,2017,,*5B
13 57 20.645728718 $GPGGA,215720.000,3401.8872,N,11725.0174,W,2,11,0.82,320.8,M,-32.8,M,0000,0000*58
13 57 21.085771598 $GPGSA,A,3,32,11,31,14,10,22,26,01,03,25,23,,1.15,0.82,0.79*04
13 57 21.189460220 $GPRMC,215720.000,A,3401.8872,N,11725.0174,W,0.12,146.46,031217,,,D*7F
13 57 21.292251863 $GPZDA,215720.000,03,12,2017,,*51
13 57 21.527272474 $GPGGA,215721.000,3401.8871,N,11725.0174,W,2,11,0.82,320.8,M,-32.8,M,0000,0000*5A
13 57 21.967611376 $GPGSA,A,3,32,11,31,14,10,22,26,01,03,25,23,,1.15,0.82,0.79*04
13 57 22.072601974 $GPRMC,215721.000,A,3401.8871,N,11725.0174,W,0.17,156.91,031217,,,D*73
13 57 22.175915613 $GPZDA,215721.000,03,12,2017,,*50
13 57 22.527355582 $GPGGA,215722.000,3401.8871,N,11725.0173,W,2,11,0.82,320.8,M,-32.8,M,0000,0000*5E
13 57 22.965616567 $GPGSA,A,3,32,11,31,14,10,22,26,01,03,25,23,,1.15,0.82,0.79*04
13 57 23.069101207 $GPRMC,215722.000,A,3401.8871,N,11725.0173,W,0.20,172.74,031217,,,D*7E
13 57 23.172477853 $GPZDA,215722.000,03,12,2017,,*53
13 57 23.572057754 $GPGGA,215723.000,3401.8870,N,11725.0173,W,2,11,0.82,320.8,M,-32.8,M,0000,0000*5E
13 57 24.015642653 $GPGSA,A,3,32,11,31,14,10,22,26,01,03,25,23,,1.15,0.82,0.79*04
13 57 24.121887242 $GPRMC,215723.000,A,3401.8870,N,11725.0173,W,0.28,181.72,031217,,,D*7C
13 57 24.225084900 $GPZDA,215723.000,03,12,2017,,*52
13 57 24.478374152 $GPGGA,215724.000,3401.8869,N,11725.0173,W,2,11,0.83,320.8,M,-32.8,M,0000,0000*50
13 57 24.923096060 $GPGSA,A,3,32,11,31,14,10,22,26,01,03,25,23,,1.15,0.83,0.79*05
13 57 25.026738710 $GPGSV,3,1,11,31,70,087,18,22,51,318,22,01,51,277,21,14,48,041,18*77
13 57 25.132660314 $GPGSV,3,2,11,11,33,250,23,32,30,056,20,03,29,313,21,10,16,117,21*75
13 57 25.236191973 $GPGSV,3,3,11,23,14,264,16,26,14,145,19,25,11,055,16*43
13 57 25.344805517 $GPRMC,215724.000,A,3401.8869,N,11725.0173,W,0.25,187.47,031217,,,D*7E
13 57 25.448486172 $GPZDA,215724.000,03,12,2017,,*55
13 57 25.553295802 $GPGGA,215725.000,3401.8869,N,11725.0174,W,2,11,0.82,320.8,M,-32.8,M,0000,0000*57
13 57 25.992752864 $GPGSA,A,3,32,11,31,14,10,22,26,01,03,25,23,,1.14,0.82,0.79*05
13 57 26.097141511 $GPRMC,215725.000,A,3401.8869,N,11725.0174,W,0.25,179.65,031217,,,D*79
13 57 26.201880150 $GPZDA,215725.000,03,12,2017,,*54
13 57 26.523925893 $GPGGA,215726.000,3401.8868,N,11725.0174,W,2,11,0.82,320.8,M,-32.8,M,0000,0000*55
13 57 26.970009840 $GPGSA,A,3,32,11,31,14,10,22,26,01,03,25,23,,1.14,0.82,0.79*05
13 57 27.073608511 $GPRMC,215726.000,A,3401.8868,N,11725.0174,W,0.27,185.53,031217,,,D*7F
13 57 27.176698195 $GPZDA,215726.000,03,12,2017,,*57
13 57 27.525335366 $GPGGA,215727.000,3401.8867,N,11725.0174,W,2,11,0.82,320.8,M,-32.8,M,0000,0000*5B
13 57 27.970211375 $GPGSA,A,3,32,11,31,14,10,22,26,01,03,25,23,,1.15,0.82,0.79*04
13 57 28.073503061 $GPRMC,215727.000,A,3401.8867,N,11725.0174,W,0.26,186.29,031217,,,D*7E
13 57 28.197992275 $GPZDA,215727.000,03,12,2017,,*56
13 57 28.477889011 $GPGGA,215728.000,3401.8866,N,11725.0174,W,2,11,0.82,320.8,M,-32.8,M,0000,0000*55
13 57 28.917092182 $GPGSA,A,3,32,11,31,14,10,22,26,01,03,25,23,,1.14,0.82,0.79*05
13 57 29.020454870 $GPRMC,215728.000,A,3401.8866,N,11725.0174,W,0.23,209.00,031217,,,D*7A
13 57 29.123767566 $GPZDA,215728.000,03,12,2017,,*59
13 57 29.535926374 $GPGGA,215729.000,3401.8866,N,11725.0174,W,2,11,0.82,320.8,M,-32.8,M,0000,0000*54
13 57 29.988240287 $GPGSA,A,3,32,11,31,14,10,22,26,01,03,25,23,,1.14,0.82,0.79*05
13 57 30.095195909 $GPGSV,3,1,11,31,70,087,16,22,51,318,21,01,51,276,18,14,48,041,19*70
13 57 30.202287528 $GPGSV,3,2,11,11,33,250,21,03,30,313,21,32,30,056,18,10,16,117,20*75
13 57 30.308986157 $GPGSV,3,3,11,23,14,264,17,26,14,145,18,25,11,055,13*46
13 57 30.414812805 $GPRMC,215729.000,A,3401.8866,N,11725.0174,W,0.30,215.51,031217,,,D*70
13 57 30.519453480 $GPZDA,215729.000,03,12,2017,,*58
13 57 30.626783094 $GPGGA,215730.000,3401.8865,N,11725.0175,W,2,11,0.82,320.8,M,-32.8,M,0000,0000*5E
13 57 31.066248332 $GPGSA,A,3,32,11,31,14,10,22,26,01,03,25,23,,1.14,0.82,0.79*05
13 57 31.177451869 $GPRMC,215730.000,A,3401.8865,N,11725.0175,W,0.29,229.08,031217,,,D*71
13 57 31.281525564 $GPZDA,215730.000,03,12,2017,,*50
13 57 31.500267720 $GPGGA,215731.000,3401.8865,N,11725.0176,W,2,11,0.82,320.8,M,-32.8,M,0000,0000*5C
13 57 31.948843785 $GPGSA,A,3,32,11,31,14,10,22,26,01,03,25,23,,1.14,0.82,0.79*05
13 57 32.054216455 $GPRMC,215731.000,A,3401.8865,N,11725.0176,W,0.20,228.09,031217,,,D*7A
13 57 32.159260137 $GPZDA,215731.000,03,12,2017,,*51
13 57 32.528408989 $GPGGA,215732.000,3401.8864,N,11725.0176,W,2,11,0.82,320.8,M,-32.8,M,0000,0000*5E
13 57 32.971308214 $GPGSA,A,3,32,11,31,14,10,22,26,01,03,25,23,,1.14,0.82,0.79*05
13 57 33.074890934 $GPRMC,215732.000,A,3401.8864,N,11725.0176,W,0.12,208.57,031217,,,D*70
13 57 33.177948667 $GPZDA,215732.000,03,12,2017,,*52
13 57 33.515603240 $GPGGA,215733.000,3401.8864,N,11725.0176,W,2,11,0.82,320.8,M,-32.8,M,0000,0000*5F
13 57 33.956683539 $GPGSA,A,3,32,11,31,14,10,22,26,01,03,25,23,,1.15,0.82,0.79*04
13 57 34.060357263 $GPRMC,215733.000,A,3401.8864,N,11725.0176,W,0.07,150.75,031217,,,D*7B
13 57 34.163723998 $GPZDA,215733.000,03,12,2017,,*53
13 57 34.511056385 $GPGGA,215734.000,3401.8864,N,11725.0176,W,2,11,0.82,320.8,M,-32.8,M,0000,0000*58
13 57 34.951233737 $GPGSA,A,3,32,11,31,14,10,22,26,01,03,25,23,,1.15,0.82,0.79*04
13 57 35.054726472 $GPGSV,3,1,11,31,70,087,18,22,51,318,22,01,51,276,18,14,48,041,18*7C
13 57 35.158075215 $GPGSV,3,2,11,11,33,250,22,03,30,313,21,32,30,056,19,10,16,117,22*75
13 57 35.261190962 $GPGSV,3,3,11,23,14,264,16,26,14,145,19,25,11,055,15*40
13 57 35.364698701 $GPRMC,215734.000,A,3401.8864,N,11725.0176,W,0.08,78.40,031217,,,D*4E
13 57 35.469262418 $GPZDA,215734.000,03,12,2017,,*54
13 57 35.574777113 $GPGGA,215735.000,3401.8864,N,11725.0176,W,2,11,0.82,320.8,M,-32.8,M,0000,0000*59
13 57 36.016463466 $GPGSA,A,3,32,11,31,14,10,22,26,01,03,25,23,,1.15,0.82,0.79*04
13 57 36.119834216 $GPRMC,215735.000,A,3401.8864,N,11725.0176,W,0.05,357.94,031217,,,D*75
13 57 36.225784910 $GPZDA,215735.000,03,12,2017,,*55
13 57 36.536279151 $GPGGA,215736.000,3401.8864,N,11725.0176,W,2,11,0.85,320.8,M,-32.8,M,0000,0000*5D
13 57 36.980559481 $GPGSA,A,3,32,11,31,14,10,22,26,01,03,25,23,,1.56,0.85,1.31*09
13 57 37.087177166 $GPRMC,215736.000,A,3401.8864,N,11725.0176,W,0.11,323.28,031217,,,D*77
13 57 37.195511816 $GPZDA,215736.000,03,12,2017,,*56
13 57 37.545068234 $GPGGA,215737.000,3401.8864,N,11725.0176,W,2,11,0.82,320.8,M,-32.8,M,0000,0000*5B
13 57 37.990058582 $GPGSA,A,3,32,11,31,14,10,22,26,01,03,25,23,,1.14,0.82,0.79*05
13 57 38.093433346 $GPRMC,215737.000,A,3401.8864,N,11725.0176,W,0.12,338.46,031217,,,D*77
13 57 38.197942087 $GPZDA,215737.000,03,12,2017,,*57
13 57 38.541235666 $GPGGA,215738.000,3401.8865,N,11725.0176,W,2,11,0.82,320.8,M,-32.8,M,0000,0000*55
13 57 39.062844395 $GPGSA,A,3,32,11,31,14,10,22,26,01,03,25,23,,1.15,0.82,0.79*04
13 57 39.168125127 $GPRMC,215738.000,A,3401.8865,N,11725.0176,W,0.22,340.11,031217,,,D*77
13 57 39.278350753 $GPZDA,215738.000,03,12,2017,,*58
13 57 39.514001676 $GPGGA,215739.000,3401.8865,N,11725.0177,W,2,10,0.91,320.8,M,-32.8,M,0000,0000*56
13 57 39.955707161 $GPGSA,A,3,32,11,31,14,10,22,26,01,03,23,,,1.24,0.91,0.84*01
13 57 40.059004940 $GPGSV,3,1,11,31,70,087,19,22,51,318,19,01,51,276,19,14,48,041,19*75
13 57 40.162577716 $GPGSV,3,2,11,11,32,250,21,03,30,313,21,32,30,056,19,10,16,117,21*74
13 57 40.265908498 $GPGSV,3,3,11,23,14,264,15,26,14,145,18,25,11,055,*46
13 57 40.373848181 $GPRMC,215739.000,A,3401.8865,N,11725.0177,W,0.29,347.17,031217,,,D*7D
13 57 40.478481934 $GPZDA,215739.000,03,12,2017,,*59
13 57 40.583297684 $GPGGA,215740.000,3401.8866,N,11725.0177,W,2,10,0.99,320.8,M,-32.8,M,0000,0000*53
13 57 41.029002118 $GPGSA,A,3,32,11,31,14,10,22,26,01,03,23,,,1.86,0.99,1.58*01
13 57 41.132355907 $GPRMC,215740.000,A,3401.8866,N,11725.0177,W,0.19,354.94,031217,,,D*7A
13 57 41.235644697 $GPZDA,215740.000,03,12,2017,,*57
13 57 41.528959422 $GPGGA,215741.000,3401.8866,N,11725.0177,W,2,11,0.85,320.8,M,-32.8,M,0000,0000*5E
13 57 41.975101878 $GPGSA,A,3,32,11,31,14,10,22,26,01,03,25,23,,1.56,0.85,1.31*09
13 57 42.078461672 $GPRMC,215741.000,A,3401.8866,N,11725.0177,W,0.12,111.00,031217,,,D*7E
13 57 42.186209375 $GPZDA,215741.000,03,12,2017,,*56
13 57 42.474254234 $GPGGA,215742.000,3401.8866,N,11725.0176,W,2,11,0.82,320.8,M,-32.8,M,0000,0000*5B
13 57 42.913161877 $GPGSA,A,3,32,11,31,14,10,22,26,01,03,25,23,,1.14,0.82,0.79*05
13 57 43.018925623 $GPRMC,215742.000,A,3401.8866,N,11725.0176,W,0.14,155.52,031217,,,D*7D
13 57 43.122336426 $GPZDA,215742.000,03,12,2017,,*55
13 57 43.539771557 $GPGGA,215743.000,3401.8866,N,11725.0176,W,2,11,0.82,320.8,M,-32.8,M,0000,0000*5A
13 57 43.978745231 $GPGSA,A,3,32,11,31,14,10,22,26,01,03,25,23,,1.15,0.82,0.79*04
13 57 44.082110040 $GPRMC,215743.000,A,3401.8866,N,11725.0176,W,0.12,182.17,031217,,,D*71
13 57 44.185361854 $GPZDA,215743.000,03,12,2017,,*54
13 57 44.535047450 $GPGGA,215744.000,3401.8865,N,11725.0176,W,2,10,0.89,320.8,M,-32.8,M,0000,0000*54
13 57 44.982654973 $GPGSA,A,3,32,11,31,14,22,26,01,03,25,23,,,1.20,0.89,0.80*0E
13 57 45.087713755 $GPGSV,3,1,11,31,70,087,19,22,51,318,24,01,51,276,17,14,48,041,18*74
13 57 45.190979576 $GPGSV,3,2,11,11,32,250,21,03,30,313,19,32,30,056,18,10,16,117,*7D
13 57 45.294045401 $GPGSV,3,3,11,23,14,264,10,26,14,145,19,25,11,055,10*43
13 57 45.398247202 $GPRMC,215744.000,A,3401.8865,N,11725.0176,W,0.13,176.71,031217,,,D*7F
13 57 45.502932993 $GPZDA,215744.000,03,12,2017,,*53
13 57 45.607192794 $GPGGA,215745.000,3401.8865,N,11725.0176,W,2,09,0.92,320.8,M,-32.8,M,0000,0000*57
13 57 46.044997559 $GPGSA,A,3,32,11,31,14,26,01,03,25,23,,,,1.22,0.92,0.81*07
13 57 46.148285387 $GPRMC,215745.000,A,3401.8865,N,11725.0176,W,0.16,161.31,031217,,,D*79
13 57 46.251535216 $GPZDA,215745.000,03,12,2017,,*52
13 57 46.469673629 $GPGGA,215746.000,3401.8865,N,11725.0176,W,2,10,0.84,320.8,M,-32.8,M,0000,0000*5B
13 57 46.909783375 $GPGSA,A,3,32,11,31,14,10,26,01,03,25,23,,,1.17,0.84,0.80*06
13 57 47.013768188 $GPRMC,215746.000,A,3401.8865,N,11725.0176,W,0.21,150.57,031217,,,D*7C
13 57 47.117134023 $GPZDA,215746.000,03,12,2017,,*51
13 57 47.516472654 $GPGGA,215747.000,3401.8864,N,11725.0176,W,2,10,0.84,320.8,M,-32.8,M,0000,0000*5B
13 57 47.959211377 $GPGSA,A,3,32,11,31,14,10,26,01,03,25,23,,,1.17,0.84,0.80*06
13 57 48.066519133 $GPRMC,215747.000,A,3401.8864,N,11725.0176,W,0.24,135.71,031217,,,D*7E
13 57 48.170263966 $GPZDA,215747.000,03,12,2017,,*50
13 57 48.517043724 $GPGGA,215748.000,3401.8864,N,11725.0175,W,2,10,0.84,320.8,M,-32.8,M,0000,0000*57
13 57 48.955211574 $GPGSA,A,3,32,11,31,14,10,26,01,03,25,23,,,1.17,0.84,0.80*06
13 57 49.059759395 $GPRMC,215748.000,A,3401.8864,N,11725.0175,W,0.24,122.87,031217,,,D*7D
13 57 49.163317240 $GPZDA,215748.000,03,12,2017,,*5F
13 57 49.539995401 $GPGGA,215749.000,3401.8863,N,11725.0174,W,2,11,0.82,320.8,M,-32.8,M,0000,0000*57
13 57 49.980801227 $GPGSA,A,3,32,11,31,14,10,22,26,01,03,25,23,,1.15,0.82,0.79*04
13 57 50.085552053 $GPGSV,3,1,11,31,70,087,21,22,52,318,24,01,51,276,17,14,48,041,18*7C
13 57 50.188837911 $GPGSV,3,2,11,11,32,250,24,03,30,313,21,32,30,056,20,10,16,117,23*79
13 57 50.292439762 $GPGSV,3,3,11,23,14,264,13,26,14,145,21,25,11,055,13*48
13 57 50.395885617 $GPRMC,215749.000,A,3401.8863,N,11725.0174,W,0.19,83.65,031217,,,D*42
13 57 50.499691464 $GPZDA,215749.000,03,12,2017,,*5E
13 57 50.604366293 $GPGGA,215750.000,3401.8864,N,11725.0174,W,2,10,0.87,320.8,M,-32.8,M,0000,0000*5C
13 57 51.046461127 $GPGSA,A,3,32,11,31,14,10,22,26,01,03,25,,,1.21,0.87,0.83*02
13 57 51.151235962 $GPRMC,215750.000,A,3401.8864,N,11725.0174,W,0.11,46.81,031217,,,D*46
13 57 51.254482828 $GPZDA,215750.000,03,12,2017,,*56
13 57 51.529978133 $GPGGA,215751.000,3401.8864,N,11725.0173,W,2,10,0.87,320.8,M,-32.8,M,0000,0000*5A
13 57 51.973266971 $GPGSA,A,3,32,11,31,14,10,22,26,01,03,25,,,1.21,0.87,0.83*02
13 57 52.077805816 $GPRMC,215751.000,A,3401.8864,N,11725.0173,W,0.06,57.71,031217,,,D*49
13 57 52.181158687 $GPZDA,215751.000,03,12,2017,,*57
13 57 52.474947636 $GPGGA,215752.000,3401.8864,N,11725.0173,W,2,10,0.87,320.8,M,-32.8,M,0000,0000*59
13 57 52.914769577 $GPGSA,A,3,32,11,31,14,10,22,26,01,03,25,,,1.21,0.87,0.83*02
13 57 53.018190448 $GPRMC,215752.000,A,3401.8864,N,11725.0173,W,0.05,58.58,031217,,,D*4D
13 57 53.121192333 $GPZDA,215752.000,03,12,2017,,*54
13 57 53.463012317 $GPGGA,215753.000,3401.8864,N,11725.0173,W,2,10,0.87,320.8,M,-32.8,M,0000,0000*58
13 57 53.906991203 $GPGSA,A,3,32,11,31,14,10,22,26,01,03,25,,,1.21,0.87,0.83*02
13 57 54.010587077 $GPRMC,215753.000,A,3401.8864,N,11725.0173,W,0.08,16.17,031217,,,D*40
13 57 54.113442973 $GPZDA,215753.000,03,12,2017,,*55
13 57 54.572998572 $GPGGA,215754.000,3401.8864,N,11725.0173,W,2,10,0.87,320.8,M,-32.8,M,0000,0000*5F
13 57 55.047296873 $GPGSA,A,3,32,11,31,14,10,22,26,01,03,25,,,1.21,0.87,0.83*02
13 57 55.150414771 $GPGSV,3,1,12,31,70,087,20,22,52,318,20,01,51,276,18,14,48,041,18*75
13 57 55.256592606 $GPGSV,3,2,12,11,32,250,23,03,30,313,21,32,30,056,19,10,16,117,21*75
13 57 55.364104415 $GPGSV,3,3,12,23,14,264,,26,14,145,21,25,11,055,14,35,,,*48
13 57 55.468188293 $GPRMC,215754.000,A,3401.8864,N,11725.0173,W,0.16,344.65,031217,,,D*79
13 57 55.573756141 $GPZDA,215754.000,03,12,2017,,*52
13 57 55.679492985 $GPGGA,215755.000,3401.8865,N,11725.0173,W,2,10,0.87,320.8,M,-32.8,M,0000,0000*5F
13 57 56.116822078 $GPGSA,A,3,32,11,31,14,10,22,26,01,03,25,,,1.21,0.87,0.83*02
13 57 56.220465972 $GPRMC,215755.000,A,3401.8865,N,11725.0173,W,0.21,344.97,031217,,,D*70
13 57 56.323198885 $GPZDA,215755.000,03,12,2017,,*53
13 57 56.468545932 $GPGGA,215756.000,3401.8865,N,11725.0173,W,2,10,0.87,320.8,M,-32.8,M,0000,0000*5C
13 57 56.912221918 $GPGSA,A,3,32,11,31,14,10,22,26,01,03,25,,,1.21,0.87,0.83*02
13 57 57.015691817 $GPRMC,215756.000,A,3401.8865,N,11725.0173,W,0.13,344.04,031217,,,D*78
13 57 57.118900727 $GPZDA,215756.000,03,12,2017,,*50
13 57 57.517340660 $GPGGA,215757.000,3401.8866,N,11725.0174,W,2,10,0.87,320.8,M,-32.8,M,0000,0000*59
13 57 57.958568727 $GPGSA,A,3,32,11,31,14,10,22,26,01,03,25,,,1.21,0.87,0.83*02
13 57 58.062230632 $GPRMC,215757.000,A,3401.8866,N,11725.0174,W,0.09,331.52,031217,,,D*77
13 57 58.167918500 $GPZDA,215757.000,03,12,2017,,*51
13 57 58.473717329 $GPGGA,215758.000,3401.8866,N,11725.0174,W,2,10,0.87,320.8,M,-32.8,M,0000,0000*56
13 57 58.913261461 $GPGSA,A,3,32,11,31,14,10,22,26,01,03,25,,,1.21,0.87,0.83*02
13 57 59.016622376 $GPRMC,215758.000,A,3401.8866,N,11725.0174,W,0.03,279.64,031217,,,D*7A
13 57 59.119472308 $GPZDA,215758.000,03,12,2017,,*5E
13 57 59.522787198 $GPGGA,215759.000,3401.8866,N,11725.0174,W,2,10,0.87,320.8,M,-32.8,M,0000,0000*57
13 57 59.968728231 $GPGSA,A,3,32,11,31,14,10,22,26,01,03,25,,,1.21,0.87,0.83*02
13 58 00.072275154 $GPGSV,3,1,11,31,70,086,20,22,52,318,20,01,51,276,20,14,48,041,19*7D
13 58 00.175684081 $GPGSV,3,2,11,11,32,250,23,03,30,313,21,32,30,056,17,10,16,117,20*79
13 58 00.278812015 $GPGSV,3,3,11,23,14,264,,26,14,145,21,25,11,055,16*4F
13 58 00.382718932 $GPRMC,215759.000,A,3401.8866,N,11725.0174,W,0.06,223.58,031217,,,D*7E
13 58 00.487237838 $GPZDA,215759.000,03,12,2017,,*5F
13 58 00.592068737 $GPGGA,215800.000,3401.8866,N,11725.0174,W,2,10,0.87,320.8,M,-32.8,M,0000,0000*54
13 58 01.059109382 $GPGSA,A,3,32,11,31,14,10,22,26,01,03,25,,,1.21,0.87,0.83*02
13 58 01.170373160 $GPRMC,215800.000,A,3401.8866,N,11725.0174,W,0.04,189.42,031217,,,D*77
13 58 01.273546099 $GPZDA,215800.000,03,12,2017,,*5C
13 58 01.503329510 $GPGGA,215801.000,3401.8866,N,11725.0174,W,2,10,0.87,320.8,M,-32.8,M,0000,0000*55
13 58 01.942992729 $GPGSA,A,3,32,11,31,14,10,22,26,01,03,25,,,1.21,0.87,0.83*02
13 58 02.046912657 $GPRMC,215801.000,A,3401.8866,N,11725.0174,W,0.09,225.40,031217,,,D*7C
13 58 02.150451596 $GPZDA,215801.000,03,12,2017,,*5D
13 58 02.536153920 $GPGGA,215802.000,3401.8865,N,11725.0174,W,2,10,0.87,320.8,M,-32.8,M,0000,0000*55
13 58 02.983443018 $GPGSA,A,3,32,11,31,14,10,22,26,01,03,25,,,1.21,0.87,0.83*02
13 58 03.086875965 $GPRMC,215802.000,A,3401.8865,N,11725.0174,W,0.10,265.70,031217,,,D*73
13 58 03.190018919 $GPZDA,215802.000,03,12,2017,,*5E
13 58 03.467245420 $GPGGA,215803.000,3401.8865,N,11725.0174,W,2,10,0.87,320.8,M,-32.8,M,0000,0000*54
13 58 03.906634705 $GPGSA,A,3,32,11,31,14,10,22,26,01,03,25,,,1.21,0.87,0.83*02
13 58 04.010454646 $GPRMC,215803.000,A,3401.8865,N,11725.0174,W,0.16,301.83,031217,,,D*7B
13 58 04.113546608 $GPZDA,215803.000,03,12,2017,,*5F
13 58 04.494550077 $GPGGA,215804.000,3401.8866,N,11725.0175,W,2,10,0.87,320.8,M,-32.8,M,0000,0000*51
13 58 04.937734316 $GPGSA,A,3,32,11,31,14,10,22,26,01,03,25,,,1.21,0.87,0.83*02
13 58 05.042592246 $GPGSV,3,1,11,31,70,086,18,22,52,318,20,01,51,276,23,14,48,041,20*7F
13 58 05.146261204 $GPGSV,3,2,11,11,32,250,24,03,30,313,19,32,30,056,18,10,16,117,20*7A
13 58 05.249210176 $GPGSV,3,3,11,23,14,264,,26,14,145,20,25,11,055,17*4F
13 58 05.352922133 $GPRMC,215804.000,A,3401.8866,N,11725.0175,W,0.15,316.83,031217,,,D*7B
13 58 05.456672089 $GPZDA,215804.000,03,12,2017,,*58
13 58 05.561424026 $GPGGA,215805.000,3401.8866,N,11725.0175,W,2,10,0.87,320.8,M,-32.8,M,0000,0000*50
13 58 06.005371280 $GPGSA,A,3,32,11,31,14,10,22,26,01,03,25,,,1.21,0.87,0.83*02
13 58 06.111186203 $GPRMC,215805.000,A,3401.8866,N,11725.0175,W,0.18,327.63,031217,,,D*7B
13 58 06.214348178 $GPZDA,215805.000,03,12,2017,,*59
13 58 06.520829160 $GPGGA,215806.000,3401.8866,N,11725.0175,W,2,10,0.87,320.8,M,-32.8,M,0000,0000*53
13 58 06.960709524 $GPGSA,A,3,32,11,31,14,10,22,26,01,03,25,,,1.21,0.87,0.83*02
13 58 07.063995501 $GPRMC,215806.000,A,3401.8866,N,11725.0175,W,0.19,310.10,031217,,,D*79
13 58 07.169555435 $GPZDA,215806.000,03,12,2017,,*5A
13 58 07.478521390 $GPGGA,215807.000,3401.8867,N,11725.0176,W,2,10,0.87,320.8,M,-32.8,M,0000,0000*50
13 58 07.920466743 $GPGSA,A,3,32,11,31,14,10,22,26,01,03,25,,,1.21,0.87,0.83*02
13 58 08.023452730 $GPRMC,215807.000,A,3401.8867,N,11725.0176,W,0.22,289.59,031217,,,D*7E
13 58 08.126631718 $GPZDA,215807.000,03,12,2017,,*5B
13 58 08.537393708 $GPGGA,215808.000,3401.8867,N,11725.0177,W,2,10,0.87,320.8,M,-32.8,M,0000,0000*5E
13 58 08.981794043 $GPGSA,A,3,32,11,31,14,10,22,26,01,03,25,,,1.21,0.87,0.83*02
13 58 09.085440028 $GPRMC,215808.000,A,3401.8867,N,11725.0177,W,0.33,291.91,031217,,,D*7D
13 58 09.188547024 $GPZDA,215808.000,03,12,2017,,*54
13 58 09.536436264 $GPGGA,215809.000,3401.8867,N,11725.0178,W,2,11,0.82,320.8,M,-32.8,M,0000,0000*54
13 58 09.978778668 $GPGSA,A,3,32,11,31,14,10,22,26,01,03,25,23,,1.15,0.82,0.79*04
13 58 10.082231663 $GPGSV,3,1,12,31,70,086,20,22,52,318,20,01,51,276,20,14,48,041,19*7E
13 58 10.185651660 $GPGSV,3,2,12,11,32,250,24,03,30,313,19,32,30,056,18,10,15,118,18*7E
13 58 10.288882661 $GPGSV,3,3,12,23,14,264,20,26,14,145,18,25,11,055,16,36,,,*41
13 58 10.396927568 $GPRMC,215809.000,A,3401.8867,N,11725.0178,W,0.32,300.68,031217,,,D*7D
13 58 10.500984553 $GPZDA,215809.000,03,12,2017,,*55
13 58 10.604949539 $GPGGA,215810.000,3401.8868,N,11725.0179,W,2,11,0.82,320.8,M,-32.8,M,0000,0000*52
13 58 11.045121018 $GPGSA,A,3,32,11,31,14,10,22,26,01,03,25,23,,1.15,0.82,0.79*04
13 58 11.149397005 $GPRMC,215810.000,A,3401.8868,N,11725.0179,W,0.27,299.13,031217,,,D*72
13 58 11.252928007 $GPZDA,215810.000,03,12,2017,,*5D
13 58 11.534550571 $GPGGA,215811.000,3401.8868,N,11725.0179,W,2,11,0.82,320.8,M,-32.8,M,0000,0000*53
13 58 11.979488984 $GPGSA,A,3,32,11,31,14,10,22,26,01,03,25,23,,1.15,0.82,0.79*04
13 58 12.083143989 $GPRMC,215811.000,A,3401.8868,N,11725.0179,W,0.36,300.20,031217,,,D*72
13 58 12.186096008 $GPZDA,215811.000,03,12,2017,,*5C
13 58 12.533723322 $GPGGA,215812.000,3401.8868,N,11725.0181,W,2,11,0.82,320.8,M,-32.8,M,0000,0000*57
13 58 12.976075813 $GPGSA,A,3,32,11,31,14,10,22,26,01,03,25,23,,1.15,0.82,0.79*04
13 58 13.078716844 $GPRMC,215812.000,A,3401.8868,N,11725.0181,W,0.42,284.32,031217,,,D*7B
13 58 13.182109862 $GPZDA,215812.000,03,12,2017,,*5F
13 58 13.535826081 $GPGGA,215813.000,3401.8868,N,11725.0182,W,2,11,0.82,320.8,M,-32.8,M,0000,0000*55
13 58 13.975345656 $GPGSA,A,3,32,11,31,14,10,22,26,01,03,25,23,,1.15,0.82,0.79*04
13 58 14.078538683 $GPRMC,215813.000,A,3401.8868,N,11725.0182,W,0.56,267.69,031217,,,D*7F
13 58 14.181484716 $GPZDA,215813.000,03,12,2017,,*5E
13 58 14.582397057 $GPGGA,215814.000,3401.8868,N,11725.0184,W,2,11,0.82,320.8,M,-32.8,M,0000,0000*54
13 58 15.028026545 $GPGSA,A,3,32,11,31,14,10,22,26,01,03,25,23,,1.15,0.82,0.79*04
13 58 15.131197581 $GPGSV,3,1,12,31,70,086,28,22,52,318,23,01,51,276,20,14,47,041,22*72
13 58 15.234181620 $GPGSV,3,2,12,11,32,249,22,03,30,313,25,32,30,056,27,10,15,118,16*7D
13 58 15.337032662 $GPGSV,3,3,12,23,14,264,21,26,14,145,19,25,11,055,18,36,,,*4F
13 58 15.439718707 $GPRMC,215814.000,A,3401.8868,N,11725.0184,W,0.52,266.45,031217,,,D*75
13 58 15.544568710 $GPZDA,215814.000,03,12,2017,,*59
13 58 15.649729708 $GPGGA,215815.000,3401.8868,N,11725.0186,W,2,11,0.82,320.8,M,-32.8,M,0000,0000*57
13 58 16.087520378 $GPGSA,A,3,32,11,31,14,10,22,26,01,03,25,23,,1.15,0.82,0.79*04
13 58 16.192441387 $GPRMC,215815.000,A,3401.8868,N,11725.0186,W,0.54,237.24,031217,,,D*73
13 58 16.295866425 $GPZDA,215815.000,03,12,2017,,*58
13 58 16.533404918 $GPGGA,215816.000,3401.8866,N,11725.0187,W,2,11,0.82,320.8,M,-32.8,M,0000,0000*5B
13 58 16.972812580 $GPGSA,A,3,32,11,31,14,10,22,26,01,03,25,23,,1.15,0.82,0.79*04
13 58 17.076542616 $GPRMC,215816.000,A,3401.8866,N,11725.0187,W,0.68,226.10,031217,,,D*77
13 58 17.179996660 $GPZDA,215816.000,03,12,2017,,*5B
13 58 17.527881081 $GPGGA,215817.000,3401.8850,N,11725.0208,W,2,11,0.82,320.9,M,-32.8,M,0000,0000*5A
13 58 17.973710650 $GPGSA,A,3,32,11,31,14,10,22,26,01,03,25,23,,1.15,0.82,0.79*04
13 58 18.076774706 $GPRMC,215817.000,A,3401.8850,N,11725.0208,W,0.78,223.23,031217,,,D*73
13 58 18.181397734 $GPZDA,215817.000,03,12,2017,,*5A
13 58 18.590696020 $GPGGA,215818.000,3401.8853,N,11725.0212,W,2,11,0.82,320.9,M,-32.8,M,0000,0000*5D
13 58 19.029748748 $GPGSA,A,3,32,11,31,14,10,22,26,01,03,25,23,,1.15,0.82,0.79*04
13 58 19.132892810 $GPRMC,215818.000,A,3401.8853,N,11725.0212,W,0.59,217.01,031217,,,D*70
13 58 19.235933875 $GPZDA,215818.000,03,12,2017,,*55
13 58 19.549577984 $GPGGA,215819.000,3401.8849,N,11725.0214,W,2,11,0.82,320.9,M,-32.8,M,0000,0000*51
13 58 19.992083672 $GPGSA,A,3,32,11,31,14,10,22,26,01,03,25,23,,1.15,0.82,0.80*02
13 58 20.095897728 $GPGSV,3,1,12,31,70,086,32,22,52,318,23,01,51,276,28,14,47,041,29*7A
13 58 20.199492789 $GPGSV,3,2,12,11,32,249,28,03,30,313,24,32,30,056,29,10,15,118,23*7E
13 58 20.303151849 $GPGSV,3,3,12,23,14,264,20,26,14,145,20,25,11,055,21,38,,,*40
13 58 20.406585913 $GPRMC,215819.000,A,3401.8849,N,11725.0214,W,0.56,207.69,031217,,,D*7C
13 58 20.510191973 $GPZDA,215819.000,03,12,2017,,*54
13 58 20.614602019 $GPGGA,215820.000,3401.8844,N,11725.0218,W,2,11,0.82,320.9,M,-32.8,M,0000,0000*5A
13 58 21.058465714 $GPGSA,A,3,32,11,31,14,10,22,26,01,03,25,23,,1.15,0.82,0.79*04
13 58 21.161667788 $GPRMC,215820.000,A,3401.8844,N,11725.0218,W,0.48,218.06,031217,,,D*7F
13 58 21.265235856 $GPZDA,215820.000,03,12,2017,,*5E
13 58 21.582538937 $GPGGA,215821.000,3401.8835,N,11725.0225,W,2,11,0.82,321.0,M,-32.8,M,0000,0000*5B
13 58 22.021216754 $GPGSA,A,3,32,11,31,14,10,22,26,01,03,25,23,,1.15,0.82,0.80*02
13 58 22.125165821 $GPRMC,215821.000,A,3401.8835,N,11725.0225,W,0.54,218.79,031217,,,D*73
13 58 22.227950910 $GPZDA,215821.000,03,12,2017,,*5F
13 58 22.514403584 $GPGGA,215822.000,3401.8830,N,11725.0228,W,2,11,0.82,321.0,M,-32.8,M,0000,0000*50
13 58 22.954844395 $GPGSA,A,3,32,11,31,14,10,22,26,01,03,25,23,,1.15,0.82,0.79*04
13 58 23.061303420 $GPRMC,215822.000,A,3401.8830,N,11725.0228,W,0.45,168.78,031217,,,D*7D
13 58 23.163979517 $GPZDA,215822.000,03,12,2017,,*5C
13 58 23.571861959 $GPGGA,215823.000,3401.8829,N,11725.0227,W,2,11,0.82,321.0,M,-32.8,M,0000,0000*56
13 58 24.014085766 $GPGSA,A,3,32,11,31,14,10,22,26,01,03,25,23,,1.15,0.82,0.80*02
13 58 24.122570762 $GPRMC,215823.000,A,3401.8829,N,11725.0227,W,0.36,158.58,031217,,,D*7E
13 58 24.225909854 $GPZDA,215823.000,03,12,2017,,*5D
13 58 24.510720594 $GPGGA,215824.000,3401.8828,N,11725.0227,W,2,11,0.82,321.0,M,-32.8,M,0000,0000*50
13 58 24.953020426 $GPGSA,A,3,32,11,31,14,10,22,26,01,03,25,23,,1.15,0.82,0.80*02
13 58 25.056767514 $GPGSV,3,1,12,31,70,086,27,22,52,318,19,01,51,276,18,14,47,041,23*7E
13 58 25.162888561 $GPGSV,3,2,12,11,32,249,17,03,30,313,19,32,30,056,36,10,15,118,18*7A
13 58 25.266483654 $GPGSV,3,3,12,23,14,265,21,26,14,145,18,25,11,055,15,41,,,*42
13 58 25.371390723 $GPRMC,215824.000,A,3401.8828,N,11725.0227,W,0.28,41.62,031217,,,D*47
13 58 25.479908726 $GPZDA,215824.000,03,12,2017,,*5A
13 58 25.584430802 $GPGGA,215825.000,3401.8828,N,11725.0226,W,2,11,0.82,321.0,M,-32.8,M,0000,0000*50
13 58 26.024903697 $GPGSA,A,3,32,11,31,14,10,22,26,01,03,25,23,,1.15,0.82,0.80*02
13 58 26.128533796 $GPRMC,215825.000,A,3401.8828,N,11725.0226,W,0.65,178.97,031217,,,D*7F
13 58 26.231918900 $GPZDA,215825.000,03,12,2017,,*5B
13 58 26.590514322 $GPGGA,215826.000,3401.8818,N,11725.0225,W,2,11,0.82,321.0,M,-32.8,M,0000,0000*53
13 58 27.036424145 $GPGSA,A,3,32,11,31,14,10,22,26,01,03,25,23,,1.15,0.82,0.80*02
13 58 27.139486261 $GPRMC,215826.000,A,3401.8818,N,11725.0225,W,0.23,194.56,031217,,,D*71
13 58 27.242611376 $GPZDA,215826.000,03,12,2017,,*58
13 58 27.601100822 $GPGGA,215827.000,3401.8790,N,11725.0205,W,2,11,0.82,321.2,M,-32.8,M,0000,0000*5D
13 58 28.043365740 $GPGSA,A,3,32,11,31,14,10,22,26,01,03,25,23,,1.15,0.82,0.80*02
13 58 28.147178849 $GPRMC,215827.000,A,3401.8790,N,11725.0205,W,0.88,160.21,031217,,,D*77
13 58 28.254399895 $GPZDA,215827.000,03,12,2017,,*59
13 58 28.543021637 $GPGGA,215828.000,3401.8783,N,11725.0202,W,2,11,0.82,321.2,M,-32.8,M,0000,0000*57
13 58 28.982534629 $GPGSA,A,3,32,11,31,14,10,22,26,01,03,25,23,,1.15,0.82,0.80*02
13 58 29.086153746 $GPRMC,215828.000,A,3401.8783,N,11725.0202,W,0.55,157.41,031217,,,D*7F
13 58 29.189256874 $GPZDA,215828.000,03,12,2017,,*56
13 58 29.612104196 $GPGGA,215829.000,3401.8778,N,11725.0202,W,2,11,0.82,321.2,M,-32.8,M,0000,0000*52
13 58 30.058757090 $GPGSA,A,3,32,11,31,14,10,22,26,01,03,25,23,,1.15,0.82,0.80*02
13 58 30.162654209 $GPGSV,3,1,12,31,70,086,30,22,52,318,27,01,51,276,26,14,47,041,32*78
13 58 30.266191336 $GPGSV,3,2,12,11,32,249,24,03,30,313,26,32,30,056,34,10,15,118,21*7E
13 58 30.369133473 $GPGSV,3,3,12,23,14,265,23,26,14,144,18,25,11,055,23,43,,,*46
13 58 30.472666599 $GPRMC,215829.000,A,3401.8778,N,11725.0202,W,0.38,187.72,031217,,,D*7C
13 58 30.576824714 $GPZDA,215829.000,03,12,2017,,*57
13 58 30.681531819 $GPGGA,215830.000,3401.8776,N,11725.0201,W,2,11,0.82,321.2,M,-32.8,M,0000,0000*57
13 58 31.120307886 $GPGSA,A,3,32,11,31,14,10,22,26,01,03,25,23,,1.15,0.82,0.80*02
13 58 31.223581024 $GPRMC,215830.000,A,3401.8776,N,11725.0201,W,0.26,235.06,031217,,,D*7F
13 58 31.326469168 $GPZDA,215830.000,03,12,2017,,*5F
13 58 31.567311824 $GPGGA,215831.000,3401.8777,N,11725.0200,W,2,11,0.82,321.3,M,-32.8,M,0000,0000*57
13 58 32.008344870 $GPGSA,A,3,32,11,31,14,10,22,26,01,03,25,23,,1.15,0.82,0.80*02
13 58 32.112532997 $GPRMC,215831.000,A,3401.8777,N,11725.0200,W,0.31,244.52,031217,,,D*7F
13 58 32.215996137 $GPZDA,215831.000,03,12,2017,,*5E
13 58 32.606321121 $GPGGA,215832.000,3401.8776,N,11725.0201,W,2,11,0.82,321.3,M,-32.8,M,0000,0000*54
13 58 33.052796098 $GPGSA,A,3,32,11,31,14,10,22,26,01,03,25,23,,1.15,0.82,0.80*02
13 58 33.156417242 $GPRMC,215832.000,A,3401.8776,N,11725.0201,W,0.24,282.48,031217,,,D*79
13 58 33.259393397 $GPZDA,215832.000,03,12,2017,,*5D
13 58 33.543166313 $GPGGA,215833.000,3401.8776,N,11725.0202,W,2,11,0.82,321.3,M,-32.8,M,0000,0000*56
13 58 33.982894436 $GPGSA,A,3,32,11,31,14,10,22,26,01,03,25,23,,1.15,0.82,0.80*02
13 58 34.087007575 $GPRMC,215833.000,A,3401.8776,N,11725.0202,W,0.24,354.85,031217,,,D*70
13 58 34.190004736 $GPZDA,215833.000,03,12,2017,,*5C
13 58 34.561724100 $GPGGA,215834.000,3401.8777,N,11725.0202,W,2,11,0.85,321.3,M,-32.8,M,0000,0000*57
13 58 35.004266198 $GPGSA,A,3,32,11,31,14,10,22,26,01,03,25,23,,1.56,0.85,1.31*09
13 58 35.108049351 $GPGSV,3,1,12,31,70,085,29,22,52,318,27,01,51,276,26,14,47,041,26*76
13 58 35.211752506 $GPGSV,3,2,12,11,32,249,25,03,30,313,27,32,30,057,25,10,15,118,24*7A
13 58 35.315587658 $GPGSV,3,3,12,23,14,265,21,26,14,144,22,25,11,055,22,45,,,*4A
13 58 35.418743822 $GPRMC,215834.000,A,3401.8777,N,11725.0202,W,0.28,59.61,031217,,,D*4E
13 58 35.523046966 $GPZDA,215834.000,03,12,2017,,*5B
13 58 35.628420091 $GPGGA,215835.000,3401.8777,N,11725.0201,W,2,11,0.82,321.3,M,-32.8,M,0000,0000*52
13 58 36.071338214 $GPGSA,A,3,32,11,31,14,10,22,26,01,03,25,23,,1.15,0.82,0.80*02
13 58 36.174973376 $GPRMC,215835.000,A,3401.8777,N,11725.0201,W,0.24,33.54,031217,,,D*4A
13 58 36.278605538 $GPZDA,215835.000,03,12,2017,,*5A
13 58 36.587536059 $GPGGA,215836.000,3401.8778,N,11725.0200,W,2,11,0.82,321.3,M,-32.8,M,0000,0000*5F
13 58 37.026418276 $GPGSA,A,3,32,11,31,14,10,22,26,01,03,25,23,,1.15,0.82,0.80*02
13 58 37.129517454 $GPRMC,215836.000,A,3401.8778,N,11725.0200,W,0.12,314.89,031217,,,D*74
13 58 37.235257585 $GPZDA,215836.000,03,12,2017,,*59
13 58 37.536872254 $GPGGA,215837.000,3401.8778,N,11725.0201,W,2,11,0.82,321.3,M,-32.8,M,0000,0000*5F
13 58 37.976237488 $GPGSA,A,3,32,11,31,14,10,22,26,01,03,25,23,,1.15,0.82,0.80*02
13 58 38.083134603 $GPRMC,215837.000,A,3401.8778,N,11725.0201,W,0.44,277.99,031217,,,D*72
13 58 38.189229734 $GPZDA,215837.000,03,12,2017,,*58
13 58 38.530276726 $GPGGA,215838.000,3401.8778,N,11725.0202,W,2,11,0.82,321.3,M,-32.8,M,0000,0000*53
13 58 39.005046362 $GPGSA,A,3,32,11,31,14,10,22,26,01,03,25,23,,1.15,0.82,0.80*02
13 58 39.108291549 $GPRMC,215838.000,A,3401.8778,N,11725.0202,W,0.12,317.75,031217,,,D*78
13 58 39.211234742 $GPZDA,215838.000,03,12,2017,,*57
13 58 39.602270877 $GPGGA,215839.000,3401.8778,N,11725.0202,W,2,11,0.82,321.3,M,-32.8,M,0000,0000*52
13 58 40.044202120 $GPGSA,A,3,32,11,31,14,10,22,26,01,03,25,23,,1.15,0.82,0.80*02
13 58 40.147706309 $GPGSV,3,1,12,31,70,085,26,22,52,318,29,01,51,276,22,14,47,041,35*71
13 58 40.251479493 $GPGSV,3,2,12,11,32,249,25,03,30,313,30,32,30,057,30,10,15,118,17*78
13 58 40.354662687 $GPGSV,3,3,12,23,14,265,24,26,14,144,17,25,11,055,20,45,,,*4B
13 58 40.463265787 $GPRMC,215839.000,A,3401.8778,N,11725.0202,W,0.18,47.96,031217,,,D*48
13 58 40.567830957 $GPZDA,215839.000,03,12,2017,,*56
13 58 40.674190096 $GPGGA,215840.000,3401.8778,N,11725.0202,W,2,11,0.82,321.3,M,-32.8,M,0000,0000*5C
13 58 41.114641395 $GPGSA,A,3,32,11,31,14,10,22,26,01,03,25,23,,1.15,0.82,0.80*02
13 58 41.217734597 $GPRMC,215840.000,A,3401.8778,N,11725.0202,W,0.20,98.43,031217,,,D*47
13 58 41.320541804 $GPZDA,215840.000,03,12,2017,,*58
13 58 41.533218095 $GPGGA,215841.000,3401.8779,N,11725.0201,W,2,11,0.82,321.3,M,-32.8,M,0000,0000*5F
13 58 41.977164353 $GPGSA,A,3,32,11,31,14,10,22,26,01,03,25,23,,1.15,0.82,0.80*02
13 58 42.081541537 $GPRMC,215841.000,A,3401.8779,N,11725.0201,W,0.31,359.37,031217,,,D*79
13 58 42.184584746 $GPZDA,215841.000,03,12,2017,,*59
13 58 42.575021959 $GPGGA,215842.000,3401.8779,N,11725.0201,W,2,11,0.85,321.3,M,-32.8,M,0000,0000*5B
13 58 43.015195309 $GPGSA,A,3,32,11,31,14,10,22,26,01,03,25,23,,1.56,0.85,1.31*09
13 58 43.118510519 $GPRMC,215842.000,A,3401.8779,N,11725.0201,W,0.21,22.96,031217,,,D*4F
13 58 43.224682680 $GPZDA,215842.000,03,12,2017,,*5A
13 58 43.530040390 $GPGGA,215843.000,3401.8780,N,11725.0201,W,2,11,0.82,321.3,M,-32.8,M,0000,0000*5B
13 58 43.968651792 $GPGSA,A,3,32,11,31,14,10,22,26,01,03,25,23,,1.15,0.82,0.80*02
13 58 44.072251001 $GPRMC,215843.000,A,3401.8780,N,11725.0201,W,0.23,70.13,031217,,,D*40
13 58 44.175391220 $GPZDA,215843.000,03,12,2017,,*5B
13 58 44.584482157 $GPGGA,215844.000,3401.8780,N,11725.0200,W,2,11,0.82,321.2,M,-32.8,M,0000,0000*5C
13 58 45.031375443 $GPGSA,A,3,32,11,31,14,10,22,26,01,03,25,23,,1.15,0.82,0.80*02
13 58 45.135004660 $GPGSV,3,1,12,31,70,085,18,22,52,318,24,01,51,276,25,14,47,041,19*78
13 58 45.237832891 $GPGSV,3,2,12,11,32,249,23,03,30,313,23,32,30,057,22,10,15,118,20*7B
13 58 45.341149113 $GPGSV,3,3,12,23,14,265,20,26,14,144,23,25,11,055,17,46,,,*4F
13 58 45.445384319 $GPRMC,215844.000,A,3401.8780,N,11725.0200,W,0.29,84.15,031217,,,D*41
13 58 45.549596526 $GPZDA,215844.000,03,12,2017,,*5C
13 58 45.653526738 $GPGGA,215845.000,3401.8780,N,11725.0199,W,2,11,0.82,321.2,M,-32.8,M,0000,0000*5E
13 58 46.091230211 $GPGSA,A,3,32,11,31,14,10,22,26,01,03,25,23,,1.15,0.82,0.80*02
13 58 46.194341443 $GPRMC,215845.000,A,3401.8780,N,11725.0199,W,0.37,96.55,031217,,,D*4B
13 58 46.297060681 $GPZDA,215845.000,03,12,2017,,*5D
13 58 46.488306401 $GPGGA,215846.000,3401.8780,N,11725.0198,W,2,11,0.82,321.2,M,-32.8,M,0000,0000*5C
13 58 46.928707848 $GPGSA,A,3,32,11,31,14,10,22,26,01,03,25,23,,1.15,0.82,0.80*02
13 58 47.032728066 $GPRMC,215846.000,A,3401.8780,N,11725.0198,W,0.36,102.18,031217,,,D*7D
13 58 47.136220297 $GPZDA,215846.000,03,12,2017,,*5E
13 58 47.525010651 $GPGGA,215847.000,3401.8780,N,11725.0197,W,2,11,0.82,321.2,M,-32.8,M,0000,0000*52
13 58 47.969635051 $GPGSA,A,3,32,11,31,14,10,22,26,01,03,25,23,,1.15,0.82,0.80*02
13 58 48.074471264 $GPRMC,215847.000,A,3401.8780,N,11725.0197,W,0.36,103.85,031217,,,D*76
13 58 48.177717505 $GPZDA,215847.000,03,12,2017,,*5F
13 58 48.524119604 $GPGGA,215848.000,3401.8780,N,11725.0196,W,2,10,1.00,321.2,M,-32.8,M,0000,0000*56
13 58 48.964303105 $GPGSA,A,3,32,11,31,14,10,22,01,03,25,23,,,1.28,1.00,0.80*03
13 58 49.067779346 $GPRMC,215848.000,A,3401.8780,N,11725.0196,W,0.40,97.57,031217,,,D*4A
13 58 49.171064592 $GPZDA,215848.000,03,12,2017,,*50
13 58 49.496740063 $GPGGA,215849.000,3401.8780,N,11725.0194,W,2,10,1.00,321.2,M,-32.8,M,0000,0000*55
13 58 49.936860590 $GPGSA,A,3,32,11,31,14,10,22,01,03,25,23,,,1.28,1.00,0.80*03
13 58 50.042025807 $GPGSV,3,1,12,31,70,085,19,22,52,318,19,01,51,276,22,14,47,041,18*71
13 58 50.147167027 $GPGSV,3,2,12,11,32,249,18,03,30,313,19,32,30,057,19,10,15,118,19*78
13 58 50.250456279 $GPGSV,3,3,12,23,14,265,17,26,14,144,,25,11,055,17,47,,,*4B
13 58 50.353893529 $GPRMC,215849.000,A,3401.8780,N,11725.0194,W,0.35,104.35,031217,,,D*74
13 58 50.457740771 $GPZDA,215849.000,03,12,2017,,*51
13 58 50.564543964 $GPGGA,215850.000,3401.8779,N,11725.0193,W,2,10,1.00,321.2,M,-32.8,M,0000,0000*5C
13 58 51.011272404 $GPGSA,A,3,32,11,31,14,10,22,01,03,25,23,,,1.28,1.00,0.80*03
13 58 51.114667660 $GPRMC,215850.000,A,3401.8779,N,11725.0193,W,0.18,113.63,031217,,,D*77
13 58 51.217988918 $GPZDA,215850.000,03,12,2017,,*59
13 58 51.541415463 $GPGGA,215851.000,3401.8779,N,11725.0193,W,2,10,1.00,321.2,M,-32.8,M,0000,0000*5D
13 58 51.986206961 $GPGSA,A,3,32,11,31,14,10,22,01,03,25,23,,,1.28,1.00,0.80*03
13 58 52.089525222 $GPRMC,215851.000,A,3401.8779,N,11725.0193,W,0.25,151.20,031217,,,D*79
13 58 52.192342494 $GPZDA,215851.000,03,12,2017,,*58
13 58 52.469310838 $GPGGA,215852.000,3401.8778,N,11725.0192,W,2,10,1.00,321.2,M,-32.8,M,0000,0000*5E
13 58 52.914481355 $GPGSA,A,3,32,11,31,14,10,22,01,03,25,23,,,1.28,1.00,0.80*03
13 58 53.018037614 $GPRMC,215852.000,A,3401.8778,N,11725.0192,W,0.38,184.85,031217,,,D*71
13 58 53.122055872 $GPZDA,215852.000,03,12,2017,,*5B
13 58 53.520373198 $GPGGA,215853.000,3401.8777,N,11725.0193,W,2,10,1.00,321.2,M,-32.8,M,0000,0000*51
13 58 53.966746719 $GPGSA,A,3,32,11,31,14,10,22,01,03,25,23,,,1.28,1.00,0.80*03
13 58 54.070356987 $GPRMC,215853.000,A,3401.8777,N,11725.0193,W,0.40,222.89,031217,,,D*72
13 58 54.173649262 $GPZDA,215853.000,03,12,2017,,*5A
13 58 54.478379173 $GPGGA,215854.000,3401.8777,N,11725.0194,W,2,11,0.82,321.2,M,-32.8,M,0000,0000*5B
13 58 54.923622738 $GPGSA,A,3,32,11,31,14,10,22,26,01,03,25,23,,1.15,0.82,0.80*02
13 58 55.027322008 $GPGSV,3,1,12,31,70,085,24,22,52,318,18,01,51,276,19,14,47,041,19*77
13 58 55.130927283 $GPGSV,3,2,12,11,32,249,15,03,30,313,19,32,30,057,19,10,15,118,19*75
13 58 55.237248514 $GPGSV,3,3,12,23,14,265,15,26,14,144,20,25,11,055,17,47,,,*4B
13 58 55.340763791 $GPRMC,215854.000,A,3401.8777,N,11725.0194,W,0.43,241.14,031217,,,D*70
13 58 55.449107988 $GPZDA,215854.000,03,12,2017,,*5D
13 58 55.555646215 $GPGGA,215855.000,3401.8776,N,11725.0195,W,2,11,0.82,321.2,M,-32.8,M,0000,0000*5A
13 58 55.994344913 $GPGSA,A,3,32,11,31,14,10,22,26,01,03,25,23,,1.15,0.82,0.80*02
13 58 56.097444202 $GPRMC,215855.000,A,3401.8776,N,11725.0195,W,0.48,254.05,031217,,,D*7E
13 58 56.200691490 $GPZDA,215855.000,03,12,2017,,*5C
13 58 56.520376187 $GPGGA,215856.000,3401.8776,N,11725.0196,W,2,11,0.82,321.2,M,-32.8,M,0000,0000*5A
13 58 56.964462820 $GPGSA,A,3,32,11,31,14,10,22,26,01,03,25,23,,1.15,0.82,0.80*02
13 58 57.067854108 $GPRMC,215856.000,A,3401.8776,N,11725.0196,W,0.51,256.24,031217,,,D*77
13 58 57.170875405 $GPZDA,215856.000,03,12,2017,,*5F
13 58 57.537818338 $GPGGA,215857.000,3401.8775,N,11725.0198,W,2,11,0.82,321.2,M,-32.8,M,0000,0000*56
13 58 57.978079059 $GPGSA,A,3,32,11,31,14,10,22,26,01,03,25,23,,1.15,0.82,0.80*02
13 58 58.083933313 $GPRMC,215857.000,A,3401.8775,N,11725.0198,W,0.51,250.59,031217,,,D*77
13 58 58.188976582 $GPZDA,215857.000,03,12,2017,,*5E
13 58 58.533068912 $GPGGA,215858.000,3401.8775,N,11725.0200,W,2,11,0.82,321.2,M,-32.8,M,0000,0000*5B
13 58 58.977558588 $GPGSA,A,3,32,11,31,14,10,22,26,01,03,25,23,,1.15,0.82,0.80*02
13 58 59.081207884 $GPRMC,215858.000,A,3401.8775,N,11725.0200,W,0.48,238.78,031217,,,D*7F
13 58 59.184561187 $GPZDA,215858.000,03,12,2017,,*51
13 58 59.485100251 $GPGGA,215859.000,3401.8774,N,11725.0201,W,2,11,0.82,321.2,M,-32.8,M,0000,0000*5A
13 58 59.929197957 $GPGSA,A,3,32,11,31,14,10,22,26,01,03,25,23,,1.15,0.82,0.80*02
13 59 00.037593178 $GPGSV,3,1,11,31,70,085,21,22,52,318,18,01,51,276,18,14,47,041,19*70
13 59 00.140743490 $GPGSV,3,2,11,11,32,249,17,03,30,313,18,32,30,057,17,10,15,118,20*71
13 59 00.244008799 $GPGSV,3,3,11,23,14,265,15,26,14,144,19,25,11,055,17*41
13 59 00.346677119 $GPRMC,215859.000,A,3401.8774,N,11725.0201,W,0.60,235.24,031217,,,D*70
13 59 00.450798415 $GPZDA,215859.000,03,12,2017,,*50
13 59 00.554717713 $GPGGA,215900.000,3401.8776,N,11725.0205,W,2,11,0.82,321.2,M,-32.8,M,0000,0000*51
13 59 00.996881476 $GPGSA,A,3,32,11,31,14,10,22,26,01,03,25,23,,1.15,0.82,0.80*02
13 59 01.134706226 $GPRMC,215900.000,A,3401.8776,N,11725.0205,W,0.59,238.87,031217,,,D*75
13 59 01.237766545 $GPZDA,215900.000,03,12,2017,,*5D
13 59 01.531532752 $GPGGA,215901.000,3401.8774,N,11725.0208,W,2,11,0.82,321.2,M,-32.8,M,0000,0000*5F
13 59 01.973168547 $GPGSA,A,3,32,11,31,14,10,22,26,01,03,25,23,,1.15,0.82,0.80*02
13 59 02.077202853 $GPRMC,215901.000,A,3401.8774,N,11725.0208,W,0.63,235.57,031217,,,D*72
13 59 02.180200179 $GPZDA,215901.000,03,12,2017,,*5C
13 59 02.523794591 $GPGGA,215902.000,3401.8777,N,11725.0209,W,2,11,0.82,321.2,M,-32.8,M,0000,0000*5E
13 59 02.968642358 $GPGSA,A,3,32,11,31,14,10,22,26,01,03,25,23,,1.15,0.82,0.80*02
13 59 03.072460673 $GPRMC,215902.000,A,3401.8777,N,11725.0209,W,0.53,240.49,031217,,,D*7D
13 59 03.177408972 $GPZDA,215902.000,03,12,2017,,*5F
13 59 03.541882065 $GPGGA,215903.000,3401.8787,N,11725.0200,W,2,11,0.82,321.2,M,-32.8,M,0000,0000*59
13 59 03.985793870 $GPGSA,A,3,32,11,31,14,10,22,26,01,03,25,23,,1.15,0.82,0.80*02
13 59 04.088705207 $GPRMC,215903.000,A,3401.8787,N,11725.0200,W,0.25,254.44,031217,,,D*73
13 59 04.192063537 $GPZDA,215903.000,03,12,2017,,*5E
13 59 04.496011627 $GPGGA,215904.000,3401.8790,N,11725.0194,W,2,11,0.82,321.2,M,-32.8,M,0000,0000*56
13 59 04.938696476 $GPGSA,A,3,32,11,31,14,10,22,26,01,03,25,23,,1.15,0.82,0.80*02
13 59 05.042503801 $GPGSV,3,1,11,31,70,085,21,22,52,318,17,01,51,276,18,14,47,041,19*7F
13 59 05.146172132 $GPGSV,3,2,11,11,32,249,17,03,30,313,16,32,30,057,15,10,15,118,20*7D
13 59 05.249588467 $GPGSV,3,3,11,23,14,265,16,26,14,144,19,25,11,055,16*43
13 59 05.353261798 $GPRMC,215904.000,A,3401.8790,N,11725.0194,W,0.12,248.90,031217,,,D*7C
13 59 05.457408121 $GPZDA,215904.000,03,12,2017,,*59
13 59 05.561600443 $GPGGA,215905.000,3401.8797,N,11725.0185,W,2,11,0.82,321.2,M,-32.8,M,0000,0000*50
13 59 06.005177301 $GPGSA,A,3,32,11,31,14,10,22,26,01,03,25,23,,1.15,0.82,0.80*02
13 59 06.108462644 $GPRMC,215905.000,A,3401.8797,N,11725.0185,W,0.12,51.99,031217,,,D*49
13 59 06.211925983 $GPZDA,215905.000,03,12,2017,,*58
13 59 06.483780621 $GPGGA,215906.000,3401.8798,N,11725.0184,W,2,11,0.82,321.2,M,-32.8,M,0000,0000*5D
13 59 06.923202569 $GPGSA,A,3,32,11,31,14,10,22,26,01,03,25,23,,1.15,0.82,0.80*02
13 59 07.026753909 $GPRMC,215906.000,A,3401.8798,N,11725.0184,W,0.26,53.71,031217,,,D*47
13 59 07.129869259 $GPZDA,215906.000,03,12,2017,,*5B
13 59 07.547957572 $GPGGA,215907.000,3401.8798,N,11725.0184,W,2,11,0.82,321.2,M,-32.8,M,0000,0000*5C
13 59 07.987616540 $GPGSA,A,3,32,11,31,14,10,22,26,01,03,25,23,,1.15,0.82,0.80*02
13 59 08.091476883 $GPRMC,215907.000,A,3401.8798,N,11725.0184,W,0.25,44.83,031217,,,D*4E
13 59 08.194820236 $GPZDA,215907.000,03,12,2017,,*5A
13 59 08.514553139 $GPGGA,215908.000,3401.8799,N,11725.0183,W,2,11,0.82,321.2,M,-32.8,M,0000,0000*55
13 59 08.960831024 $GPGSA,A,3,32,11,31,14,10,22,26,01,03,25,23,,1.15,0.82,0.80*02
13 59 09.064017382 $GPRMC,215908.000,A,3401.8799,N,11725.0183,W,0.17,18.76,031217,,,D*45
13 59 09.167309741 $GPZDA,215908.000,03,12,2017,,*55
13 59 09.520649126 $GPGGA,215909.000,3401.8799,N,11725.0183,W,2,11,0.82,321.2,M,-32.8,M,0000,0000*54
13 59 09.962911099 $GPGSA,A,3,32,11,31,14,10,22,26,01,03,25,23,,1.15,0.82,0.80*02
13 59 10.066799451 $GPGSV,3,1,11,31,70,084,22,22,52,318,17,01,51,276,17,14,47,041,20*78
13 59 10.169487825 $GPGSV,3,2,11,11,32,249,17,03,30,313,15,32,30,057,17,10,15,118,18*77
13 59 10.273031185 $GPGSV,3,3,11,23,14,265,14,26,14,144,20,25,11,055,16*4B
13 59 10.376818542 $GPRMC,215909.000,A,3401.8799,N,11725.0183,W,0.30,356.15,031217,,,D*7D
13 59 10.485898814 $GPZDA,215909.000,03,12,2017,,*54
13 59 10.590578156 $GPGGA,215910.000,3401.8800,N,11725.0183,W,2,11,0.85,321.2,M,-32.8,M,0000,0000*54
13 59 11.031646172 $GPGSA,A,3,32,11,31,14,10,22,26,01,03,25,23,,1.56,0.85,1.31*09
13 59 11.137338504 $GPRMC,215910.000,A,3401.8800,N,11725.0183,W,0.35,351.79,031217,,,D*72
13 59 11.240713872 $GPZDA,215910.000,03,12,2017,,*5C
13 59 11.513973559 $GPGGA,215911.000,3401.8801,N,11725.0183,W,2,11,0.85,321.2,M,-32.8,M,0000,0000*54
13 59 11.959167531 $GPGSA,A,3,32,11,31,14,10,22,26,01,03,25,23,,1.56,0.85,1.31*09
13 59 12.062400905 $GPRMC,215911.000,A,3401.8801,N,11725.0183,W,0.37,353.58,031217,,,D*71
13 59 12.165677280 $GPZDA,215911.000,03,12,2017,,*5D
13 59 12.521037689 $GPGGA,215912.000,3401.8802,N,11725.0183,W,2,11,0.85,321.2,M,-32.8,M,0000,0000*54
13 59 12.961386761 $GPGSA,A,3,32,11,31,14,10,22,26,01,03,25,23,,1.56,0.85,1.31*09
13 59 13.064934135 $GPRMC,215912.000,A,3401.8802,N,11725.0183,W,0.41,350.62,031217,,,D*7A
13 59 13.167843521 $GPZDA,215912.000,03,12,2017,,*5E
13 59 13.492349432 $GPGGA,215913.000,3401.8803,N,11725.0184,W,2,11,0.85,321.2,M,-32.8,M,0000,0000*53
13 59 13.931031553 $GPGSA,A,3,32,11,31,14,10,22,26,01,03,25,23,,1.56,0.85,1.31*09
13 59 14.038961862 $GPRMC,215913.000,A,3401.8803,N,11725.0184,W,0.41,353.06,031217,,,D*7C
13 59 14.142690241 $GPZDA,215913.000,03,12,2017,,*5F
13 59 14.519344354 $GPGGA,215914.000,3401.8805,N,11725.0184,W,2,11,0.85,321.2,M,-32.8,M,0000,0000*52
13 59 14.968321336 $GPGSA,A,3,32,11,31,14,10,22,26,01,03,25,23,,1.56,0.85,1.31*09
13 59 15.071968719 $GPGSV,3,1,11,31,70,084,23,22,52,318,16,01,51,275,17,14,47,041,21*7A
13 59 15.175549106 $GPGSV,3,2,11,11,32,249,16,03,30,314,16,32,30,057,17,10,15,118,19*73
13 59 15.278570501 $GPGSV,3,3,11,23,14,265,14,26,14,144,19,25,11,055,18*4F
13 59 15.382363884 $GPRMC,215914.000,A,3401.8805,N,11725.0184,W,0.43,345.85,031217,,,D*73
13 59 15.486740258 $GPZDA,215914.000,03,12,2017,,*58
13 59 15.592016618 $GPGGA,215915.000,3401.8806,N,11725.0184,W,2,11,0.85,321.2,M,-32.8,M,0000,0000*50
13 59 16.032758753 $GPGSA,A,3,32,11,31,14,10,22,26,01,03,25,23,,1.56,0.85,1.31*09
13 59 16.136330145 $GPRMC,215915.000,A,3401.8806,N,11725.0184,W,0.39,6.15,031217,,,D*71
13 59 16.239505543 $GPZDA,215915.000,03,12,2017,,*59
13 59 16.473390911 $GPGGA,215916.000,3401.8807,N,11725.0184,W,2,11,0.85,321.2,M,-32.8,M,0000,0000*52
13 59 16.913362079 $GPGSA,A,3,32,11,31,14,10,22,26,01,03,25,23,,1.56,0.85,1.31*09
13 59 17.017929456 $GPRMC,215916.000,A,3401.8807,N,11725.0184,W,0.46,21.50,031217,,,D*4F
13 59 17.122614836 $GPZDA,215916.000,03,12,2017,,*5A
13 59 17.520915672 $GPGGA,215917.000,3401.8808,N,11725.0183,W,2,11,0.82,321.2,M,-32.8,M,0000,0000*5C
13 59 17.964776802 $GPGSA,A,3,32,11,31,14,10,22,26,01,03,25,23,,1.15,0.82,0.80*02
13 59 18.067930209 $GPRMC,215917.000,A,3401.8808,N,11725.0183,W,0.57,34.56,031217,,,D*44
13 59 18.172143601 $GPZDA,215917.000,03,12,2017,,*5B
13 59 18.468758026 $GPGGA,215918.000,3401.8810,N,11725.0182,W,2,11,0.82,321.2,M,-32.8,M,0000,0000*5B
13 59 18.907974250 $GPGSA,A,3,32,11,31,14,10,22,26,01,03,25,23,,1.15,0.82,0.80*02
13 59 19.011286657 $GPRMC,215918.000,A,3401.8810,N,11725.0182,W,0.60,40.41,031217,,,D*42
13 59 19.117240028 $GPZDA,215918.000,03,12,2017,,*54
13 59 19.533495628 $GPGGA,215919.000,3401.8810,N,11725.0185,W,2,11,0.82,321.1,M,-32.8,M,0000,0000*5E
13 59 19.976993809 $GPGSA,A,3,32,11,31,14,10,22,26,01,03,25,23,,1.15,0.82,0.80*02
13 59 20.080420222 $GPGSV,3,1,11,31,70,084,24,22,52,318,15,01,51,275,16,14,47,041,22*7C
13 59 20.183276646 $GPGSV,3,2,11,11,32,249,15,03,30,314,16,32,30,057,15,10,15,118,19*72
13 59 20.286412065 $GPGSV,3,3,11,23,14,265,17,26,14,144,21,25,11,055,19*46
13 59 20.389484486 $GPRMC,215919.000,A,3401.8810,N,11725.0185,W,0.51,36.55,031217,,,D*42
13 59 20.494077883 $GPZDA,215919.000,03,12,2017,,*55
13 59 20.598394284 $GPGGA,215920.000,3401.8819,N,11725.0190,W,2,11,0.82,321.1,M,-32.8,M,0000,0000*59
13 59 21.044310452 $GPGSA,A,3,32,11,31,14,10,22,26,01,03,25,23,,1.15,0.82,0.80*02
13 59 21.147971869 $GPRMC,215920.000,A,3401.8819,N,11725.0190,W,0.51,26.27,031217,,,D*41
13 59 21.251216292 $GPZDA,215920.000,03,12,2017,,*5F
13 59 21.487906676 $GPGGA,215921.000,3401.8817,N,11725.0187,W,2,11,0.82,321.1,M,-32.8,M,0000,0000*50
13 59 21.928905940 $GPGSA,A,3,32,11,31,14,10,22,26,01,03,25,23,,1.15,0.82,0.80*02
13 59 22.032316361 $GPRMC,215921.000,A,3401.8817,N,11725.0187,W,0.52,33.09,031217,,,D*43
13 59 22.135490790 $GPZDA,215921.000,03,12,2017,,*5E
13 59 22.522217902 $GPGGA,215922.000,3401.8822,N,11725.0187,W,2,11,0.82,321.1,M,-32.8,M,0000,0000*55
13 59 22.963165189 $GPGSA,A,3,32,11,31,14,10,22,26,01,03,25,23,,1.15,0.82,0.80*02
13 59 23.066962612 $GPRMC,215922.000,A,3401.8822,N,11725.0187,W,0.59,20.76,031217,,,D*47
13 59 23.170480041 $GPZDA,215922.000,03,12,2017,,*5D
13 59 23.521015721 $GPGGA,215923.000,3401.8817,N,11725.0180,W,2,11,0.82,321.1,M,-32.8,M,0000,0000*55
13 59 23.961640034 $GPGSA,A,3,32,11,31,14,10,22,26,01,03,25,23,,1.15,0.82,0.80*02
13 59 24.069084407 $GPRMC,215923.000,A,3401.8817,N,11725.0180,W,0.57,26.32,031217,,,D*4F
13 59 24.176838777 $GPZDA,215923.000,03,12,2017,,*5C
13 59 24.529657440 $GPGGA,215924.000,3401.8814,N,11725.0177,W,2,11,0.82,321.1,M,-32.8,M,0000,0000*59
13 59 24.972553741 $GPGSA,A,3,32,11,31,14,10,22,26,01,03,25,23,,1.15,0.82,0.80*02
13 59 25.075603186 $GPGSV,3,1,11,31,70,084,24,22,52,318,14,01,51,275,16,14,47,042,21*7D
13 59 25.181692586 $GPGSV,3,2,11,11,32,249,15,03,30,314,15,32,30,057,14,10,15,118,18*71
13 59 25.285361023 $GPGSV,3,3,11,23,14,265,14,26,14,144,22,25,11,055,17*48
13 59 25.390614436 $GPRMC,215924.000,A,3401.8814,N,11725.0177,W,0.55,25.24,031217,,,D*45
13 59 25.498859804 $GPZDA,215924.000,03,12,2017,,*5B
13 59 25.603719223 $GPGGA,215925.000,3401.8811,N,11725.0172,W,2,11,0.82,321.1,M,-32.8,M,0000,0000*58
13 59 26.042997602 $GPGSA,A,3,32,11,31,14,10,22,26,01,03,25,23,,1.15,0.82,0.80*02
13 59 26.146490047 $GPRMC,215925.000,A,3401.8811,N,11725.0172,W,0.51,28.64,031217,,,D*49
13 59 26.249955492 $GPZDA,215925.000,03,12,2017,,*5A
13 59 26.515845496 $GPGGA,215926.000,3401.8812,N,11725.0172,W,2,11,0.82,321.1,M,-32.8,M,0000,0000*58
13 59 26.955901883 $GPGSA,A,3,32,11,31,14,10,22,26,01,03,25,23,,1.15,0.82,0.80*02
13 59 27.063999261 $GPRMC,215926.000,A,3401.8812,N,11725.0172,W,0.50,20.50,031217,,,D*47
13 59 27.167342713 $GPZDA,215926.000,03,12,2017,,*59
13 59 27.464172267 $GPGGA,215927.000,3401.8814,N,11725.0172,W,2,11,0.82,321.1,M,-32.8,M,0000,0000*5F
13 59 27.904603670 $GPGSA,A,3,32,11,31,14,10,22,26,01,03,25,23,,1.15,0.82,0.80*02
13 59 28.008276117 $GPRMC,215927.000,A,3401.8814,N,11725.0172,W,0.47,22.01,031217,,,D*40
13 59 28.111592575 $GPZDA,215927.000,03,12,2017,,*58
13 59 28.467118267 $GPGGA,215928.000,3401.8815,N,11725.0171,W,2,11,0.82,321.1,M,-32.8,M,0000,0000*52
13 59 28.911951625 $GPGSA,A,3,32,11,31,14,10,22,26,01,03,25,23,,1.15,0.82,0.80*02
13 59 29.017739047 $GPRMC,215928.000,A,3401.8815,N,11725.0171,W,0.46,30.04,031217,,,D*4A
13 59 29.120724514 $GPZDA,215928.000,03,12,2017,,*57
13 59 29.525148496 $GPGGA,215929.000,3401.8816,N,11725.0170,W,2,11,0.82,321.1,M,-32.8,M,0000,0000*51
13 59 29.967793908 $GPGSA,A,3,32,11,31,14,10,22,26,01,03,25,23,,1.15,0.82,0.80*02
13 59 30.075506309 $GPGSV,3,1,12,31,70,084,25,22,52,318,15,01,51,275,17,14,47,042,22*7C
13 59 30.178840776 $GPGSV,3,2,12,11,32,249,15,03,30,314,17,32,30,057,17,10,15,118,17*7C
13 59 30.282168243 $GPGSV,3,3,12,23,14,265,16,26,14,144,21,25,11,055,16,49,,,*46
13 59 30.385833706 $GPRMC,215929.000,A,3401.8816,N,11725.0170,W,0.45,36.61,031217,,,D*4F
13 59 30.489973161 $GPZDA,215929.000,03,12,2017,,*56
13 59 30.594442611 $GPGGA,215930.000,3401.8817,N,11725.0169,W,2,11,0.82,321.1,M,-32.8,M,0000,0000*50
13 59 31.035804066 $GPGSA,A,3,32,11,31,14,10,22,26,01,03,25,23,,1.15,0.82,0.80*02
13 59 31.138887542 $GPRMC,215930.000,A,3401.8817,N,11725.0169,W,0.54,34.28,031217,,,D*41
13 59 31.242480010 $GPZDA,215930.000,03,12,2017,,*5E
13 59 31.491351331 $GPGGA,215931.000,3401.8818,N,11725.0168,W,2,11,0.82,321.1,M,-32.8,M,0000,0000*5F
13 59 31.930780834 $GPGSA,A,3,32,11,31,14,10,22,26,01,03,25,23,,1.15,0.82,0.80*02
13 59 32.034526301 $GPRMC,215931.000,A,3401.8818,N,11725.0168,W,0.59,39.45,031217,,,D*45
13 59 32.137977776 $GPZDA,215931.000,03,12,2017,,*5F
13 59 32.527738033 $GPGGA,215932.000,3401.8814,N,11725.0161,W,2,11,0.82,321.1,M,-32.8,M,0000,0000*59
13 59 32.967068558 $GPGSA,A,3,32,11,31,14,10,22,26,01,03,25,23,,1.15,0.82,0.80*02
13 59 33.075268967 $GPRMC,215932.000,A,3401.8814,N,11725.0161,W,0.62,44.45,031217,,,D*41
13 59 33.178361453 $GPZDA,215932.000,03,12,2017,,*5C
13 59 33.529901289 $GPGGA,215933.000,3401.8811,N,11725.0159,W,2,11,0.82,321.1,M,-32.8,M,0000,0000*56
13 59 33.970733813 $GPGSA,A,3,32,11,31,14,10,22,26,01,03,25,23,,1.15,0.82,0.80*02
13 59 34.074505292 $GPRMC,215933.000,A,3401.8811,N,11725.0159,W,0.53,52.70,031217,,,D*4D
13 59 34.177815780 $GPZDA,215933.000,03,12,2017,,*5D
13 59 34.480245352 $GPGGA,215934.000,3401.8805,N,11725.0161,W,2,11,0.82,321.1,M,-32.8,M,0000,0000*5F
13 59 34.928440789 $GPGSA,A,3,32,11,31,14,10,22,26,01,03,25,23,,1.15,0.82,0.80*02
13 59 35.034169243 $GPGSV,3,1,12,31,70,084,25,22,52,318,15,01,51,275,18,14,47,042,23*72
13 59 35.137901729 $GPGSV,3,2,12,11,32,249,14,03,30,314,16,32,30,057,14,23,15,265,15*74
13 59 35.241041224 $GPGSV,3,3,12,10,15,118,16,26,14,144,23,25,11,054,16,49,,,*4D
13 59 35.344313716 $GPRMC,215934.000,A,3401.8805,N,11725.0161,W,0.42,62.71,031217,,,D*46
13 59 35.448030203 $GPZDA,215934.000,03,12,2017,,*5A
13 59 35.552886673 $GPGGA,215935.000,3401.8801,N,11725.0157,W,2,11,0.82,321.1,M,-32.8,M,0000,0000*5F
13 59 35.999476155 $GPGSA,A,3,32,11,31,14,10,22,26,01,03,25,23,,1.15,0.82,0.80*02
13 59 36.103496642 $GPRMC,215935.000,A,3401.8801,N,11725.0157,W,0.44,66.21,031217,,,D*41
13 59 36.207057135 $GPZDA,215935.000,03,12,2017,,*5B
13 59 36.469793313 $GPGGA,215936.000,3401.8803,N,11725.0155,W,2,11,0.82,321.1,M,-32.8,M,0000,0000*5C
13 59 36.910434903 $GPGSA,A,3,32,11,31,14,10,22,26,01,03,25,23,,1.15,0.82,0.80*02
13 59 37.014220394 $GPRMC,215936.000,A,3401.8803,N,11725.0155,W,0.44,55.39,031217,,,D*4B
13 59 37.117591895 $GPZDA,215936.000,03,12,2017,,*58
13 59 37.475354708 $GPGGA,215937.000,3401.8804,N,11725.0154,W,2,11,0.82,321.1,M,-32.8,M,0000,0000*5B
13 59 37.920525253 $GPGSA,A,3,32,11,31,14,10,22,26,01,03,25,23,,1.15,0.82,0.80*02
13 59 38.031288648 $GPRMC,215937.000,A,3401.8804,N,11725.0154,W,0.38,55.99,031217,,,D*4D
13 59 38.135592140 $GPZDA,215937.000,03,12,2017,,*59
13 59 38.545655214 $GPGGA,215938.000,3401.8804,N,11725.0153,W,2,11,0.82,321.1,M,-32.8,M,0000,0000*53
13 59 39.014479438 $GPGSA,A,3,32,11,31,14,10,22,26,01,03,25,23,,1.15,0.82,0.80*02
13 59 39.118277943 $GPRMC,215938.000,A,3401.8804,N,11725.0153,W,0.43,40.81,031217,,,D*44
13 59 39.221885450 $GPZDA,215938.000,03,12,2017,,*56
13 59 39.494237527 $GPGGA,215939.000,3401.8805,N,11725.0152,W,2,11,0.82,321.1,M,-32.8,M,0000,0000*52
13 59 39.935642168 $GPGSA,A,3,32,11,31,14,10,22,26,01,03,25,23,,1.15,0.82,0.80*02
13 59 40.039235677 $GPGSV,3,1,12,31,70,084,26,22,52,318,14,01,51,275,18,14,47,042,24*77
13 59 40.142874189 $GPGSV,3,2,12,11,32,249,16,03,30,314,16,32,30,057,16,23,15,265,16*77
13 59 40.246160705 $GPGSV,3,3,12,10,15,118,16,26,15,144,23,25,11,054,15,50,,,*47
13 59 40.349467222 $GPRMC,215939.000,A,3401.8805,N,11725.0152,W,0.49,10.64,031217,,,D*41
13 59 40.453470729 $GPZDA,215939.000,03,12,2017,,*57
13 59 40.562372165 $GPGGA,215940.000,3401.8807,N,11725.0152,W,2,11,0.85,321.1,M,-32.8,M,0000,0000*59
13 59 41.006534787 $GPGSA,A,3,32,11,31,14,10,22,26,01,03,25,23,,1.57,0.85,1.31*08
13 59 41.110251302 $GPRMC,215940.000,A,3401.8807,N,11725.0152,W,0.45,1.75,031217,,,D*71
13 59 41.213321827 $GPZDA,215940.000,03,12,2017,,*59
13 59 41.491120851 $GPGGA,215941.000,3401.8808,N,11725.0152,W,2,11,0.85,321.1,M,-32.8,M,0000,0000*57
13 59 41.930743558 $GPGSA,A,3,32,11,31,14,10,22,26,01,03,25,23,,1.57,0.85,1.32*0B
13 59 42.038126023 $GPRMC,215941.000,A,3401.8808,N,11725.0152,W,0.42,7.48,031217,,,D*70
13 59 42.141616546 $GPZDA,215941.000,03,12,2017,,*58
13 59 42.471042846 $GPGGA,215942.000,3401.8809,N,11725.0151,W,2,11,0.85,321.1,M,-32.8,M,0000,0000*56
13 59 42.910532576 $GPGSA,A,3,32,11,31,14,10,22,26,01,03,25,23,,1.57,0.85,1.32*0B
13 59 43.013828102 $GPRMC,215942.000,A,3401.8809,N,11725.0151,W,0.38,21.50,031217,,,D*41
13 59 43.116987635 $GPZDA,215942.000,03,12,2017,,*5B
13 59 43.551156461 $GPGGA,215943.000,3401.8810,N,11725.0151,W,2,11,0.82,321.1,M,-32.8,M,0000,0000*58
13 59 43.991461199 $GPGSA,A,3,32,11,31,14,10,22,26,01,03,25,23,,1.15,0.82,0.80*02
13 59 44.095043730 $GPRMC,215943.000,A,3401.8810,N,11725.0151,W,0.24,16.49,031217,,,D*49
13 59 44.198187268 $GPZDA,215943.000,03,12,2017,,*5A
13 59 44.527763596 $GPGGA,215944.000,3401.8811,N,11725.0151,W,2,11,0.82,321.1,M,-32.8,M,0000,0000*5E
13 59 44.973506277 $GPGSA,A,3,32,11,31,14,10,22,26,01,03,25,23,,1.15,0.82,0.80*02
13 59 45.081548749 $GPGSV,3,1,12,31,70,083,27,22,52,318,13,01,51,275,17,14,47,042,24*79
13 59 45.185433281 $GPGSV,3,2,12,11,32,249,18,03,30,314,17,32,29,057,16,23,15,265,16*70
13 59 45.288074831 $GPGSV,3,3,12,10,15,118,16,26,15,144,23,25,11,054,13,50,,,*41
13 59 45.391472370 $GPRMC,215944.000,A,3401.8811,N,11725.0151,W,0.23,64.47,031217,,,D*43
13 59 45.495978893 $GPZDA,215944.000,03,12,2017,,*5D
13 59 45.600511416 $GPGGA,215945.000,3401.8811,N,11725.0150,W,2,11,0.82,321.1,M,-32.8,M,0000,0000*5E
13 59 46.041205191 $GPGSA,A,3,32,11,31,14,10,22,26,01,03,25,23,,1.15,0.82,0.80*02
13 59 46.145102727 $GPRMC,215945.000,A,3401.8811,N,11725.0150,W,0.26,83.39,031217,,,D*46
13 59 46.248412272 $GPZDA,215945.000,03,12,2017,,*5C
13 59 46.490981856 $GPGGA,215946.000,3401.8811,N,11725.0149,W,2,11,0.82,321.1,M,-32.8,M,0000,0000*55
13 59 46.935421596 $GPGSA,A,3,32,11,31,14,10,22,26,01,03,25,23,,1.15,0.82,0.80*02
13 59 47.039259135 $GPRMC,215946.000,A,3401.8811,N,11725.0149,W,0.28,87.76,031217,,,D*4C
13 59 47.142809681 $GPZDA,215946.000,03,12,2017,,*5F
13 59 47.527968274 $GPGGA,215947.000,3401.8811,N,11725.0148,W,2,11,0.82,321.1,M,-32.8,M,0000,0000*55
13 59 47.967477103 $GPGSA,A,3,32,11,31,14,10,22,26,01,03,25,23,,1.15,0.82,0.80*02
13 59 48.075567589 $GPRMC,215947.000,A,3401.8811,N,11725.0148,W,0.32,84.37,031217,,,D*41
13 59 48.178683146 $GPZDA,215947.000,03,12,2017,,*5E
13 59 48.470912056 $GPGGA,215948.000,3401.8812,N,11725.0147,W,2,11,0.82,321.1,M,-32.8,M,0000,0000*56
13 59 48.911394892 $GPGSA,A,3,32,11,31,14,10,22,26,01,03,25,23,,1.15,0.82,0.80*02
13 59 49.014888444 $GPRMC,215948.000,A,3401.8812,N,11725.0147,W,0.33,83.53,031217,,,D*46
13 59 49.118532998 $GPZDA,215948.000,03,12,2017,,*51
13 59 49.486208869 $GPGGA,215949.000,3401.8812,N,11725.0145,W,2,11,0.82,321.1,M,-32.8,M,0000,0000*55
13 59 49.935198606 $GPGSA,A,3,32,11,31,14,10,22,26,01,03,25,23,,1.15,0.82,0.80*02
13 59 50.039356155 $GPGSV,3,1,12,31,70,083,26,22,52,318,15,01,51,275,17,14,47,042,24*7E
13 59 50.142498721 $GPGSV,3,2,12,11,32,249,18,03,31,314,14,32,29,057,17,23,15,265,16*73
13 59 50.246115280 $GPGSV,3,3,12,10,15,118,15,26,15,144,23,25,11,054,14,33,,,*40
13 59 50.349187847 $GPRMC,215949.000,A,3401.8812,N,11725.0145,W,0.37,83.87,031217,,,D*48
13 59 50.452878405 $GPZDA,215949.000,03,12,2017,,*50
13 59 50.556753961 $GPGGA,215950.000,3401.8812,N,11725.0144,W,2,10,0.91,321.1,M,-32.8,M,0000,0000*5F
13 59 50.998064824 $GPGSA,A,3,32,11,31,14,10,22,26,01,03,23,,,1.24,0.91,0.85*00
13 59 51.106214325 $GPRMC,215950.000,A,3401.8812,N,11725.0144,W,0.41,88.43,031217,,,D*43
13 59 51.209810889 $GPZDA,215950.000,03,12,2017,,*58
13 59 51.385759450 $PGACK,103*40
13 59 51.488632024 $PGACK,105*46
13 59 51.591817594 $PMTK011,MTKGPS*08
13 59 51.695308160 $PMTK010,001*2E
13 59 51.798376731 $PMTK010,002*2D
13 59 52.443462812 $GPGGA,215952.139,,,,,0,00,,,M,,M,,*7B
13 59 52.900615496 $GPGSA,A,1,,,,,,,,,,,,,,,*1E
13 59 53.003728072 $GPRMC,215952.139,V,,,,,0.00,0.00,031217,,,N*48
13 59 53.106885651 $GPZDA,215952.139,03,12,2017,,*51
13 59 53.212066202 $GPGGA,215952.288,,,,,0,00,,,M,,M,,*72
13 59 53.663825981 $GPGSA,A,1,,,,,,,,,,,,,,,*1E
13 59 53.768545539 $GPRMC,215952.288,V,,,,,0.00,0.00,031217,,,N*41
13 59 53.871479121 $GPZDA,215952.288,03,12,2017,,*58
13 59 53.974918696 $GPGGA,215953.288,,,,,0,01,,,M,,M,,*72
13 59 54.433980393 $GPGSA,A,1,,,,,,,,,,,,,,,*1E
13 59 54.537355974 $GPRMC,215953.288,V,,,,,0.03,82.82,031217,,,N*73
13 59 54.642327533 $GPZDA,215953.288,03,12,2017,,*59
13 59 54.746870098 $GPGGA,215954.288,,,,,0,01,,,M,,M,,*75
13 59 55.200074885 $GPGSA,A,1,,,,,,,,,,,,,,,*1E
13 59 55.306325431 $GPRMC,215954.288,V,,,,,0.02,82.84,031217,,,N*73
13 59 55.409773016 $GPZDA,215954.288,03,12,2017,,*5E
13 59 55.637510900 $GPGGA,215955.288,,,,,0,02,,,M,,M,,*77
13 59 56.089289721 $GPGSA,A,1,,,,,,,,,,,,,,,*1E
13 59 56.192303316 $GPGSV,3,1,11,31,70,083,26,22,52,318,,01,51,275,,14,47,042,22*79
13 59 56.295670906 $GPGSV,3,2,11,11,32,249,,03,31,314,,32,29,057,,23,15,265,*7D
13 59 56.398842499 $GPGSV,3,3,11,10,15,118,,26,15,144,,25,11,054,*43
13 59 56.504093063 $GPRMC,215955.288,V,,,,,0.05,169.71,031217,,,N*4B
13 59 56.608519639 $GPZDA,215955.288,03,12,2017,,*5F
13 59 56.713378208 $GPGGA,215956.288,,,,,0,02,,,M,,M,,*74
13 59 57.168779004 $GPGSA,A,1,,,,,,,,,,,,,,,*1E
13 59 57.272119599 $GPRMC,215956.288,V,,,,,0.10,182.46,031217,,,N*4D
