12 17 15.999944000 $GPGGA,204234.016,3437.7864,N,11733.2966,W,1,06,1.58,878.0,M,-31.2,M,,*58
12 17 18.709334560
12 17 19.198473096 œ$GPRMC,204234.016,A,3437.7864,N,11733.2966,W,1.20,190.30,091217,,,A*7E
12 17 19.515412852 5º$GPVTG,190.30,T,,M,1.20,N,2.22,K,A*37
12 17 19.857713429 2966,W,1.20,190.30,091217,,,A*7E
12 17 20.297424315 5º$GPGGA,204235.015,3437.7849,N,11733.2962,W,1,06,1.58,878.0,M,-31.2,M,,*51
12 17 20.576624338 $GPGSA,A,3,11,31,22,25,01,14,,,,,,,1.81,1.58,0.89*06
12 17 20.900002049 878.0,M,-31.2,M,,*51
12 17 21.217835798 $GPGGA,204236.015,3437.7835,N,11733.2957,W,1,06,1.58,878.0,M,-31.2,M,,*5F
12 17 22.812860504 œ$GPRMC,204238.013,A,3437.7811,N,11733.2946,W,1.31,185.55,091217,,,A*70
12 17 23.116589354 5º$GPVTG,185.55,T,,M,1.31,N,2.43,K,A*37
12 17 23.364239600 2946,W,1.31,185.55,091217,,,A*70
12 17 23.648261589 5º$GPGSA,A,3,11,31,22,25,01,14,,,,,,,1.81,1.58,0.89*06
12 17 23.924448634 .55,091217,,,A*70
12 17 24.126640202 5º$GPGSV,3,1,11,14,66,017,15,31,59,147,19,32,48,041,,01,41,307,16*77
12 17 24.348272633 $GPGSV,3,2,11,11,38,278,17,22,33,308,14,10,31,099,,03,13,302,*75
12 17 24.552050190 7
12 17 24.745399821 $GPGSV,3,3,11,08,09,234,,25,08,077,16,18,05,111,*48
12 17 25.064093564 œ$GPGSV,3,1,11,14,66,017,15,31,59,147,19,32,48,041,,01,41,307,16*77
12 17 25.340178609 $GPGSV,3,2,11,11,38,278,17,22,33,308,14,10,31,099,,03,13,302,*75
12 17 25.602316753 N$GPGSV,3,3,11,08,09,234,,25,08,077,16,18,05,111,*48
12 17 25.771190558 3,13,302,*75
12 17 25.876402813 N$GPRMC,204237.014,A,3437.7821,N,11733.2951,W,1.35,186.14,091217,,,A*7F
12 17 26.004666904 7º$GPVTG,186.14,T,,M,1.35,N,2.50,K,A*37
12 17 26.110179157 $GPVTG,187.76,T,,M,1.27,N,2.34,K,A*33
12 17 26.216121407 $GPGGA,204234.016,3437.7864,N,11733.2966,W,1,06,1.58,878.0,M,-31.2,M,,*58
12 17 27.035994602 $GPVTG,190.30,T,,M,1.20,N,2.22,K,A*37
12 17 27.263678990 66,W,1,06,1.58,878.0,M,-31.2,M,,*58
12 17 27.490898381 $GPGGA,204240.012,3437.7801,N,11733.2943,W,1,06,1.58,878.0,M,-31.2,M,,*5B
12 17 28.505856195 $GPGSA,A,3,11,31,22,25,01,14,,,,,,,1.81,1.58,0.89*06
12 17 28.789864184 878.0,M,-31.2,M,,*5B
12 17 29.128658785 $GPGGA,204242.011,3437.7793,N,11733.2959,W,1,06,1.58,878.0,M,-31.2,M,,*55
12 17 30.188855278
12 17 30.420853635 $GPGSA,A,3,11,31,22,25,01,14,,,,,,,1.81,1.58,0.89*06
12 17 30.666438896
12 17 30.877635401 $GPGSV,3,1,12,14,66,017,17,31,59,147,22,32,48,041,,48,46,205,26*74
12 17 31.263978665
12 17 31.679578723 $GPGSV,3,2,12,01,41,306,18,11,38,278,18,22,33,308,18,10,31,099,*7D
12 17 32.034839207
12 17 32.556722512 $GPGSV,3,3,12,03,13,302,,08,09,234,,25,08,077,16,18,05,111,*7B
12 17 33.005749333
12 17 33.345604926 $GPRMC,204242.011,A,3437.7793,N,11733.2959,W,1.14,194.93,091217,,,A*79
12 17 33.690153487
12 17 34.125840402 $GPVTG,194.93,T,,M,1.14,N,2.11,K,A*3D
12 17 34.471979951
12 17 34.851276265 $GPRMC,204240.012,A,3437.7801,N,11733.2943,W,1.24,185.87,091217,,,A*71
12 17 35.237596530 $GPVTG,185.87,T,,M,1.24,N,2.30,K,A*38
12 17 35.541153380 2943,W,1.24,185.87,091217,,,A*71
12 17 35.860406120 $GPGGA,204235.015,3437.7849,N,11733.2962,W,1,06,1.58,878.0,M,-31.2,M,,*51
12 17 37.213881536 $GPGSA,A,3,11,31,22,25,01,14,,,,,,,1.81,1.58,0.89*06
12 17 37.462981773 878.0,M,-31.2,M,,*51
12 17 37.690178164 $GPGGA,204236.015,3437.7835,N,11733.2957,W,1,06,1.58,878.0,M,-31.2,M,,*5F
12 17 38.652319351 $GPGSA,A,3,11,31,22,25,01,14,,,,,,,1.81,1.58,0.89*06
12 17 38.962362156 $GPRMC,204236.015,A,3437.7835,N,11733.2957,W,1.31,187.35,091217,,,A*7A
12 17 39.210310401 5º$GPVTG,187.35,T,,M,1.31,N,2.43,K,A*33
12 17 39.430058845 $GPGGA,204239.012,3437.7805,N,11733.2943,W,1,06,1.58,878.0,M,-31.2,M,,*51
12 17 40.372764170 $GPGSA,A,3,11,31,22,25,01,14,,,,,,,1.81,1.58,0.89*06
12 17 40.576268729 N$GPRMC,204239.012,A,3437.7805,N,11733.2943,W,1.28,184.39,091217,,,A*73
12 17 40.837182881 5º$GPVTG,184.39,T,,M,1.28,N,2.37,K,A*37
12 17 41.090812085 $GPRMC,204235.015,A,3437.7849,N,11733.2962,W,1.27,187.76,091217,,,A*74
12 17 41.308130547 5º$GPGGA,204237.014,3437.7821,N,11733.2951,W,1,06,1.58,878.0,M,-31.2,M,,*5C
12 17 41.526221002 $GPGGA,204243.011,3437.7793,N,11733.2964,W,1,06,1.58,878.0,M,-31.2,M,,*5A
12 17 42.469425324
12 17 42.683562808 $GPGSA,A,3,11,31,22,25,01,14,,,,,,,1.81,1.58,0.89*06
12 17 42.898852283
12 17 43.142254560 $GPRMC,204243.011,A,3437.7793,N,11733.2964,W,1.07,198.29,091217,,,A*79
12 17 43.340342157
12 17 43.540057743 $GPVTG,198.29,T,,M,1.07,N,1.97,K,A*3F
12 17 43.749464261
12 17 44.048670142 $GPGGA,204241.011,3437.7793,N,11733.2958,W,1,06,1.58,878.0,M,-31.2,M,,*57
12 17 44.968507629 $GPGSA,A,3,11,31,22,25,01,14,,,,,,,1.81,1.58,0.89*06
12 17 45.222239832 878.0,M,-31.2,M,,*57
12 17 45.440190289 $GPRMC,204241.011,A,3437.7793,N,11733.2958,W,1.28,192.44,091217,,,A*78
12 17 45.652130789 5º$GPVTG,192.44,T,,M,1.28,N,2.36,K,A*3B
12 17 45.863054295 $GPVTG,185.55,T,,M,1.31,N,2.43,K,A*37
12 17 46.085369721 $GPGSV,3,1,11,14,66,017,15,31,59,147,19,32,48,041,,01,41,307,16*77
12 17 46.363255753 $GPGSV,3,2,11,11,38,278,17,22,33,308,14,10,31,099,,03,13,302,*75
12 17 46.569966290 7
12 17 46.781926789 $GPGSV,3,3,11,08,09,234,,25,08,077,16,18,05,111,*48
12 17 46.992118301 3,13,302,*75
12 17 47.200143828 7
12 17 47.445730089 $GPRMC,204237.014,A,3437.7821,N,11733.2951,W,1.35,186.14,091217,,,A*7F
12 17 47.664096543 1º$GPVTG,186.14,T,,M,1.35,N,2.50,K,A*37
12 17 47.867614102 $GPVTG,187.76,T,,M,1.27,N,2.34,K,A*33
12 17 48.078572608 $GPGGA,204234.016,3437.7864,N,11733.2966,W,1,06,1.58,878.0,M,-31.2,M,,*58
12 17 49.056802681 $GPVTG,190.30,T,,M,1.20,N,2.22,K,A*37
12 17 49.341682664 66,W,1,06,1.58,878.0,M,-31.2,M,,*58
12 17 49.598533846 $GPGGA,204240.012,3437.7801,N,11733.2943,W,1,06,1.58,878.0,M,-31.2,M,,*5B
12 17 50.647654417 $GPGSA,A,3,11,31,22,25,01,14,,,,,,,1.81,1.58,0.89*06
12 17 50.881244763 878.0,M,-31.2,M,,*5B
12 17 51.129690004 $GPGGA,204244.009,3437.7813,N,11733.2955,W,1,06,1.58,877.9,M,-31.2,M,,*57
12 17 51.823145094
12 17 51.925447370 $GPGSA,A,3,11,31,22,25,01,14,,,,,,,1.81,1.58,0.89*06
12 17 52.066572370
12 17 52.168190651 $GPRMC,204244.009,A,3437.7813,N,11733.2955,W,0.82,198.50,091217,,,A*70
12 17 52.272824910
12 17 52.375490183 $GPVTG,198.50,T,,M,0.82,N,1.51,K,A*37
12 17 52.482496425
12 17 52.584061706 $GPGGA,204242.011,3437.7793,N,11733.2959,W,1,06,1.58,878.0,M,-31.2,M,,*55
12 17 53.048815416 $GPGSA,A,3,11,31,22,25,01,14,,,,,,,1.81,1.58,0.89*06
12 17 53.153281676 878.0,M,-31.2,M,,*55
12 17 53.257162940 $GPGSV,3,1,12,14,66,017,17,31,59,147,22,32,48,041,,48,46,205,26*74
12 17 53.361804199 M,,*55
12 17 53.466037461 $GPGSV,3,2,12,01,41,306,18,11,38,278,18,22,33,308,18,10,31,099,*7D
12 17 53.571419715 $GPGSV,3,3,12,03,13,302,,08,09,234,,25,08,077,16,18,05,111,*7B
12 17 53.676706970 $GPRMC,204242.011,A,3437.7793,N,11733.2959,W,1.14,194.93,091217,,,A*79
12 17 53.788259180 5º$GPVTG,194.93,T,,M,1.14,N,2.11,K,A*3D
12 17 53.909875319 2959,W,1.14,194.93,091217,,,A*79
12 17 54.018345551 5º$GPRMC,204240.012,A,3437.7801,N,11733.2943,W,1.24,185.87,091217,,,A*71
12 17 54.124333800 5º$GPVTG,185.87,T,,M,1.24,N,2.30,K,A*38
12 17 54.229499056 2943,W,1.24,185.87,091217,,,A*71
12 17 54.338157286 5º$GPGGA,204235.015,3437.7849,N,11733.2962,W,1,06,1.58,878.0,M,-31.2,M,,*51
12 17 54.443119543 $GPGSA,A,3,11,31,22,25,01,14,,,,,,,1.81,1.58,0.89*06
12 17 54.548245799 878.0,M,-31.2,M,,*51
12 17 54.652941057 $GPGGA,204236.015,3437.7835,N,11733.2957,W,1,06,1.58,878.0,M,-31.2,M,,*5F
12 17 55.128935687 $GPGSA,A,3,11,31,22,25,01,14,,,,,,,1.81,1.58,0.89*06
12 17 55.233842944 878.0,M,-31.2,M,,*5F
12 17 55.338889200 $GPGGA,204245.008,3437.7824,N,11733.2945,W,1,06,1.58,878.0,M,-31.2,M,,*54
12 17 55.784441046
12 17 55.895500259 $GPGSA,A,3,11,31,22,25,01,14,,,,,,,1.81,1.58,0.89*06
12 17 56.013026427
12 17 56.114253710 $GPRMC,204245.008,A,3437.7824,N,11733.2945,W,0.62,194.94,091217,,,A*7F
12 17 56.218921969
12 17 56.320302251 $GPVTG,194.94,T,,M,0.62,N,1.15,K,A*3D
12 17 56.424180516
12 17 56.525438799 $GPRMC,204236.015,A,3437.7835,N,11733.2957,W,1.31,187.35,091217,,,A*7A
12 17 56.631362049 $GPVTG,187.35,T,,M,1.31,N,2.43,K,A*33
12 17 56.736182307 2957,W,1.31,187.35,091217,,,A*7A
12 17 56.841873558 $GPGGA,204239.012,3437.7805,N,11733.2943,W,1,06,1.58,878.0,M,-31.2,M,,*51
12 17 57.309270249 $GPGSA,A,3,11,31,22,25,01,14,,,,,,,1.81,1.58,0.89*06
12 17 57.413844508 878.0,M,-31.2,M,,*51
12 17 57.518033771 $GPRMC,204239.012,A,3437.7805,N,11733.2943,W,1.28,184.39,091217,,,A*73
12 17 57.622452031 51
12 17 57.724509309 $GPVTG,184.39,T,,M,1.28,N,2.37,K,A*37
12 17 57.830140561 $GPRMC,204235.015,A,3437.7849,N,11733.2962,W,1.27,187.76,091217,,,A*74
12 17 57.936284809 5º$GPGGA,204237.014,3437.7821,N,11733.2951,W,1,06,1.58,878.0,M,-31.2,M,,*5C
12 17 58.064870899 $GPGGA,204243.011,3437.7793,N,11733.2964,W,1,06,1.58,878.0,M,-31.2,M,,*5A
12 17 58.509250752 $GPGSA,A,3,11,31,22,25,01,14,,,,,,,1.81,1.58,0.89*06
12 17 58.614070010 N$GPRMC,204243.011,A,3437.7793,N,11733.2964,W,1.07,198.29,091217,,,A*79
12 17 58.723026239 5º$GPVTG,198.29,T,,M,1.07,N,1.97,K,A*3F
12 17 58.828600491 œ$GPGGA,204254.015,3437.7818,N,11733.2949,W,1,06,1.58,877.9,M,-31.2,M,,*5D
12 17 58.933727747
12 17 59.036433020 $GPGSA,A,3,11,31,22,25,01,14,,,,,,,1.81,1.58,0.89*06
12 17 59.164154115
12 17 59.267056387 $GPRMC,204254.015,A,3437.7818,N,11733.2949,W,0.48,224.13,091217,,,A*7F
12 17 59.372459640
12 17 59.474843915 $GPVTG,224.13,T,,M,0.48,N,0.88,K,A*37
12 17 59.579468175
12 17 59.682397446 $GPRMC,204243.011,A,3437.7793,N,11733.2964,W,1.07,198.29,091217,,,A*79
12 17 59.792633665 $GPGGA,204255.015,3437.7816,N,11733.2948,W,1,06,1.58,877.9,M,-31.2,M,,*53
12 18 00.261280347
12 18 00.368171590 $GPGSA,A,3,11,31,22,25,01,14,,,,,,,1.81,1.58,0.89*06
12 18 00.474386838 œ$GPRMC,204248.008,A,3437.7821,N,11733.2942,W,0.68,201.19,091217,,,A*70
12 18 00.580493087 $GPVTG,201.19,T,,M,0.68,N,1.26,K,A*3D
12 18 00.686234338 $GPGGA,204245.008,3437.7824,N,11733.2945,W,1,06,1.58,878.0,M,-31.2,M,,*54
12 18 01.188892779 $GPGGA,204315.000,3437.7834,N,11733.2960,W,1,10,0.96,878.0,M,-31.2,M,,*5A
12 18 01.639588588
12 18 01.742865856 $GPGSA,A,3,11,31,10,32,22,08,25,18,01,14,,,1.24,0.96,0.78*05
12 18 01.848007112
12 18 01.951131382 $GPRMC,204315.000,A,3437.7834,N,11733.2960,W,0.66,12.13,091217,,,A*41
12 18 02.099801329 œ$GPRMC,204245.008,A,3437.7824,N,11733.2945,W,0.62,194.94,091217,,,A*7F
12 18 02.219705480 5º$GPVTG,194.94,T,,M,0.62,N,1.15,K,A*3D
12 18 02.334840665 2945,W,0.62,194.94,091217,,,A*7F
12 18 02.440290918 5º$GPRMC,204236.015,A,3437.7835,N,11733.2957,W,1.31,187.35,091217,,,A*7A
12 18 02.546535166 5º$GPGGA,204316.000,3437.7838,N,11733.2957,W,1,10,0.96,878.0,M,-31.2,M,,*51
12 18 02.652894413 $GPGSA,A,3,11,31,10,32,22,08,25,18,01,14,,,1.24,0.96,0.78*05
12 18 02.758994662 -31.2,M,,*51
12 18 02.864527914 $GPRMC,204316.000,A,3437.7838,N,11733.2957,W,0.68,12.51,091217,,,A*42
12 18 02.975082132 *5º$GPVTG,12.51,T,,M,0.68,N,1.26,K,A*01
12 18 03.081114381 .2957,W,0.68,12.51,091217,,,A*42
12 18 03.186766633 *5º$GPVTG,187.35,T,,M,1.31,N,2.43,K,A*33
12 18 03.314690727 2957,W,0.68,12.51,091217,,,A*42
12 18 03.420468978 *5º$GPGGA,204239.012,3437.7805,N,11733.2943,W,1,06,1.58,878.0,M,-31.2,M,,*51
12 18 03.526971224 $GPGGA,204249.009,3437.7825,N,11733.2943,W,1,06,1.58,877.9,M,-31.2,M,,*58
12 18 03.971716075 $GPGSA,A,3,11,31,22,25,01,14,,,,,,,1.81,1.58,0.89*06
12 18 04.077168328 877.9,M,-31.2,M,,*58
12 18 04.183157578 $GPGGA,204320.000,3437.7852,N,11733.2942,W,1,10,0.96,878.0,M,-31.2,M,,*5C
12 18 04.655253235 œ$GPGGA,204320.000,3437.7852,N,11733.2942,W,1,10,0.96,878.0,M,-31.2,M,,*5C
12 18 04.761940479 $GPGSA,A,3,11,31,10,32,22,08,25,18,01,14,,,1.24,0.96,0.78*05
12 18 04.869821716 -31.2,M,,*5C
12 18 04.975206969 $GPRMC,204320.000,A,3437.7852,N,11733.2942,W,0.75,22.78,091217,,,A*4B
12 18 05.080723222 *5C
12 18 05.186339474 $GPVTG,22.78,T,,M,0.75,N,1.39,K,A*0B
12 18 05.292206725 .2942,W,0.75,22.78,091217,,,A*4B
12 18 05.420522816 *5C
12 18 05.531642030 $GPRMC,204249.009,A,3437.7825,N,11733.2943,W,0.58,200.88,091217,,,A*7F
12 18 05.648612201 5C
12 18 05.753162461 $GPGGA,204317.000,3437.7841,N,11733.2953,W,1,10,0.96,878.0,M,-31.2,M,,*5A
12 18 06.202874277 $GPGSA,A,3,11,31,10,32,22,08,25,18,01,14,,,1.24,0.96,0.78*05
12 18 06.308477529 -31.2,M,,*5A
12 18 06.423807712 $GPRMC,204317.000,A,3437.7841,N,11733.2953,W,0.68,12.56,091217,,,A*4E
12 18 06.542657871 *5A
12 18 06.648064125 $GPVTG,12.56,T,,M,0.68,N,1.25,K,A*05
12 18 06.754287372 .2953,W,0.68,12.56,091217,,,A*4E
12 18 06.860821618 *5A
12 18 06.967069866 $GPVTG,200.88,T,,M,0.58,N,1.08,K,A*3B
12 18 07.072893117 2953,W,0.68,12.56,091217,,,A*4E
12 18 07.178323370 *5A
12 18 07.284319620 $GPGGA,204322.000,3437.7858,N,11733.2938,W,1,10,0.96,878.0,M,-31.2,M,,*59
12 18 07.754651289
12 18 07.857484561 $GPGSA,A,3,11,31,10,32,22,08,25,18,01,14,,,1.24,0.96,0.78*05
12 18 07.962616817
12 18 08.065714087 $GPRMC,204322.000,A,3437.7858,N,11733.2938,W,0.72,23.26,091217,,,A*43
12 18 08.171095341
12 18 08.273870613 $GPVTG,23.26,T,,M,0.72,N,1.34,K,A*0B
12 18 08.378931869
12 18 08.481972139 $GPRMC,204245.008,A,3437.7824,N,11733.2945,W,0.62,194.94,091217,,,A*7F
12 18 08.610531229 $GPVTG,194.94,T,,M,0.62,N,1.15,K,A*3D
12 18 08.716708477 2945,W,0.62,194.94,091217,,,A*7F
12 18 08.822330729 $GPRMC,204236.015,A,3437.7835,N,11733.2957,W,1.31,187.35,091217,,,A*7A
12 18 08.928480978 $GPGGA,204316.000,3437.7838,N,11733.2957,W,1,10,0.96,878.0,M,-31.2,M,,*51
12 18 09.379478785 $GPGSA,A,3,11,31,10,32,22,08,25,18,01,14,,,1.24,0.96,0.78*05
12 18 09.485567033 $GPRMC,204316.000,A,3437.7838,N,11733.2957,W,0.68,12.51,091217,,,A*42
12 18 09.613744126 *5º$GPVTG,12.51,T,,M,0.68,N,1.26,K,A*01
12 18 09.720099373 .2957,W,0.68,12.51,091217,,,A*42
12 18 09.826275621 *5º$GPVTG,187.35,T,,M,1.31,N,2.43,K,A*33
12 18 09.935967844 $GPGGA,204321.000,3437.7856,N,11733.2938,W,1,10,0.96,878.0,M,-31.2,M,,*54
12 18 10.382365683 $GPGSA,A,3,11,31,10,32,22,08,25,18,01,14,,,1.24,0.96,0.78*05
12 18 10.491820908 -31.2,M,,*54
12 18 10.597604159 $GPRMC,204321.000,A,3437.7856,N,11733.2938,W,0.74,25.33,091217,,,A*4A
12 18 10.726277248 *5º$GPVTG,25.33,T,,M,0.74,N,1.37,K,A*0C
12 18 10.832340497 .2938,W,0.74,25.33,091217,,,A*4A
12 18 10.938039749 *5º$GPGGA,204239.012,3437.7805,N,11733.2943,W,1,06,1.58,878.0,M,-31.2,M,,*51
12 18 11.044667994 $GPGGA,204323.000,3437.7866,N,11733.2934,W,1,10,0.96,878.0,M,-31.2,M,,*59
12 18 11.488215853
12 18 11.590641128 $GPGSA,A,3,11,31,10,32,22,08,25,18,01,14,,,1.24,0.96,0.78*05
12 18 11.717513230
12 18 11.819969504 $GPGSV,3,1,12,14,66,017,24,31,59,146,19,32,47,041,27,48,46,205,28*79
12 18 11.924817762
12 18 12.030997010 $GPGSV,3,2,12,01,41,306,20,11,38,278,22,22,33,308,21,10,31,099,20*77
12 18 12.135920267
12 18 12.238657540 $GPGSV,3,3,12,03,13,302,,08,09,233,19,25,08,077,21,18,05,111,16*77
12 18 12.343669796
12 18 12.446289070 $GPRMC,204323.000,A,3437.7866,N,11733.2934,W,0.80,21.90,091217,,,A*41
12 18 12.551430325
12 18 12.653890600 $GPVTG,21.90,T,,M,0.80,N,1.48,K,A*02
12 18 12.779982707
12 18 12.882915978 $GPGSA,A,3,11,31,10,32,22,08,25,18,01,14,,,1.24,0.96,0.78*05
12 18 12.988803228 $GPRMC,204320.000,A,3437.7852,N,11733.2942,W,0.75,22.78,091217,,,A*4B
12 18 13.094935477 ^Cº$GPVTG,22.78,T,,M,0.75,N,1.39,K,A*0B
12 18 13.200916726 .2942,W,0.75,22.78,091217,,,A*4B
12 18 13.306657978 ^Cº$GPRMC,204249.009,A,3437.7825,N,11733.2943,W,0.58,200.88,091217,,,A*7F
12 18 13.413365222 Cº$GPGGA,204317.000,3437.7841,N,11733.2953,W,1,10,0.96,878.0,M,-31.2,M,,*5A
12 18 13.523221444 $GPGSA,A,3,11,31,10,32,22,08,25,18,01,14,,,1.24,0.96,0.78*05
12 18 13.628402700 -31.2,M,,*5A
12 18 13.734236950 $GPRMC,204317.000,A,3437.7841,N,11733.2953,W,0.68,12.56,091217,,,A*4E
12 18 13.861860047 *5º$GPVTG,12.56,T,,M,0.68,N,1.25,K,A*05
12 18 13.967380299 .2953,W,0.68,12.56,091217,,,A*4E
12 18 14.073024551 *5º$GPVTG,200.88,T,,M,0.58,N,1.08,K,A*3B
12 18 14.178953801 $GPGGA,204322.000,3437.7858,N,11733.2938,W,1,10,0.96,878.0,M,-31.2,M,,*59
12 18 14.624045650 $GPGSA,A,3,11,31,10,32,22,08,25,18,01,14,,,1.24,0.96,0.78*05
12 18 14.729224905 -31.2,M,,*59
12 18 14.848439061 $GPRMC,204322.000,A,3437.7858,N,11733.2938,W,0.72,23.26,091217,,,A*43
12 18 14.967878215 *59
12 18 15.073291469 $GPGGA,204324.000,3437.7873,N,11733.2930,W,1,11,0.90,878.0,M,-31.2,M,,*59
12 18 15.516613330
12 18 15.618911606 $GPGSA,A,3,11,31,10,32,22,08,25,03,18,01,14,,1.17,0.90,0.74*0C
12 18 15.724546858
12 18 15.827067132 $GPRMC,204324.000,A,3437.7873,N,11733.2930,W,0.75,13.77,091217,,,A*44
12 18 15.954591229
12 18 16.057243502 $GPVTG,13.77,T,,M,0.75,N,1.39,K,A*06
12 18 16.161972760
12 18 16.264376035 $GPVTG,23.26,T,,M,0.72,N,1.34,K,A*0B
12 18 16.370919281 ÿÿÿÿÿÿÿÿÿÿÿÿÿÿÿÿÿÿÿÿÿÿÿÿÿ$GPRMC,204245.008,A,3437.7824,N,11733.2945,W,0.62,194.94,091217,,,A*7F
12 18 16.483608483 $GPVTG,194.94,T,,M,0.62,N,1.15,K,A*3D
12 18 16.588988737 2945,W,0.62,194.94,091217,,,A*7F
12 18 16.694423990 $GPRMC,204236.015,A,3437.7835,N,11733.2957,W,1.31,187.35,091217,,,A*7A
12 18 16.799897243 $GPGGA,204316.000,3437.7838,N,11733.2957,W,1,10,0.96,878.0,M,-31.2,M,,*51
12 18 17.265385948 $GPGSA,A,3,11,31,10,32,22,08,25,18,01,14,,,1.24,0.96,0.78*05
12 18 17.371653195 $GPRMC,204316.000,A,3437.7838,N,11733.2957,W,0.68,12.51,091217,,,A*42
12 18 17.477308447 *5º$GPVTG,12.51,T,,M,0.68,N,1.26,K,A*01
12 18 17.582648701 $GPVTG,187.35,T,,M,1.31,N,2.43,K,A*33
12 18 17.688138954 $GPGGA,204321.000,3437.7856,N,11733.2938,W,1,10,0.96,878.0,M,-31.2,M,,*54
12 18 18.158923621 $GPGSA,A,3,11,31,10,32,22,08,25,18,01,14,,,1.24,0.96,0.78*05
12 18 18.264246875 -31.2,M,,*54
12 18 18.369855127 $GPRMC,204321.000,A,3437.7856,N,11733.2938,W,0.74,25.33,091217,,,A*4A
12 18 18.475275381 *54
12 18 18.580895633 $GPVTG,25.33,T,,M,0.74,N,1.37,K,A*0C
12 18 18.686183887 .2938,W,0.74,25.33,091217,,,A*4A
12 18 18.791566141 *54
12 18 18.896303400 $GPGGA,204239.012,3437.7805,N,11733.2943,W,1,06,1.58,878.0,M,-31.2,M,,*51
12 18 19.362630098 $GPGGA,204325.000,3437.7880,N,11733.2927,W,1,11,0.90,878.0,M,-31.2,M,,*52
12 18 19.809110936
12 18 19.911405212 $GPGSA,A,3,11,31,10,32,22,08,25,03,18,01,14,,1.17,0.90,0.74*0C
12 18 20.019221449
12 18 20.144021565 $GPRMC,204325.000,A,3437.7880,N,11733.2927,W,0.66,0.60,091217,,,A*79
12 18 20.248555825
12 18 20.351652095 $GPVTG,0.60,T,,M,0.66,N,1.22,K,A*3A
12 18 20.456100355
12 18 20.558283632 $GPGGA,204323.000,3437.7866,N,11733.2934,W,1,10,0.96,878.0,M,-31.2,M,,*59
12 18 21.027448310 $GPGSA,A,3,11,31,10,32,22,08,25,18,01,14,,,1.24,0.96,0.78*05
12 18 21.134267554 $GPGSV,3,1,12,14,66,017,24,31,59,146,19,32,47,041,27,48,46,205,28*79
12 18 21.261117655 ,*5º$GPGSV,3,2,12,01,41,306,20,11,38,278,22,22,33,308,21,10,31,099,20*77
12 18 21.366740907 ,*5º$GPGSV,3,3,12,03,13,302,,08,09,233,19,25,08,077,21,18,05,111,16*77
12 18 21.473134154 $GPRMC,204323.000,A,3437.7866,N,11733.2934,W,0.80,21.90,091217,,,A*41
12 18 21.578770406 *5º$GPVTG,21.90,T,,M,0.80,N,1.48,K,A*02
12 18 21.684785656 .2934,W,0.80,21.90,091217,,,A*41
12 18 21.790684906 *5º$GPGSA,A,3,11,31,10,32,22,08,25,18,01,14,,,1.24,0.96,0.78*05
12 18 21.896845154 7,,,A*41
12 18 22.002169408 *5º$GPRMC,204320.000,A,3437.7852,N,11733.2942,W,0.75,22.78,091217,,,A*4B
12 18 22.107789660 *5º$GPVTG,22.78,T,,M,0.75,N,1.39,K,A*0B
12 18 22.234963760 .2942,W,0.75,22.78,091217,,,A*4B
12 18 22.340472013 *5º$GPRMC,204249.009,A,3437.7825,N,11733.2943,W,0.58,200.88,091217,,,A*7F
12 18 22.446331263 5º$GPGGA,204317.000,3437.7841,N,11733.2953,W,1,10,0.96,878.0,M,-31.2,M,,*5A
12 18 22.556592483 $GPGSA,A,3,11,31,10,32,22,08,25,18,01,14,,,1.24,0.96,0.78*05
12 18 22.662024736 -31.2,M,,*5A
12 18 22.766875994 $GPGGA,204326.000,3437.7884,N,11733.2926,W,1,11,0.90,878.0,M,-31.2,M,,*54
12 18 23.208968863
12 18 23.331937993 $GPGSA,A,3,11,31,10,32,22,08,25,03,18,01,14,,1.17,0.90,0.74*0C
12 18 23.436561252
12 18 23.538382531 $GPRMC,204326.000,A,3437.7884,N,11733.2926,W,0.59,339.52,091217,,,A*7B
12 18 23.642767792
12 18 23.744603071 $GPVTG,339.52,T,,M,0.59,N,1.09,K,A*37
12 18 23.849013331
12 18 23.952056602 $GPRMC,204317.000,A,3437.7841,N,11733.2953,W,0.68,12.56,091217,,,A*4E
12 18 24.060391835 $GPVTG,12.56,T,,M,0.68,N,1.25,K,A*05
12 18 24.164487098 .2953,W,0.68,12.56,091217,,,A*4E
12 18 24.269665353 $GPVTG,200.88,T,,M,0.58,N,1.08,K,A*3B
12 18 24.396887452 $GPGGA,204322.000,3437.7858,N,11733.2938,W,1,10,0.96,878.0,M,-31.2,M,,*59
12 18 24.838194327 $GPGSA,A,3,11,31,10,32,22,08,25,18,01,14,,,1.24,0.96,0.78*05
12 18 24.943693580 -31.2,M,,*59
12 18 25.052104813 $GPRMC,204322.000,A,3437.7858,N,11733.2938,W,0.72,23.26,091217,,,A*43
12 18 25.157775065 *5º$GPGGA,204324.000,3437.7873,N,11733.2930,W,1,11,0.90,878.0,M,-31.2,M,,*59
12 18 25.264293310 $GPGSA,A,3,11,31,10,32,22,08,25,03,18,01,14,,1.17,0.90,0.74*0C
12 18 25.391891407 1.2,M,,*59
12 18 25.500741636 $GPRMC,204324.000,A,3437.7873,N,11733.2930,W,0.75,13.77,091217,,,A*44
12 18 25.606656886 *5º$GPVTG,13.77,T,,M,0.75,N,1.39,K,A*06
12 18 25.711704142 .2930,W,0.75,13.77,091217,,,A*44
12 18 25.819123382 *5º$GPVTG,23.26,T,,M,0.72,N,1.34,K,A*0B
12 18 25.925086632 .2930,W,0.75,13.77,091217,,,A*44
12 18 26.030208887 *5º$GPRMC,204245.008,A,3437.7824,N,11733.2945,W,0.62,194.94,091217,,,A*7F
12 18 26.136434135 5º$GPVTG,194.94,T,,M,0.62,N,1.15,K,A*3D
12 18 26.241423392 2945,W,0.62,194.94,091217,,,A*7F
12 18 26.346753646 5º$GPRMC,204236.015,A,3437.7835,N,11733.2957,W,1.31,187.35,091217,,,A*7A
12 18 26.473084751 5º$GPGGA,204327.000,3437.7896,N,11733.2932,W,1,11,0.90,877.9,M,-31.2,M,,*55
12 18 26.578044008
12 18 26.680865280 $GPGSA,A,3,11,31,10,32,22,08,25,03,18,01,14,,1.17,0.90,0.74*0C
12 18 26.785330541
12 18 26.887901814 $GPRMC,204327.000,A,3437.7896,N,11733.2932,W,0.71,328.78,091217,,,A*7E
12 18 26.996891043
12 18 27.099761314 $GPVTG,328.78,T,,M,0.71,N,1.32,K,A*3D
12 18 27.203976576
12 18 27.305499857 $GPGGA,204316.000,3437.7838,N,11733.2957,W,1,10,0.96,878.0,M,-31.2,M,,*51
12 18 27.768892576 $GPGSA,A,3,11,31,10,32,22,08,25,18,01,14,,,1.24,0.96,0.78*05
12 18 27.875633821 -31.2,M,,*51
12 18 27.980560078 $GPRMC,204316.000,A,3437.7838,N,11733.2957,W,0.68,12.51,091217,,,A*42
12 18 28.085445335 *5º$GPVTG,12.51,T,,M,0.68,N,1.26,K,A*01
12 18 28.190617590 .2957,W,0.68,12.51,091217,,,A*42
12 18 28.295056851 *5º$GPVTG,187.35,T,,M,1.31,N,2.43,K,A*33
12 18 28.400335105 2957,W,0.68,12.51,091217,,,A*42
12 18 28.530142186 *5º$GPGGA,204321.000,3437.7856,N,11733.2938,W,1,10,0.96,878.0,M,-31.2,M,,*54
12 18 28.635791438 $GPGSA,A,3,11,31,10,32,22,08,25,18,01,14,,,1.24,0.96,0.78*05
12 18 28.741262691 ”$GPRMC,204321.000,A,3437.7856,N,11733.2938,W,0.74,25.33,091217,,,A*4A
12 18 28.847506939 *5º$GPVTG,25.33,T,,M,0.74,N,1.37,K,A*0C
12 18 28.953511189 .2938,W,0.74,25.33,091217,,,A*4A
12 18 29.059294440 *5º$GPGGA,204239.012,3437.7805,N,11733.2943,W,1,06,1.58,878.0,M,-31.2,M,,*51
12 18 29.165627687 $GPGGA,204325.000,3437.7880,N,11733.2927,W,1,11,0.90,878.0,M,-31.2,M,,*52
12 18 29.627884414 $GPGSA,A,3,11,31,10,32,22,08,25,03,18,01,14,,1.17,0.90,0.74*0C
12 18 29.732722671 1.2,M,,*52
12 18 29.837946926 $GPRMC,204325.000,A,3437.7880,N,11733.2927,W,0.66,0.60,091217,,,A*79
12 18 29.943846176 ,*52
12 18 30.055381387 $GPVTG,0.60,T,,M,0.66,N,1.22,K,A*3A
12 18 30.160741641 3.2927,W,0.66,0.60,091217,,,A*79
12 18 30.265816897 ,*52
12 18 30.371432149 $GPGGA,204323.000,3437.7866,N,11733.2934,W,1,10,0.96,878.0,M,-31.2,M,,*59
12 18 30.835032866 $GPGGA,204328.000,3437.7898,N,11733.2930,W,1,11,0.90,877.9,M,-31.2,M,,*56
12 18 31.274568754
12 18 31.376572032 $GPGSA,A,3,11,31,10,32,22,08,25,03,18,01,14,,1.17,0.90,0.74*0C
12 18 31.484792266
12 18 31.586503545 $GPGSV,3,1,12,14,66,018,26,31,59,146,18,32,47,041,35,48,46,205,25*7B
12 18 31.712583653
12 18 31.814802929 $GPGSV,3,2,12,01,41,306,33,11,38,277,32,22,33,308,33,10,31,099,19*72
12 18 31.919855185
12 18 32.022854456 $GPGSV,3,3,12,03,13,302,31,08,09,233,20,25,08,077,30,18,05,111,19*70
12 18 32.126960719
12 18 32.229058996 $GPRMC,204328.000,A,3437.7898,N,11733.2930,W,0.49,356.65,091217,,,A*73
12 18 32.333303258
12 18 32.434979538 $GPVTG,356.65,T,,M,0.49,N,0.91,K,A*3B
12 18 32.538768803
12 18 32.640301084 $GPGSA,A,3,11,31,10,32,22,08,25,18,01,14,,,1.24,0.96,0.78*05
12 18 32.767610182 ÿ$GPGSV,3,1,12,14,66,017,24,31,59,146,19,32,47,041,27,48,46,205,28*79
12 18 32.873866430 $GPGSV,3,2,12,01,41,306,20,11,38,278,22,22,33,308,21,10,31,099,20*77
12 18 32.983699652 $GPGSV,3,3,12,03,13,302,,08,09,233,19,25,08,077,21,18,05,111,16*77
12 18 33.088641909 7
12 18 33.192223176 $GPRMC,204323.000,A,3437.7866,N,11733.2934,W,0.80,21.90,091217,,,A*41
12 18 33.297312432 $GPVTG,21.90,T,,M,0.80,N,1.48,K,A*02
12 18 33.402244689 $GPGSA,A,3,11,31,10,32,22,08,25,18,01,14,,,1.24,0.96,0.78*05
12 18 33.507646943 $GPRMC,204320.000,A,3437.7852,N,11733.2942,W,0.75,22.78,091217,,,A*4B
12 18 33.613727191 $GPVTG,22.78,T,,M,0.75,N,1.39,K,A*0B
12 18 33.740604293 .2942,W,0.75,22.78,091217,,,A*4B
12 18 33.846046546 $GPRMC,204249.009,A,3437.7825,N,11733.2943,W,0.58,200.88,091217,,,A*7F
12 18 33.952151795 $GPGGA,204317.000,3437.7841,N,11733.2953,W,1,10,0.96,878.0,M,-31.2,M,,*5A
12 18 34.392829675 $GPGSA,A,3,11,31,10,32,22,08,25,18,01,14,,,1.24,0.96,0.78*05
12 18 34.501675904 -31.2,M,,*5A
12 18 34.605402170 $GPGGA,204326.000,3437.7884,N,11733.2926,W,1,11,0.90,878.0,M,-31.2,M,,*54
12 18 35.075024845 $GPGGA,204329.000,3437.7897,N,11733.2928,W,1,11,0.92,877.9,M,-31.2,M,,*53
12 18 35.514767731
12 18 35.616845008 $GPGSA,A,3,11,31,10,32,22,08,25,03,18,01,14,,1.44,0.92,1.11*0A
12 18 35.721443267
12 18 35.846403383 $GPRMC,204329.000,A,3437.7897,N,11733.2928,W,0.29,10.29,091217,,,A*4B
12 18 35.951646638
12 18 36.057791886 $GPVTG,10.29,T,,M,0.29,N,0.53,K,A*0A
12 18 36.161982148
12 18 36.263208431 $GPGSA,A,3,11,31,10,32,22,08,25,03,18,01,14,,1.17,0.90,0.74*0C
12 18 36.368750684 $GPRMC,204326.000,A,3437.7884,N,11733.2926,W,0.59,339.52,091217,,,A*7B
12 18 36.474676934 $GPVTG,339.52,T,,M,0.59,N,1.09,K,A*37
12 18 36.579661191 2926,W,0.59,339.52,091217,,,A*7B
12 18 36.683804453 $GPRMC,204317.000,A,3437.7841,N,11733.2953,W,0.68,12.56,091217,,,A*4E
12 18 36.787689718
12 18 36.910704847 $GPVTG,12.56,T,,M,0.68,N,1.25,K,A*05
12 18 37.014914109 .2953,W,0.68,12.56,091217,,,A*4E
12 18 37.119616368
12 18 37.222517639 $GPVTG,200.88,T,,M,0.58,N,1.08,K,A*3B
12 18 37.328201891 $GPGGA,204322.000,3437.7858,N,11733.2938,W,1,10,0.96,878.0,M,-31.2,M,,*59
12 18 37.773928735 $GPGGA,204330.000,3437.7895,N,11733.2926,W,1,11,0.92,877.9,M,-31.2,M,,*57
12 18 38.236531459
12 18 38.339359731 $GPGSA,A,3,11,31,10,32,22,08,25,03,18,01,14,,1.44,0.92,1.11*0A
12 18 38.443640993
12 18 38.545368272 $GPRMC,204330.000,A,3437.7895,N,11733.2926,W,0.15,18.52,091217,,,A*44
12 18 38.649831533
12 18 38.751395814 $GPVTG,18.52,T,,M,0.15,N,0.28,K,A*0D
12 18 38.854839081
12 18 38.968753275 $GPGSA,A,3,11,31,10,32,22,08,25,18,01,14,,,1.24,0.96,0.78*05
12 18 39.088195429 ÿ$GPRMC,204322.000,A,3437.7858,N,11733.2938,W,0.72,23.26,091217,,,A*43
12 18 39.194339677 $GPGGA,204324.000,3437.7873,N,11733.2930,W,1,11,0.90,878.0,M,-31.2,M,,*59
12 18 39.637344541 $GPGSA,A,3,11,31,10,32,22,08,25,03,18,01,14,,1.17,0.90,0.74*0C
12 18 39.741909800 1.2,M,,*59
12 18 39.846126062 $GPGGA,204331.000,3437.7893,N,11733.2924,W,1,11,0.90,877.9,M,-31.2,M,,*50
12 18 40.311297769
12 18 40.414215040 $GPGSA,A,3,11,31,10,32,22,08,25,03,18,01,14,,1.17,0.90,0.74*0C
12 18 40.523481266
12 18 40.626311538 $GPRMC,204331.000,A,3437.7893,N,11733.2924,W,0.12,28.93,091217,,,A*48
12 18 40.731192795
12 18 40.832579078 $GPVTG,28.93,T,,M,0.12,N,0.23,K,A*0F
12 18 40.939062324
12 18 41.047318557 $GPRMC,204324.000,A,3437.7873,N,11733.2930,W,0.75,13.77,091217,,,A*44
12 18 41.169186694 $GPVTG,13.77,T,,M,0.75,N,1.39,K,A*06
12 18 41.275425942 $GPVTG,23.26,T,,M,0.72,N,1.34,K,A*0B
12 18 41.385522162 $GPRMC,204245.008,A,3437.7824,N,11733.2945,W,0.62,194.94,091217,,,A*7F
12 18 41.490839417 $GPVTG,194.94,T,,M,0.62,N,1.15,K,A*3D
12 18 41.596321670 2945,W,0.62,194.94,091217,,,A*7F
12 18 41.701882922 $GPRMC,204236.015,A,3437.7835,N,11733.2957,W,1.31,187.35,091217,,,A*7A
12 18 41.807030178 $GPGGA,204332.000,3437.7894,N,11733.2923,W,1,11,0.90,877.9,M,-31.2,M,,*53
12 18 42.274049871
12 18 42.380072120 $GPGSA,A,3,11,31,10,32,22,08,25,03,18,01,14,,1.17,0.90,0.74*0C
12 18 42.486614366
12 18 42.588579644 $GPRMC,204332.000,A,3437.7894,N,11733.2923,W,0.04,342.62,091217,,,A*7D
12 18 42.693066904
12 18 42.794819184 $GPVTG,342.62,T,,M,0.04,N,0.08,K,A*30
12 18 42.913374344
12 18 43.015522621 $GPGGA,204327.000,3437.7896,N,11733.2932,W,1,11,0.90,877.9,M,-31.2,M,,*55
12 18 43.480727327 $GPGSA,A,3,11,31,10,32,22,08,25,03,18,01,14,,1.17,0.90,0.74*0C
12 18 43.589727555 $GPRMC,204327.000,A,3437.7896,N,11733.2932,W,0.71,328.78,091217,,,A*7E
12 18 43.694953810 5º$GPVTG,328.78,T,,M,0.71,N,1.32,K,A*3D
12 18 43.799193072 2932,W,0.71,328.78,091217,,,A*7E
12 18 43.903526333 5º$GPGGA,204316.000,3437.7838,N,11733.2957,W,1,10,0.96,878.0,M,-31.2,M,,*51
12 18 44.008525590 $GPGGA,204333.000,3437.7894,N,11733.2923,W,1,11,0.90,877.9,M,-31.2,M,,*52
12 18 44.474395291
12 18 44.576668567 $GPGSA,A,3,11,31,10,32,22,08,25,03,18,01,14,,1.17,0.90,0.74*0C
12 18 44.679846837
12 18 44.781352118 $GPGSV,3,1,12,14,66,018,26,31,59,146,19,51,48,162,,32,47,041,31*7D
12 18 44.885111383
12 18 44.991379631 $GPGSV,3,2,12,01,41,306,32,11,38,277,31,22,33,308,29,10,31,099,16*74
12 18 45.096222888
12 18 45.198996161 $GPGSV,3,3,12,03,13,302,25,08,09,233,21,25,08,077,17,18,05,111,18*70
12 18 45.325955262
12 18 45.431535514 $GPRMC,204333.000,A,3437.7894,N,11733.2923,W,0.05,338.08,091217,,,A*7C
12 18 45.536088774
12 18 45.638477049 $GPVTG,338.08,T,,M,0.05,N,0.09,K,A*31
12 18 45.742729311
12 18 45.845369584 $GPGSA,A,3,11,31,10,32,22,08,25,18,01,14,,,1.24,0.96,0.78*05
12 18 45.949721845 ÿ$GPRMC,204316.000,A,3437.7838,N,11733.2957,W,0.68,12.51,091217,,,A*42
12 18 46.054792101 $GPVTG,12.51,T,,M,0.68,N,1.26,K,A*01
12 18 46.160953349 $GPVTG,187.35,T,,M,1.31,N,2.43,K,A*33
12 18 46.266705601 $GPGGA,204334.000,3437.7894,N,11733.2923,W,1,11,0.90,877.9,M,-31.2,M,,*55
12 18 46.734079291
12 18 46.835582573 $GPGSA,A,3,11,31,10,32,22,08,25,03,18,01,14,,1.17,0.90,0.74*0C
12 18 46.938962841
12 18 47.040614121 $GPRMC,204334.000,A,3437.7894,N,11733.2923,W,0.08,344.61,091217,,,A*72
12 18 47.145581378
12 18 47.248043652 $GPVTG,344.61,T,,M,0.08,N,0.14,K,A*34
12 18 47.354545898
12 18 47.477549027 $GPGGA,204321.000,3437.7856,N,11733.2938,W,1,10,0.96,878.0,M,-31.2,M,,*54
12 18 47.917487912 $GPGSA,A,3,11,31,10,32,22,08,25,18,01,14,,,1.24,0.96,0.78*05
12 18 48.027005137 $GPRMC,204321.000,A,3437.7856,N,11733.2938,W,0.74,25.33,091217,,,A*4A
12 18 48.133272384 *5º$GPVTG,25.33,T,,M,0.74,N,1.37,K,A*0C
12 18 48.238727638 .2938,W,0.74,25.33,091217,,,A*4A
12 18 48.344903886 *5º$GPGGA,204335.000,3437.7894,N,11733.2924,W,1,11,0.90,877.9,M,-31.2,M,,*53
12 18 48.472618981
12 18 48.575236255 $GPGSA,A,3,11,31,10,32,22,08,25,03,18,01,14,,1.17,0.90,0.74*0C
12 18 48.679480517
12 18 48.780878799 $GPRMC,204335.000,A,3437.7894,N,11733.2924,W,0.08,311.21,091217,,,A*70
12 18 48.884961062
12 18 48.987211338 $GPVTG,311.21,T,,M,0.08,N,0.15,K,A*31
12 18 49.091814597
12 18 49.194472870 $GPGGA,204239.012,3437.7805,N,11733.2943,W,1,06,1.58,878.0,M,-31.2,M,,*51
12 18 49.662863554 $GPGGA,204325.000,3437.7880,N,11733.2927,W,1,11,0.90,878.0,M,-31.2,M,,*52
12 18 50.104439427 $GPGSA,A,3,11,31,10,32,22,08,25,03,18,01,14,,1.17,0.90,0.74*0C
12 18 50.210046679 $GPRMC,204325.000,A,3437.7880,N,11733.2927,W,0.66,0.60,091217,,,A*79
12 18 50.316143928 ,*5º$GPVTG,0.60,T,,M,0.66,N,1.22,K,A*3A
12 18 50.422391176 3.2927,W,0.66,0.60,091217,,,A*79
12 18 50.553010251 ,*5º$GPGGA,204336.000,3437.7894,N,11733.2924,W,1,11,0.90,877.9,M,-31.2,M,,*50
12 18 50.657973508
12 18 50.760077785 $GPGSA,A,3,11,31,10,32,22,08,25,03,18,01,14,,1.17,0.90,0.74*0C
12 18 50.864978042
12 18 50.967329317 $GPRMC,204336.000,A,3437.7894,N,11733.2924,W,0.10,298.18,091217,,,A*70
12 18 51.076492544
12 18 51.179377816 $GPVTG,298.18,T,,M,0.10,N,0.18,K,A*3F
12 18 51.283941076
12 18 51.386504349 $GPGGA,204323.000,3437.7866,N,11733.2934,W,1,10,0.96,878.0,M,-31.2,M,,*59
12 18 51.848719077 $GPGGA,204328.000,3437.7898,N,11733.2930,W,1,11,0.90,877.9,M,-31.2,M,,*56
12 18 52.290818946 $GPGSA,A,3,11,31,10,32,22,08,25,03,18,01,14,,1.17,0.90,0.74*0C
12 18 52.396688197 $GPGGA,204337.000,3437.7894,N,11733.2924,W,1,11,0.90,877.9,M,-31.2,M,,*51
12 18 52.863378892
12 18 52.965183171 $GPGSA,A,3,11,31,10,32,22,08,25,03,18,01,14,,1.17,0.90,0.74*0C
12 18 53.069739431
12 18 53.173073699 $GPRMC,204337.000,A,3437.7894,N,11733.2924,W,0.04,19.48,091217,,,A*4A
12 18 53.278315954
12 18 53.380553230 $GPVTG,19.48,T,,M,0.04,N,0.08,K,A*05
12 18 53.484978491
12 18 53.586656771 $GPGSV,3,1,12,14,66,018,26,31,59,146,18,32,47,041,35,48,46,205,25*7B
12 18 53.714197868 $GPGSV,3,2,12,01,41,306,33,11,38,277,32,22,33,308,33,10,31,099,19*72
12 18 53.818977126 $GPGSV,3,3,12,03,13,302,31,08,09,233,20,25,08,077,30,18,05,111,19*70
12 18 53.923995382 $GPGGA,204338.000,3437.7894,N,11733.2924,W,1,11,0.90,877.9,M,-31.2,M,,*5E
12 18 54.371394215
12 18 54.474041488 $GPGSA,A,3,11,31,10,32,22,08,25,03,18,01,14,,1.17,0.90,0.74*0C
12 18 54.578839746
12 18 54.680343027 $GPGSV,3,1,12,14,66,018,25,31,59,146,18,51,48,162,,32,47,041,30*7E
12 18 54.806064137
12 18 54.907858416 $GPGSV,3,2,12,01,41,306,30,11,38,277,29,22,33,308,30,10,31,099,14*75
12 18 55.011564682
12 18 55.114070956 $GPGSV,3,3,12,03,13,302,23,08,09,233,20,25,08,077,16,18,05,111,18*76
12 18 55.218923214
12 18 55.321567487 $GPRMC,204338.000,A,3437.7894,N,11733.2924,W,0.17,297.53,091217,,,A*79
12 18 55.427135739
12 18 55.535682971 $GPVTG,297.53,T,,M,0.17,N,0.31,K,A*33
12 18 55.640319230
12 18 55.742806504 $GPRMC,204328.000,A,3437.7898,N,11733.2930,W,0.49,356.65,091217,,,A*73
12 18 55.871357594 $GPVTG,356.65,T,,M,0.49,N,0.91,K,A*3B
12 18 55.975597856 $GPGSA,A,3,11,31,10,32,22,08,25,18,01,14,,,1.24,0.96,0.78*05
12 18 56.082964096 ”$GPGSV,3,1,12,14,66,017,24,31,59,146,19,32,47,041,27,48,46,205,28*79
12 18 56.188407349 3
12 18 56.291947616 $GPGGA,204339.000,3437.7894,N,11733.2924,W,1,11,0.90,877.9,M,-31.2,M,,*5F
12 18 56.733281491
12 18 56.856757617 $GPGSA,A,3,11,31,10,32,22,08,25,03,18,01,14,,1.17,0.90,0.74*0C
12 18 56.960398883
12 18 57.067477125 $GPRMC,204339.000,A,3437.7894,N,11733.2924,W,0.05,214.76,091217,,,A*77
12 18 57.172263383
12 18 57.274705657 $GPVTG,214.76,T,,M,0.05,N,0.09,K,A*37
12 18 57.379551915
12 18 57.482121189 $GPGSV,3,2,12,01,41,306,20,11,38,278,22,22,33,308,21,10,31,099,20*77
12 18 57.588097438 $GPGSV,3,3,12,03,13,302,,08,09,233,19,25,08,077,21,18,05,111,16*77
12 18 57.693850690 $GPRMC,204323.000,A,3437.7866,N,11733.2934,W,0.80,21.90,091217,,,A*41
12 18 57.798289950 $GPVTG,21.90,T,,M,0.80,N,1.48,K,A*02
12 18 57.925186052 .2934,W,0.80,21.90,091217,,,A*41
12 18 58.029200315 $GPGSA,A,3,11,31,10,32,22,08,25,18,01,14,,,1.24,0.96,0.78*05
12 18 58.134786567 7,,,A*41
12 18 58.240335820 $GPRMC,204320.000,A,3437.7852,N,11733.2942,W,0.75,22.78,091217,,,A*4B
12 18 58.346812066 $GPVTG,22.78,T,,M,0.75,N,1.39,K,A*0B
12 18 58.452432318 .2942,W,0.75,22.78,091217,,,A*4B
12 18 58.562055542 $GPGGA,204340.000,3437.7894,N,11733.2925,W,1,11,0.90,877.9,M,-31.2,M,,*50
12 18 59.026164256
12 18 59.128666530 $GPGSA,A,3,11,31,10,32,22,08,25,03,18,01,14,,1.17,0.90,0.74*0C
12 18 59.233645787
12 18 59.336848056 $GPRMC,204340.000,A,3437.7894,N,11733.2925,W,0.11,142.96,091217,,,A*73
12 18 59.441720314
12 18 59.543545593 $GPVTG,142.96,T,,M,0.11,N,0.21,K,A*36
12 18 59.647715855
12 18 59.749253136 $GPRMC,204249.009,A,3437.7825,N,11733.2943,W,0.58,200.88,091217,,,A*7F
12 18 59.854048394 $GPGGA,204317.000,3437.7841,N,11733.2953,W,1,10,0.96,878.0,M,-31.2,M,,*5A
12 19 00.323138073 $GPGSA,A,3,11,31,10,32,22,08,25,18,01,14,,,1.24,0.96,0.78*05
12 19 00.428852324 -31.2,M,,*5A
12 19 00.538472548 $GPGGA,204326.000,3437.7884,N,11733.2926,W,1,11,0.90,878.0,M,-31.2,M,,*54
12 19 00.981134414 $GPGGA,204329.000,3437.7897,N,11733.2928,W,1,11,0.92,877.9,M,-31.2,M,,*53
12 19 01.481903868 $GPGSA,A,3,11,31,10,32,22,08,25,03,18,01,14,,1.44,0.92,1.11*0A
12 19 01.591297093 1.2,M,,*53
12 19 01.695355356 $GPGGA,204341.000,3437.7894,N,11733.2924,W,1,11,0.90,877.9,M,-31.2,M,,*50
12 19 02.157356085
12 19 02.260368356 $GPGSA,A,3,11,31,10,32,22,08,25,03,18,01,14,,1.17,0.90,0.74*0C
12 19 02.365102614
12 19 02.467247891 $GPRMC,204341.000,A,3437.7894,N,11733.2924,W,0.12,180.51,091217,,,A*75
12 19 02.572245148
12 19 02.673913428 $GPVTG,180.51,T,,M,0.12,N,0.23,K,A*32
12 19 02.777764692
12 19 02.879187974 $GPRMC,204329.000,A,3437.7897,N,11733.2928,W,0.29,10.29,091217,,,A*4B
12 19 02.984230230 $GPVTG,10.29,T,,M,0.29,N,0.53,K,A*0A
12 19 03.092982460 .2928,W,0.29,10.29,091217,,,A*4B
12 19 03.220747556 $GPGSA,A,3,11,31,10,32,22,08,25,03,18,01,14,,1.17,0.90,0.74*0C
12 19 03.326924804 $GPRMC,204326.000,A,3437.7884,N,11733.2926,W,0.59,339.52,091217,,,A*7B
12 19 03.433042053 $GPGGA,204342.000,3437.7894,N,11733.2924,W,1,11,0.90,877.9,M,-31.2,M,,*53
12 19 03.874616926
12 19 03.976276206 $GPGSA,A,3,11,31,10,32,22,08,25,03,18,01,14,,1.17,0.90,0.74*0C
12 19 04.079803473
12 19 04.182782744 $GPRMC,204342.000,A,3437.7894,N,11733.2924,W,0.21,118.57,091217,,,A*71
12 19 04.309460847
12 19 04.412700116 $GPVTG,118.57,T,,M,0.21,N,0.39,K,A*3E
12 19 04.521384346
12 19 04.622517630 $GPVTG,339.52,T,,M,0.59,N,1.09,K,A*37
12 19 04.727077890 $GPRMC,204317.000,A,3437.7841,N,11733.2953,W,0.68,12.56,091217,,,A*4E
12 19 04.831588150 $GPVTG,12.56,T,,M,0.68,N,1.25,K,A*05
12 19 04.935989411 .2953,W,0.68,12.56,091217,,,A*4E
12 19 05.040179673 $GPVTG,200.88,T,,M,0.58,N,1.08,K,A*3B
12 19 05.145891925 $GPGGA,204343.000,3437.7893,N,11733.2924,W,1,11,0.90,877.9,M,-31.2,M,,*55
12 19 05.613463614
12 19 05.715952888 $GPGSA,A,3,11,31,10,32,22,08,25,03,18,01,14,,1.17,0.90,0.74*0C
12 19 05.820385149
12 19 05.922763424 $GPGSV,3,1,12,14,66,018,18,31,59,146,17,32,47,041,29,48,46,205,*73
12 19 06.032045650
12 19 06.135032921 $GPGSV,3,2,12,01,41,306,30,11,38,277,30,22,33,308,34,10,31,099,21*7F
12 19 06.240054177
12 19 06.365208291 $GPGSV,3,3,12,03,13,302,25,08,09,233,20,25,08,077,14,18,05,111,19*73
12 19 06.469624552
12 19 06.571986827 $GPRMC,204343.000,A,3437.7893,N,11733.2924,W,0.06,170.56,091217,,,A*7D
12 19 06.676272089
12 19 06.778038368 $GPVTG,170.56,T,,M,0.06,N,0.11,K,A*3E
12 19 06.881611635
12 19 06.983043916 $GPGGA,204322.000,3437.7858,N,11733.2938,W,1,10,0.96,878.0,M,-31.2,M,,*59
12 19 07.449133616 $GPGGA,204330.000,3437.7895,N,11733.2926,W,1,11,0.92,877.9,M,-31.2,M,,*57
12 19 07.894775461 $GPGSA,A,3,11,31,10,32,22,08,25,03,18,01,14,,1.44,0.92,1.11*0A
12 19 07.999595719 $GPRMC,204330.000,A,3437.7895,N,11733.2926,W,0.15,18.52,091217,,,A*44
12 19 08.105711967 *5º$GPVTG,18.52,T,,M,0.15,N,0.28,K,A*0D
12 19 08.211836216 .2926,W,0.15,18.52,091217,,,A*44
12 19 08.317247469 *5º$GPGSA,A,3,11,31,10,32,22,08,25,18,01,14,,,1.24,0.96,0.78*05
12 19 08.445749560 7,,,A*44
12 19 08.550745816 *5º$GPGGA,204344.000,3437.7893,N,11733.2924,W,1,11,0.90,877.9,M,-31.2,M,,*52
12 19 08.656141070
12 19 08.757774350 $GPGSA,A,3,11,31,10,32,22,08,25,03,18,01,14,,1.17,0.90,0.74*0C
12 19 08.861469616
12 19 08.963356895 $GPRMC,204344.000,A,3437.7893,N,11733.2924,W,0.07,191.42,091217,,,A*71
12 19 09.073065118
12 19 09.175728391 $GPVTG,191.42,T,,M,0.07,N,0.12,K,A*36
12 19 09.280463649
12 19 09.383891917 $GPRMC,204322.000,A,3437.7858,N,11733.2938,W,0.72,23.26,091217,,,A*43
12 19 09.512781004 $GPGGA,204324.000,3437.7873,N,11733.2930,W,1,11,0.90,878.0,M,-31.2,M,,*59
12 19 09.953101887 $GPGSA,A,3,11,31,10,32,22,08,25,03,18,01,14,,1.17,0.90,0.74*0C
12 19 10.058739139 $GPGGA,204331.000,3437.7893,N,11733.2924,W,1,11,0.90,877.9,M,-31.2,M,,*50
12 19 10.518641882 $GPGSA,A,3,11,31,10,32,22,08,25,03,18,01,14,,1.17,0.90,0.74*0C
12 19 10.635155057 $GPRMC,204331.000,A,3437.7893,N,11733.2924,W,0.12,28.93,091217,,,A*48
12 19 10.743673289 *5º$GPVTG,28.93,T,,M,0.12,N,0.23,K,A*0F
12 19 10.848250548 .2924,W,0.12,28.93,091217,,,A*48
12 19 10.952474810 *5º$GPGGA,204345.000,3437.7893,N,11733.2924,W,1,11,0.90,877.9,M,-31.2,M,,*53
12 19 11.057121070
12 19 11.159612344 $GPGSA,A,3,11,31,10,32,22,08,25,03,18,01,14,,1.17,0.90,0.74*0C
12 19 11.264147604
12 19 11.366964876 $GPRMC,204345.000,A,3437.7893,N,11733.2924,W,0.13,187.85,091217,,,A*79
12 19 11.471751134
12 19 11.596821248 $GPVTG,187.85,T,,M,0.13,N,0.25,K,A*3B
12 19 11.701149509
12 19 11.802639791 $GPRMC,204324.000,A,3437.7873,N,11733.2930,W,0.75,13.77,091217,,,A*44
12 19 11.907670047 $GPVTG,13.77,T,,M,0.75,N,1.39,K,A*06
12 19 12.012224307 .2930,W,0.75,13.77,091217,,,A*44
12 19 12.122035529 $GPVTG,23.26,T,,M,0.72,N,1.34,K,A*0B
12 19 12.227519782 $GPRMC,204245.008,A,3437.7824,N,11733.2945,W,0.62,194.94,091217,,,A*7F
12 19 12.333868029 $GPVTG,194.94,T,,M,0.62,N,1.15,K,A*3D
12 19 12.439662280 2945,W,0.62,194.94,091217,,,A*7F
12 19 12.544910535 $GPGGA,204346.000,3437.7893,N,11733.2924,W,1,11,0.90,877.9,M,-31.2,M,,*50
12 19 13.006767265
12 19 13.109071540 $GPGSA,A,3,11,31,10,32,22,08,25,03,18,01,14,,1.17,0.90,0.74*0C
12 19 13.213480801
12 19 13.316247074 $GPRMC,204346.000,A,3437.7893,N,11733.2924,W,0.16,182.73,091217,,,A*73
12 19 13.421597328
12 19 13.523017609 $GPVTG,182.73,T,,M,0.16,N,0.30,K,A*36
12 19 13.631358842
12 19 13.754331972 $GPRMC,204236.015,A,3437.7835,N,11733.2957,W,1.31,187.35,091217,,,A*7A
12 19 13.859108230 $GPGGA,204332.000,3437.7894,N,11733.2923,W,1,11,0.90,877.9,M,-31.2,M,,*53
12 19 14.301185100 $GPGSA,A,3,11,31,10,32,22,08,25,03,18,01,14,,1.17,0.90,0.74*0C
12 19 14.407094350 $GPRMC,204332.000,A,3437.7894,N,11733.2923,W,0.04,342.62,091217,,,A*7D
12 19 14.513391597 5º$GPVTG,342.62,T,,M,0.04,N,0.08,K,A*30
12 19 14.619111848 2923,W,0.04,342.62,091217,,,A*7D
12 19 14.746658945 5º$GPGGA,204347.000,3437.7892,N,11733.2924,W,1,11,0.90,877.9,M,-31.2,M,,*50
12 19 14.850379211
12 19 14.952105491 $GPGSA,A,3,11,31,10,32,22,08,25,03,18,01,14,,1.17,0.90,0.74*0C
12 19 15.061335717
12 19 15.163996990 $GPRMC,204347.000,A,3437.7892,N,11733.2924,W,0.17,172.37,091217,,,A*7D
12 19 15.268871248
12 19 15.371773519 $GPVTG,172.37,T,,M,0.17,N,0.32,K,A*3A
12 19 15.476065781
12 19 15.578773053 $GPGGA,204327.000,3437.7896,N,11733.2932,W,1,11,0.90,877.9,M,-31.2,M,,*55
12 19 16.045423749 $GPGSA,A,3,11,31,10,32,22,08,25,03,18,01,14,,1.17,0.90,0.74*0C
12 19 16.152277993 $GPRMC,204327.000,A,3437.7896,N,11733.2932,W,0.71,328.78,091217,,,A*7E
12 19 16.259820231 5º$GPVTG,328.78,T,,M,0.71,N,1.32,K,A*3D
12 19 16.365931480 $GPGGA,204316.000,3437.7838,N,11733.2957,W,1,10,0.96,878.0,M,-31.2,M,,*51
12 19 16.825784224 $GPGGA,204348.000,3437.7892,N,11733.2924,W,1,11,0.90,877.9,M,-31.2,M,,*5F
12 19 17.274758045
12 19 17.377268319 $GPGSA,A,3,11,31,10,32,22,08,25,03,18,01,14,,1.17,0.90,0.74*0C
12 19 17.481806579
12 19 17.583267860 $GPGSV,3,1,12,14,66,018,19,31,59,146,20,32,47,041,22,48,46,205,*7D
12 19 17.688423116
12 19 17.790007397 $GPGSV,3,2,12,01,41,306,30,11,38,277,28,22,33,308,32,10,31,099,20*71
12 19 17.915828506
12 19 18.017934783 $GPGSV,3,3,12,03,13,302,28,08,09,233,19,25,08,077,18,18,05,111,17*76
12 19 18.126867011
12 19 18.229741283 $GPRMC,204348.000,A,3437.7892,N,11733.2924,W,0.24,169.72,091217,,,A*79
12 19 18.334430542
12 19 18.437063815 $GPVTG,169.72,T,,M,0.24,N,0.45,K,A*31
12 19 18.540553082
12 19 18.643254355 $GPGGA,204333.000,3437.7894,N,11733.2923,W,1,11,0.90,877.9,M,-31.2,M,,*52
12 19 19.106247077 $GPGSA,A,3,11,31,10,32,22,08,25,03,18,01,14,,1.17,0.90,0.74*0C
12 19 19.212133327 $GPGSV,3,1,12,14,66,018,26,31,59,146,19,51,48,162,,32,47,041,31*7D
12 19 19.318048577 $GPGSV,3,2,12,01,41,306,32,11,38,277,31,22,33,308,29,10,31,099,16*74
12 19 19.424571823 ,*5º$GPGGA,204349.000,3437.7891,N,11733.2923,W,1,11,0.90,877.9,M,-31.2,M,,*5A
12 19 19.529291081
12 19 19.635939326 $GPGSA,A,3,11,31,10,32,22,08,25,03,18,01,14,,1.17,0.90,0.74*0C
12 19 19.739180595
12 19 19.840031881 $GPRMC,204349.000,A,3437.7891,N,11733.2923,W,0.19,168.90,091217,,,A*7F
12 19 19.945310136
12 19 20.067417271 $GPVTG,168.90,T,,M,0.19,N,0.35,K,A*35
12 19 20.171397535
12 19 20.274192807 $GPGSV,3,3,12,03,13,302,25,08,09,233,21,25,08,077,17,18,05,111,18*70
12 19 20.380624053 $GPRMC,204333.000,A,3437.7894,N,11733.2923,W,0.05,338.08,091217,,,A*7C
12 19 20.486137306 $GPVTG,338.08,T,,M,0.05,N,0.09,K,A*31
12 19 20.591351561 2923,W,0.05,338.08,091217,,,A*7C
12 19 20.696441817 $GPGGA,204350.000,3437.7890,N,11733.2923,W,1,11,0.90,877.9,M,-31.2,M,,*53
12 19 21.169859465
12 19 21.272335740 $GPGSA,A,3,11,31,10,32,22,08,25,03,18,01,14,,1.17,0.90,0.74*0C
12 19 21.377503995
12 19 21.479005276 $GPRMC,204350.000,A,3437.7890,N,11733.2923,W,0.23,147.86,091217,,,A*75
12 19 21.584100532
12 19 21.685366815 $GPVTG,147.86,T,,M,0.23,N,0.42,K,A*36
12 19 21.789068081
12 19 21.890311364 $GPGSA,A,3,11,31,10,32,22,08,25,18,01,14,,,1.24,0.96,0.78*05
12 19 21.995314620 ÿ$GPRMC,204316.000,A,3437.7838,N,11733.2957,W,0.68,12.51,091217,,,A*42
12 19 22.123945710 $GPVTG,12.51,T,,M,0.68,N,1.26,K,A*01
12 19 22.229287964 .2957,W,0.68,12.51,091217,,,A*42
12 19 22.334761217 $GPVTG,187.35,T,,M,1.31,N,2.43,K,A*33
12 19 22.440184471 $GPGGA,204334.000,3437.7894,N,11733.2923,W,1,11,0.90,877.9,M,-31.2,M,,*55
12 19 22.886929307 $GPGGA,204351.000,3437.7890,N,11733.2923,W,1,11,0.90,877.9,M,-31.2,M,,*52
12 19 23.350931022
12 19 23.452752301 $GPGSA,A,3,11,31,10,32,22,08,25,03,18,01,14,,1.17,0.90,0.74*0C
12 19 23.557029563
12 19 23.658672843 $GPRMC,204351.000,A,3437.7890,N,11733.2923,W,0.28,148.56,091217,,,A*7D
12 19 23.762401108
12 19 23.863864390 $GPVTG,148.56,T,,M,0.28,N,0.51,K,A*3D
12 19 23.967065659
12 19 24.073489906 $GPGSA,A,3,11,31,10,32,22,08,25,03,18,01,14,,1.17,0.90,0.74*0C
12 19 24.201873997 $GPRMC,204334.000,A,3437.7894,N,11733.2923,W,0.08,344.61,091217,,,A*72
12 19 24.307582248 $GPVTG,344.61,T,,M,0.08,N,0.14,K,A*34
12 19 24.413152501 2923,W,0.08,344.61,091217,,,A*72
12 19 24.518318756 $GPGGA,204321.000,3437.7856,N,11733.2938,W,1,10,0.96,878.0,M,-31.2,M,,*54
12 19 24.960383626 $GPGSA,A,3,11,31,10,32,22,08,25,18,01,14,,,1.24,0.96,0.78*05
12 19 25.065774880 $GPRMC,204321.000,A,3437.7856,N,11733.2938,W,0.74,25.33,091217,,,A*4A
12 19 25.171550131 *5º$GPVTG,25.33,T,,M,0.74,N,1.37,K,A*0C
12 19 25.299095228 .2938,W,0.74,25.33,091217,,,A*4A
12 19 25.405036478 *5º$GPGGA,204335.000,3437.7894,N,11733.2924,W,1,11,0.90,877.9,M,-31.2,M,,*53
12 19 25.511135726 $GPGGA,204352.000,3437.7889,N,11733.2922,W,1,11,0.90,877.9,M,-31.2,M,,*58
12 19 25.959186554
12 19 26.061149832 $GPGSA,A,3,11,31,10,32,22,08,25,03,18,01,14,,1.17,0.90,0.74*0C
12 19 26.166002089
12 19 26.294131182 $GPRMC,204352.000,A,3437.7889,N,11733.2922,W,0.15,163.86,091217,,,A*7D
12 19 26.399245438
12 19 26.501398715 $GPVTG,163.86,T,,M,0.15,N,0.28,K,A*39
12 19 26.605614977
12 19 26.707112258 $GPGSA,A,3,11,31,10,32,22,08,25,03,18,01,14,,1.17,0.90,0.74*0C
12 19 26.811729517 $GPRMC,204335.000,A,3437.7894,N,11733.2924,W,0.08,311.21,091217,,,A*70
12 19 26.916618775 $GPVTG,311.21,T,,M,0.08,N,0.15,K,A*31
12 19 27.021499032 $GPGGA,204239.012,3437.7805,N,11733.2943,W,1,06,1.58,878.0,M,-31.2,M,,*51
12 19 27.491725703 $GPGGA,204325.000,3437.7880,N,11733.2927,W,1,11,0.90,878.0,M,-31.2,M,,*52
12 19 27.932130584 $GPGGA,204353.000,3437.7889,N,11733.2922,W,1,11,0.90,877.9,M,-31.2,M,,*59
12 19 28.396566296
12 19 28.498079577 $GPGSA,A,3,11,31,10,32,22,08,25,03,18,01,14,,1.17,0.90,0.74*0C
12 19 28.606298811
12 19 28.707797092 $GPGSV,3,1,12,14,66,018,21,31,59,146,33,32,47,041,18,48,46,205,*7D
12 19 28.811455358
12 19 28.912862640 $GPGSV,3,2,12,01,42,306,22,11,38,277,24,22,33,308,24,10,31,099,19*70
12 19 29.016169909
12 19 29.118284186 $GPGSV,3,3,12,03,13,302,19,08,09,233,20,25,08,077,15,18,05,111,16*72
12 19 29.222984444
12 19 29.325778716 $GPRMC,204353.000,A,3437.7889,N,11733.2922,W,0.11,221.70,091217,,,A*74
12 19 29.452853817
12 19 29.555614089 $GPVTG,221.70,T,,M,0.11,N,0.20,K,A*39
12 19 29.660079349
12 19 29.762164626 $GPGSA,A,3,11,31,10,32,22,08,25,03,18,01,14,,1.17,0.90,0.74*0C
12 19 29.866837885 $GPRMC,204325.000,A,3437.7880,N,11733.2927,W,0.66,0.60,091217,,,A*79
12 19 29.971791142 $GPGGA,204354.000,3437.7888,N,11733.2923,W,1,11,0.90,877.9,M,-31.2,M,,*5E
12 19 30.419599971
12 19 30.544800085 $GPGSA,A,3,11,31,10,32,22,08,25,03,18,01,14,,1.17,0.90,0.74*0C
12 19 30.649416344
12 19 30.752153617 $GPRMC,204354.000,A,3437.7888,N,11733.2923,W,0.13,210.91,091217,,,A*7C
12 19 30.856137880
12 19 30.957234165 $GPVTG,210.91,T,,M,0.13,N,0.24,K,A*32
12 19 31.060764432
12 19 31.163341705 $GPVTG,0.60,T,,M,0.66,N,1.22,K,A*3A
12 19 31.273719924 ÿÿÿÿÿÿÿÿÿÿÿÿÿÿÿÿÿÿÿÿÿÿÿÿÿÿ$GPGGA,204336.000,3437.7894,N,11733.2924,W,1,11,0.90,877.9,M,-31.2,M,,*50
12 19 31.382986150 $GPGSA,A,3,11,31,10,32,22,08,25,03,18,01,14,,1.17,0.90,0.74*0C
12 19 31.488008406 1.2,M,,*50
12 19 31.619332477 $GPRMC,204336.000,A,3437.7894,N,11733.2924,W,0.10,298.18,091217,,,A*70
12 19 31.723336740 50
12 19 31.825012020 $GPVTG,298.18,T,,M,0.10,N,0.18,K,A*3F
12 19 31.928967284 2924,W,0.10,298.18,091217,,,A*70
12 19 32.032047554 50
12 19 32.134777827 $GPGGA,204355.000,3437.7888,N,11733.2923,W,1,11,0.90,877.9,M,-31.2,M,,*5F
12 19 32.599991533
12 19 32.701879812 $GPGSA,A,3,11,31,10,32,22,08,25,03,18,01,14,,1.17,0.90,0.74*0C
12 19 32.805595077
12 19 32.907184358 $GPRMC,204355.000,A,3437.7888,N,11733.2923,W,0.07,197.83,091217,,,A*77
12 19 33.011316621
12 19 33.118005865 $GPVTG,197.83,T,,M,0.07,N,0.13,K,A*3C
12 19 33.222735124
12 19 33.326094392 $GPGGA,204323.000,3437.7866,N,11733.2934,W,1,10,0.96,878.0,M,-31.2,M,,*59
12 19 33.789302112 $GPGGA,204328.000,3437.7898,N,11733.2930,W,1,11,0.90,877.9,M,-31.2,M,,*56
12 19 34.229908992 $GPGSA,A,3,11,31,10,32,22,08,25,03,18,01,14,,1.17,0.90,0.74*0C
12 19 34.335915242 1.2,M,,*56
12 19 34.440837499 $GPGGA,204337.000,3437.7894,N,11733.2924,W,1,11,0.90,877.9,M,-31.2,M,,*51
12 19 34.906585201 $GPGGA,204356.000,3437.7888,N,11733.2923,W,1,11,0.90,877.9,M,-31.2,M,,*5C
12 19 35.348671071
12 19 35.450855347 $GPGSA,A,3,11,31,10,32,22,08,25,03,18,01,14,,1.17,0.90,0.74*0C
12 19 35.555621605
12 19 35.658292878 $GPRMC,204356.000,A,3437.7888,N,11733.2923,W,0.11,141.10,091217,,,A*72
12 19 35.783918989
12 19 35.885454270 $GPVTG,141.10,T,,M,0.11,N,0.20,K,A*3A
12 19 35.988908537
12 19 36.096058779 $GPGSA,A,3,11,31,10,32,22,08,25,03,18,01,14,,1.17,0.90,0.74*0C
12 19 36.202087028 $GPRMC,204337.000,A,3437.7894,N,11733.2924,W,0.04,19.48,091217,,,A*4A
12 19 36.310427261 $GPVTG,19.48,T,,M,0.04,N,0.08,K,A*05
12 19 36.415939514 .2924,W,0.04,19.48,091217,,,A*4A
12 19 36.521454767 $GPGGA,204357.000,3437.7888,N,11733.2922,W,1,11,0.90,877.9,M,-31.2,M,,*5C
12 19 36.983164497
12 19 37.085033776 $GPGSA,A,3,11,31,10,32,22,08,25,03,18,01,14,,1.17,0.90,0.74*0C
12 19 37.189620036
12 19 37.292286309 $GPRMC,204357.000,A,3437.7888,N,11733.2922,W,0.48,56.68,091217,,,A*46
12 19 37.396648570
12 19 37.498101851 $GPVTG,56.68,T,,M,0.48,N,0.89,K,A*0D
12 19 37.605970088
12 19 37.708855359 $GPGSV,3,1,12,14,66,018,26,31,59,146,18,32,47,041,35,48,46,205,25*7B
12 19 37.838621440 $GPGSV,3,2,12,01,41,306,33,11,38,277,32,22,33,308,33,10,31,099,19*72
12 19 37.944552690 $GPGSV,3,3,12,03,13,302,31,08,09,233,20,25,08,077,30,18,05,111,19*70
12 19 38.050064943 $GPGGA,204338.000,3437.7894,N,11733.2924,W,1,11,0.90,877.9,M,-31.2,M,,*5E
12 19 38.492990807 $GPGGA,204358.000,3437.7889,N,11733.2921,W,1,11,0.90,877.9,M,-31.2,M,,*51
12 19 38.954200541
12 19 39.056381818 $GPGSA,A,3,11,31,10,32,22,08,25,03,18,01,14,,1.17,0.90,0.74*0C
12 19 39.165009049
12 19 39.267409324 $GPGSV,3,1,12,14,66,018,14,31,59,146,15,51,48,162,,32,47,041,18*7B
12 19 39.372125582
12 19 39.473914861 $GPGSV,3,2,12,01,42,306,21,11,38,277,22,22,33,308,22,10,31,100,18*73
12 19 39.578559120
12 19 39.679666405 $GPGSV,3,3,12,03,13,302,16,08,09,233,33,25,08,077,19,18,05,111,20*76
12 19 39.783150672
12 19 39.897976859 $GPRMC,204358.000,A,3437.7889,N,11733.2921,W,0.58,57.40,091217,,,A*41
12 19 40.010457062
12 19 40.112377341 $GPVTG,57.40,T,,M,0.58,N,1.08,K,A*0F
12 19 40.217028600
12 19 40.319583874 $GPGSA,A,3,11,31,10,32,22,08,25,03,18,01,14,,1.17,0.90,0.74*0C
12 19 40.425816121 $GPGSV,3,1,12,14,66,018,25,31,59,146,18,51,48,162,,32,47,041,30*7E
12 19 40.532000370 $GPGSV,3,2,12,01,41,306,30,11,38,277,29,22,33,308,30,10,31,099,14*75
12 19 40.642140590 $GPGGA,204359.000,3437.7890,N,11733.2919,W,1,11,0.90,877.9,M,-31.2,M,,*53
12 19 41.106330303
12 19 41.208801577 $GPGSA,A,3,11,31,10,32,22,08,25,03,18,01,14,,1.17,0.90,0.74*0C
12 19 41.316786813
12 19 41.423235059 $GPRMC,204359.000,A,3437.7890,N,11733.2919,W,0.53,70.77,091217,,,A*49
12 19 41.527484321
12 19 41.628738604 $GPVTG,70.77,T,,M,0.53,N,0.98,K,A*0D
12 19 41.731985873
12 19 41.833440155 $GPGSV,3,3,12,03,13,302,23,08,09,233,20,25,08,077,16,18,05,111,18*76
12 19 41.938092414 $GPRMC,204338.000,A,3437.7894,N,11733.2924,W,0.17,297.53,091217,,,A*79
12 19 42.070677475 $GPVTG,297.53,T,,M,0.17,N,0.31,K,A*33
12 19 42.176426726 2924,W,0.17,297.53,091217,,,A*79
12 19 42.281751980 $GPRMC,204328.000,A,3437.7898,N,11733.2930,W,0.49,356.65,091217,,,A*73
12 19 42.391647202 $GPVTG,356.65,T,,M,0.49,N,0.91,K,A*3B
12 19 42.497259454 2930,W,0.49,356.65,091217,,,A*73
12 19 42.602716708 $GPGSA,A,3,11,31,10,32,22,08,25,18,01,14,,,1.24,0.96,0.78*05
12 19 42.708425959 17,,,A*73
12 19 42.813247217 $GPGGA,204400.000,3437.7890,N,11733.2918,W,1,11,0.90,877.9,M,-31.2,M,,*59
12 19 43.289717843
12 19 43.392596115 $GPGSA,A,3,11,31,10,32,22,08,25,03,18,01,14,,1.17,0.90,0.74*0C
12 19 43.496798377
12 19 43.602965625 $GPRMC,204400.000,A,3437.7890,N,11733.2918,W,0.51,67.72,091217,,,A*42
12 19 43.706699891
12 19 43.808117173 $GPVTG,67.72,T,,M,0.51,N,0.95,K,A*01
12 19 43.911314442
12 19 44.012814723 $GPGSV,3,1,12,14,66,017,24,31,59,146,19,32,47,041,27,48,46,205,28*79
12 19 44.140989816 $GPGGA,204339.000,3437.7894,N,11733.2924,W,1,11,0.90,877.9,M,-31.2,M,,*5F
12 19 44.586981658 $GPGSA,A,3,11,31,10,32,22,08,25,03,18,01,14,,1.17,0.90,0.74*0C
12 19 44.691458918 1.2,M,,*5F
12 19 44.795831179 $GPRMC,204339.000,A,3437.7894,N,11733.2924,W,0.05,214.76,091217,,,A*77
12 19 44.899747443 5F
12 19 45.001656722 $GPGGA,204401.000,3437.7891,N,11733.2916,W,1,11,0.90,877.9,M,-31.2,M,,*57
12 19 45.471538395
12 19 45.573809670 $GPGSA,A,3,11,31,10,32,22,08,25,03,18,01,14,,1.17,0.90,0.74*0C
12 19 45.678811927
12 19 45.781315201 $GPRMC,204401.000,A,3437.7891,N,11733.2916,W,0.36,70.22,091217,,,A*4E
12 19 45.885386464
12 19 45.986252750 $GPVTG,70.22,T,,M,0.36,N,0.66,K,A*0F
12 19 46.089859017
12 19 46.203230214 $GPVTG,214.76,T,,M,0.05,N,0.09,K,A*37
12 19 46.320814381 ÿÿÿÿÿÿÿÿÿÿÿÿÿÿÿÿÿÿÿÿÿÿÿÿ$GPGSV,3,2,12,01,41,306,20,11,38,278,22,22,33,308,21,10,31,099,20*77
12 19 46.432229592 $GPGSV,3,3,12,03,13,302,,08,09,233,19,25,08,077,21,18,05,111,16*77
12 19 46.537047850 7
12 19 46.644377090 $GPRMC,204323.000,A,3437.7866,N,11733.2934,W,0.80,21.90,091217,,,A*41
12 19 46.749782344 $GPGGA,204402.000,3437.7891,N,11733.2915,W,1,11,0.90,877.9,M,-31.2,M,,*57
12 19 47.190461224
12 19 47.314854343 $GPGSA,A,3,11,31,10,32,22,08,25,03,18,01,14,,1.17,0.90,0.74*0C
12 19 47.419603601
12 19 47.522556872 $GPRMC,204402.000,A,3437.7891,N,11733.2915,W,0.23,33.10,091217,,,A*4C
12 19 47.626698135
12 19 47.728523414 $GPVTG,33.10,T,,M,0.23,N,0.43,K,A*0A
12 19 47.832988674
12 19 47.934533955 $GPVTG,21.90,T,,M,0.80,N,1.48,K,A*02
12 19 48.040219207 ÿÿÿÿÿÿÿÿÿÿÿÿÿÿÿÿÿÿÿÿÿÿÿÿÿ$GPGSA,A,3,11,31,10,32,22,08,25,18,01,14,,,1.24,0.96,0.78*05
12 19 48.152841409 ÿ$GPRMC,204320.000,A,3437.7852,N,11733.2942,W,0.75,22.78,091217,,,A*4B
12 19 48.258488661 $GPVTG,22.78,T,,M,0.75,N,1.39,K,A*0B
12 19 48.386703753 .2942,W,0.75,22.78,091217,,,A*4B
12 19 48.492052008 $GPGGA,204403.000,3437.7892,N,11733.2915,W,1,11,0.90,877.9,M,-31.2,M,,*55
12 19 48.932145891
12 19 49.033505174 $GPGSA,A,3,11,31,10,32,22,08,25,03,18,01,14,,1.17,0.90,0.74*0C
12 19 49.137823435
12 19 49.239943712 $GPGSV,3,1,12,14,66,018,21,31,59,146,19,51,48,162,,32,47,041,17*7E
12 19 49.345366966
12 19 49.469736085 $GPGSV,3,2,12,01,42,306,21,11,38,277,26,22,33,308,21,10,31,100,17*7B
12 19 49.578284316
12 19 49.679827597 $GPGSV,3,3,12,03,13,302,19,08,09,233,20,25,08,077,16,18,05,111,19*7E
12 19 49.783093866
12 19 49.884495148 $GPRMC,204403.000,A,3437.7892,N,11733.2915,W,0.23,36.20,091217,,,A*48
12 19 49.987709417
12 19 50.089713695 $GPVTG,36.20,T,,M,0.23,N,0.42,K,A*0D
12 19 50.194325954
12 19 50.296641230 $GPGGA,204340.000,3437.7894,N,11733.2925,W,1,11,0.90,877.9,M,-31.2,M,,*50
12 19 50.762615931 $GPGSA,A,3,11,31,10,32,22,08,25,03,18,01,14,,1.17,0.90,0.74*0C
12 19 50.867805186 1.2,M,,*50
12 19 50.971967448 $GPRMC,204340.000,A,3437.7894,N,11733.2925,W,0.11,142.96,091217,,,A*73
12 19 51.081426673 50
12 19 51.184531943 $GPVTG,142.96,T,,M,0.11,N,0.21,K,A*36
12 19 51.289868197 2925,W,0.11,142.96,091217,,,A*73
12 19 51.394913454 50
12 19 51.521733556 $GPRMC,204249.009,A,3437.7825,N,11733.2943,W,0.58,200.88,091217,,,A*7F
12 19 51.626308815 50
12 19 51.728083094 $GPGGA,204404.000,3437.7892,N,11733.2914,W,1,11,0.90,877.9,M,-31.2,M,,*53
12 19 52.168201978
12 19 52.270448254 $GPGSA,A,3,11,31,10,32,22,08,25,03,18,01,14,,1.17,0.90,0.74*0C
12 19 52.375526510
12 19 52.478184783 $GPRMC,204404.000,A,3437.7892,N,11733.2914,W,0.25,35.87,091217,,,A*46
12 19 52.608788859
12 19 52.709872143 $GPVTG,35.87,T,,M,0.25,N,0.45,K,A*02
12 19 52.813246411
12 19 52.914707692 $GPGGA,204317.000,3437.7841,N,11733.2953,W,1,10,0.96,878.0,M,-31.2,M,,*5A
12 19 53.358120553 $GPGSA,A,3,11,31,10,32,22,08,25,18,01,14,,,1.24,0.96,0.78*05
12 19 53.463811804 -31.2,M,,*5A
12 19 53.570682048 $GPGGA,204326.000,3437.7884,N,11733.2926,W,1,11,0.90,878.0,M,-31.2,M,,*54
12 19 54.030555792 $GPGGA,204329.000,3437.7897,N,11733.2928,W,1,11,0.92,877.9,M,-31.2,M,,*53
12 19 54.477376628 $GPGGA,204405.000,3437.7893,N,11733.2914,W,1,11,0.90,877.9,M,-31.2,M,,*53
12 19 54.937807368
12 19 55.039369649 $GPGSA,A,3,11,31,10,32,22,08,25,03,18,01,14,,1.17,0.90,0.74*0C
12 19 55.143720910
12 19 55.246349183 $GPRMC,204405.000,A,3437.7893,N,11733.2914,W,0.23,39.57,091217,,,A*41
12 19 55.351405439
12 19 55.454129712 $GPVTG,39.57,T,,M,0.23,N,0.42,K,A*02
12 19 55.558424973
12 19 55.667680200 $GPGSA,A,3,11,31,10,32,22,08,25,03,18,01,14,,1.44,0.92,1.11*0A
12 19 55.792702315 $GPGGA,204341.000,3437.7894,N,11733.2924,W,1,11,0.90,877.9,M,-31.2,M,,*50
12 19 56.234806184 $GPGSA,A,3,11,31,10,32,22,08,25,03,18,01,14,,1.17,0.90,0.74*0C
12 19 56.341106431 1.2,M,,*50
12 19 56.446196687 $GPRMC,204341.000,A,3437.7894,N,11733.2924,W,0.12,180.51,091217,,,A*75
12 19 56.555091916 50
12 19 56.658072187 $GPGGA,204406.000,3437.7893,N,11733.2913,W,1,11,0.90,877.9,M,-31.2,M,,*57
12 19 57.124179887
12 19 57.226802160 $GPGSA,A,3,11,31,10,32,22,08,25,03,18,01,14,,1.17,0.90,0.74*0C
12 19 57.330994422
12 19 57.433781695 $GPRMC,204406.000,A,3437.7893,N,11733.2913,W,0.18,30.53,091217,,,A*40
12 19 57.538523953
12 19 57.639687237 $GPVTG,30.53,T,,M,0.18,N,0.34,K,A*06
12 19 57.743133504
12 19 57.865945635 $GPVTG,180.51,T,,M,0.12,N,0.23,K,A*32
12 19 57.970958891 ÿÿÿÿÿÿÿÿÿÿÿÿÿÿÿÿÿÿÿÿÿÿÿÿ$GPRMC,204329.000,A,3437.7897,N,11733.2928,W,0.29,10.29,091217,,,A*4B
12 19 58.078936127 $GPVTG,10.29,T,,M,0.29,N,0.53,K,A*0A
12 19 58.184376380 .2928,W,0.29,10.29,091217,,,A*4B
12 19 58.289668634 $GPGSA,A,3,11,31,10,32,22,08,25,03,18,01,14,,1.17,0.90,0.74*0C
12 19 58.395331886 ,,A*4B
12 19 58.500950138 $GPRMC,204326.000,A,3437.7884,N,11733.2926,W,0.59,339.52,091217,,,A*7B
12 19 58.611343357 $GPGGA,204407.000,3437.7894,N,11733.2913,W,1,10,0.95,877.9,M,-31.2,M,,*55
12 19 59.074304078
12 19 59.177095350 $GPGSA,A,3,11,31,10,32,22,08,25,03,01,14,,,1.22,0.95,0.77*05
12 19 59.281778609
12 19 59.384680881 $GPRMC,204407.000,A,3437.7894,N,11733.2913,W,0.17,40.38,091217,,,A*43
12 19 59.488934142
12 19 59.590522423 $GPVTG,40.38,T,,M,0.17,N,0.31,K,A*06
12 19 59.694614686
12 19 59.796325966 $GPGGA,204342.000,3437.7894,N,11733.2924,W,1,11,0.90,877.9,M,-31.2,M,,*53
12 20 00.263888655 $GPGSA,A,3,11,31,10,32,22,08,25,03,18,01,14,,1.17,0.90,0.74*0C
12 20 00.369495907 1.2,M,,*53
12 20 00.474734162 $GPRMC,204342.000,A,3437.7894,N,11733.2924,W,0.21,118.57,091217,,,A*71
12 20 00.579521420 53
12 20 00.682996687 $GPGGA,204408.000,3437.7894,N,11733.2912,W,1,10,0.95,877.9,M,-31.2,M,,*5B
12 20 01.180325165
12 20 01.283042438 $GPGSA,A,3,11,31,10,32,22,08,25,03,01,14,,,1.22,0.95,0.77*05
12 20 01.387785696
12 20 01.490934966 $GPGSV,3,1,12,14,66,018,18,31,59,146,18,32,47,041,17,01,42,306,17*7C
12 20 01.605119158
12 20 01.706666438 $GPGSV,3,2,12,11,38,277,26,22,33,308,21,10,31,100,17,03,13,302,18*73
12 20 01.810308705
12 20 01.912039984 $GPGSV,3,3,12,08,09,233,18,25,08,077,15,18,04,111,17,34,,,*46
12 20 02.037811094
12 20 02.140181369 $GPRMC,204408.000,A,3437.7894,N,11733.2912,W,0.13,63.45,091217,,,A*42
12 20 02.245311624
12 20 02.347944898 $GPVTG,63.45,T,,M,0.13,N,0.25,K,A*0C
12 20 02.452041160
